,Application Reference,Application Type,Premises Name,Premises Address,Application Legislation,Application Status,Application Objections,Approved Date,Date Of Events,Expiry Date,Hearing Date,Last Date For Representations,Received Date,Refused Date,Cumulative Impact Policy Area Name,Ward Code,Ward Name,Easting,Northing,Longitude,Latitude,Spatial Accuracy,Last Uploaded,Location,Socrata ID,Organisation URI,path,Origin-Destination,PathId
17,APP\PREMISES-NEW\000609,Premises - New Licence,Wates House,"22 UCL THE BARTLETT SCHOOL BUILDING GORDON STREET, LONDON, WC1H 0QB",LA2003,Application Rejected,No,,,,,10/01/2008,2007-12-13,21/12/2007,,E05000129,Bloomsbury,529673.59,182410.42,-0.13218,51.525738,Nearest OS Open Map-Local Building,11/05/2017 07:37:30 PM,"(51.525738, -0.13218)",29445,http://opendatacommunities.org/id/london-borough-council/camden,1,Destination,originAPP\PREMISES-NEW\000609
24,APP\PREMISES-NEW\000253,Premises - New Licence,TBWA London Social Club,"78 WHITFIELD STREET, LONDON, W1T 4EZ",LA2003,Application Rejected - Incomplete Documentation,No,,,,,03/02/2006,2006-06-01,12/01/2006,,E05000129,Bloomsbury,529359.73,182034.29,-0.13683900000000002,51.52243,Nearest OS Open Map-Local Building,11/05/2017 07:37:30 PM,"(51.52243, -0.136839)",29737,http://opendatacommunities.org/id/london-borough-council/camden,1,Destination,originAPP\PREMISES-NEW\000253
56,APP\PREMISES-NEW\000633,Premises - New Licence,NASZA POLSKA LTD (formerly Baltic Market),"336 KILBURN HIGH ROAD, LONDON, NW6 2QN",LA2003,Application Approved In Full,No,20/03/2008,,,,07/03/2008,2008-08-02,,,,,524741.05,184482.01,-0.20251,51.545465,Nearest OS Open Map-Local Building,11/05/2017 07:37:30 PM,"(51.545465, -0.20251)",29426,http://opendatacommunities.org/id/london-borough-council/camden,1,Destination,originAPP\PREMISES-NEW\000633
77,APP\PREMISES-NEW\001315,Premises - New Licence,Ottolenghi's,"HARTLAND ROAD ARCHES HARTLAND ROAD, LONDON, NW1 8HR",LA2003,Application Approved In Full,No,10/09/2013,,,,09/09/2013,2013-12-08,,Camden Town,E05000130,Camden Town with Primrose Hill,528675.53,184356.86,-0.145848,51.543458,Nearest OS Open Map-Local Building,11/05/2017 07:37:30 PM,"(51.543458, -0.145848)",28823,http://opendatacommunities.org/id/london-borough-council/camden,1,Destination,originAPP\PREMISES-NEW\001315
99,APP\PREMISES-NEW\000250,Premises - New Licence,NUT Staff Social and Sports Club,"13  18 HAMILTON HOUSE MABLEDON PLACE, LONDON, WC1H 9BB",LA2003,Application Approved In Full,No,16/11/2006,,,,03/02/2006,2006-06-01,,,E05000141,King's Cross,530037.1,182663.63,-0.12685,51.52793,Nearest OS Open Map-Local Building,11/05/2017 07:37:30 PM,"(51.52793, -0.12685)",29740,http://opendatacommunities.org/id/london-borough-council/camden,1,Destination,originAPP\PREMISES-NEW\000250
104,APP\PREMISES-NEW\000494,Premises - New Licence,Cantinho Da Linda,"3 PLENDER STREET, LONDON, NW1 0JT",LA2003,Application Rejected,Yes,,,,29/05/2007,02/05/2007,2007-04-04,28/06/2007,Camden Town,E05000143,St Pancras and Somers Town,529189.11,183601.32,-0.138723,51.536551,Nearest OS Open Map-Local Building,11/05/2017 07:37:30 PM,"(51.536551, -0.138723)",29539,http://opendatacommunities.org/id/london-borough-council/camden,1,Destination,originAPP\PREMISES-NEW\000494
147,APP\PREMISES-NEW\001584,Premises - New Licence,Raja Convenience Store,"114A116 FORTESS ROAD, LONDON, NW5 2HL",LA2003,Application Approved In Full,No,14/11/2015,,,,13/11/2015,2015-10-16,,,E05000139,Kentish Town,529107.97,185711.65,-0.139119,51.555534,Nearest OS Open Map-Local Building,11/05/2017 07:37:30 PM,"(51.555534, -0.139119)",28577,http://opendatacommunities.org/id/london-borough-council/camden,1,Destination,originAPP\PREMISES-NEW\001584
187,APP\PREMISES-NEW\000966,Premises - New Licence,"The Honourable Society of Gray's Inn, The Walks","8 SOUTH SQUARE, LONDON, WC1R 5ET",LA2003,Application Approved In Full,No,08/12/2010,,,,03/12/2010,2010-05-11,,,E05000138,Holborn and Covent Garden,531108.11,181764.1,-0.11175399999999999,51.519599,Nearest OS Open Map-Local Building,11/05/2017 07:37:30 PM,"(51.519599, -0.111754)",29127,http://opendatacommunities.org/id/london-borough-council/camden,1,Destination,originAPP\PREMISES-NEW\000966
201,APP\PREMISES-NEW\000697,Premises - New Licence,Marrakech,"THE STABLES MARKET CHALK FARM ROAD, LONDON, NW1 8AH",LA2003,Application Partially Approved,Yes,23/10/2008,,,29/09/2008,03/09/2008,2008-06-08,,Camden Town,E05000130,Camden Town with Primrose Hill,528518.62,184219.15,-0.14816,51.542256,Nearest OS Open Map-Local Building,11/05/2017 07:37:30 PM,"(51.542256, -0.14816)",29374,http://opendatacommunities.org/id/london-borough-council/camden,1,Destination,originAPP\PREMISES-NEW\000697
222,APP\PREMISES-NEW\000604,Premises - New Licence,Coffee Cup,"74 HAMPSTEAD HIGH STREET, LONDON, NW3 1QX",LA2003,Application Approved In Full,No,28/12/2007,,,,27/12/2007,2007-11-29,,,E05000135,Hampstead Town,526435.88,185669.35,-0.177656,51.555759,Nearest OS Open Map-Local Building,11/05/2017 07:37:30 PM,"(51.555759, -0.177656)",29448,http://opendatacommunities.org/id/london-borough-council/camden,1,Destination,originAPP\PREMISES-NEW\000604
290,APP\PREMISES-NEW\000869,Premises - New Licence,Ciborio Food & Wine,"291 COBHAM HOUSE GRAY'S INN ROAD, LONDON, WC1X 8QJ",LA2003,Application Rejected,No,,,,,13/01/2010,2009-12-16,08/01/2010,,E05000141,King's Cross,530443.13,182829.39,-0.12093800000000002,51.529326,Nearest OS Open Map-Local Building,11/05/2017 07:37:30 PM,"(51.529326, -0.120938)",29213,http://opendatacommunities.org/id/london-borough-council/camden,1,Destination,originAPP\PREMISES-NEW\000869
313,APP\PREMISES-NEW\001673,Premises - New Licence,"Seawise, Unit 726","THE STABLES MARKET CHALK FARM ROAD, LONDON, NW1 8AH",LA2003,Application Partially Approved,No,06/01/2017,,,22/09/2016,22/06/2016,2016-05-25,,Camden Town,E05000130,Camden Town with Primrose Hill,528518.62,184219.15,-0.14816,51.542256,Nearest OS Open Map-Local Building,11/05/2017 07:37:30 PM,"(51.542256, -0.14816)",28490,http://opendatacommunities.org/id/london-borough-council/camden,1,Destination,originAPP\PREMISES-NEW\001673
335,APP\PREMISES-NEW\000526,Premises - New Licence,Subway,"4 CAMDEN ROAD, LONDON, NW1 9DL",LA2003,Application Partially Approved,Yes,02/10/2007,,,19/07/2007,22/06/2007,2007-05-25,,Camden Town,E05000130,Camden Town with Primrose Hill,528955.86,183892.26,-0.141978,51.539219,Nearest OS Open Map-Local Building,11/05/2017 07:37:30 PM,"(51.539219, -0.141978)",29512,http://opendatacommunities.org/id/london-borough-council/camden,1,Destination,originAPP\PREMISES-NEW\000526
340,APP\PREMISES-NEW\000290,Premises - New Licence,Joe's Southern Table & Bar,"298 302 KENTISH TOWN ROAD, LONDON, NW5 2TG",LA2003,Application Rejected,No,,,,,08/03/2006,2006-08-02,06/03/2006,,E05000139,Kentish Town,529038.33,185212.57,-0.140306,51.551065,Nearest OS Open Map-Local Building,11/05/2017 07:37:30 PM,"(51.551065, -0.140306)",29704,http://opendatacommunities.org/id/london-borough-council/camden,1,Destination,originAPP\PREMISES-NEW\000290
362,APP\PREMISES-NEW\000677,Premises - New Licence,Wallacespace Ltd,"22 DUKE'S ROAD, LONDON, WC1H 9PN",LA2003,Application Rejected - Incomplete Documentation,No,,,,,15/07/2008,2008-06-17,20/06/2008,,E05000141,King's Cross,529850.85,182538.16,-0.129579,51.526845,Nearest OS Open Map-Local Building,11/05/2017 07:37:30 PM,"(51.526845, -0.129579)",29390,http://opendatacommunities.org/id/london-borough-council/camden,1,Destination,originAPP\PREMISES-NEW\000677
379,APP\PREMISES-NEW\001232,Premises - New Licence,KFC,"149 FINCHLEY ROAD, LONDON, NW3 6JH",LA2003,Application Approved In Full,No,23/11/2012,,,,10/11/2012,2012-10-13,,,E05000144,Swiss Cottage,526545.16,184401.73,-0.176536,51.544343,Nearest OS Open Map-Local Building,11/05/2017 07:37:30 PM,"(51.544343, -0.176536)",28897,http://opendatacommunities.org/id/london-borough-council/camden,1,Destination,originAPP\PREMISES-NEW\001232
423,APP\PREMISES-NEW\000264,Premises - New Licence,Subway,"214 SHAFTESBURY AVENUE, LONDON, WC2H 8EB",LA2003,Application Approved In Full,No,22/02/2006,,,13/03/2006,21/02/2006,2006-01-24,,Seven Dials,E05000138,Holborn and Covent Garden,530133.52,181364.62,-0.12594,51.516234000000004,Nearest OS Open Map-Local Building,11/05/2017 07:37:30 PM,"(51.516234, -0.12594)",29727,http://opendatacommunities.org/id/london-borough-council/camden,1,Destination,originAPP\PREMISES-NEW\000264
439,APP\PREMISES-NEW\001755,Premises - New Licence,Kimchee,"2 PANCRAS SQUARE, LONDON, N1C 4AG",LA2003,Application Approved In Full,No,30/12/2016,,,,28/12/2016,2016-11-30,,,E05000143,St Pancras and Somers Town,530144.56,183288.16,-0.12507100000000002,51.533518,Nearest OS Open Map-Local Building,11/05/2017 07:37:29 PM,"(51.533518, -0.125071)",28412,http://opendatacommunities.org/id/london-borough-council/camden,1,Destination,originAPP\PREMISES-NEW\001755
479,APP\PREMISES-NEW\000209,Premises - New Licence,The Curry Centre,"225 BRECKNOCK ROAD, LONDON, N19 5AA",LA2003,Application Rejected - Incomplete Documentation,No,,,,,13/12/2005,2005-11-15,25/11/2005,,E05000139,Kentish Town,529147.5,185781.26,-0.138523,51.556151,Nearest OS Open Map-Local Building,11/05/2017 07:37:30 PM,"(51.556151, -0.138523)",29778,http://opendatacommunities.org/id/london-borough-council/camden,1,Destination,originAPP\PREMISES-NEW\000209
513,APP\PREMISES-NEW\000753,Premises - New Licence,Canteen,"VICTORIA COLONNADE SOUTHAMPTON ROW, LONDON, WC1B 5HP",LA2003,Application Partially Approved,Yes,09/03/2009,,,25/02/2009,13/01/2009,2008-12-16,,Seven Dials,E05000138,Holborn and Covent Garden,530393.5,181710.95,-0.12206700000000001,51.519286,Nearest OS Open Map-Local Building,11/05/2017 07:37:30 PM,"(51.519286, -0.122067)",29322,http://opendatacommunities.org/id/london-borough-council/camden,1,Destination,originAPP\PREMISES-NEW\000753
565,APP\PREMISES-NEW\000071,Premises - New Licence,Jenny Wren (Boat),"250 CAMDEN HIGH STREET, LONDON, NW1 8QS",LA2003,Application Approved In Full,No,14/11/2005,,,16/11/2005,24/10/2005,2005-09-26,,Camden Town,E05000130,Camden Town with Primrose Hill,528716.85,184094.42,-0.145348,51.541090000000004,Nearest OS Open Map-Local Building,11/05/2017 07:37:30 PM,"(51.54109, -0.145348)",29897,http://opendatacommunities.org/id/london-borough-council/camden,1,Destination,originAPP\PREMISES-NEW\000071
590,APP\PREMISES-NEW\000862,Premises - New Licence,Damson Cafe,"64 ST GILES HIGH STREET, LONDON, WC2H 8LE",LA2003,Application Rejected,Yes,,,,,24/12/2009,2009-11-26,18/12/2009,Seven Dials,E05000138,Holborn and Covent Garden,530009.91,181262.79,-0.12775799999999998,51.515347,Nearest OS Open Map-Local Building,11/05/2017 07:37:30 PM,"(51.515347, -0.127758)",29220,http://opendatacommunities.org/id/london-borough-council/camden,1,Destination,originAPP\PREMISES-NEW\000862
604,APP\PREMISES-NEW\000176,Premises - New Licence,Corks,"9A  11 SWAIN'S LANE, LONDON, N6 6QX",LA2003,Application Rejected - Incomplete Documentation,No,,,,,29/11/2005,2005-01-11,07/11/2005,,E05000137,Highgate,528310.66,186411.52,-0.150358,51.562006,Nearest OS Open Map-Local Building,11/05/2017 07:37:30 PM,"(51.562006, -0.150358)",29806,http://opendatacommunities.org/id/london-borough-council/camden,1,Destination,originAPP\PREMISES-NEW\000176
606,APP\PREMISES-NEW\000361,Premises - New Licence,Subway,"71  75 NEW OXFORD STREET, LONDON, WC1A 1DG",LA2003,Application Approved In Full,No,19/07/2006,,,,30/06/2006,2006-02-06,,Seven Dials,E05000138,Holborn and Covent Garden,529983.42,181393.32,-0.128091,51.516527,Nearest OS Open Map-Local Building,11/05/2017 07:37:30 PM,"(51.516527, -0.128091)",29644,http://opendatacommunities.org/id/london-borough-council/camden,1,Destination,originAPP\PREMISES-NEW\000361
635,APP\PREMISES-NEW\000996,Premises - New Licence,20 York rise,"20 YORK RISE, LONDON, NW5 1ST",LA2003,Application Partially Approved,Yes,18/05/2011,,,14/04/2011,21/03/2011,2011-02-21,,,E05000137,Highgate,528773.28,186036.99,-0.143825,51.558535,Nearest OS Open Map-Local Building,11/05/2017 07:37:30 PM,"(51.558535, -0.143825)",29100,http://opendatacommunities.org/id/london-borough-council/camden,1,Destination,originAPP\PREMISES-NEW\000996
640,APP\PREMISES-NEW\001303,Premises - New Licence,82 Parkway,"82 PARKWAY, LONDON, NW1 7AN",LA2003,Application Rejected - Incomplete Documentation,No,,,,,26/07/2013,2013-06-28,03/07/2013,Camden Town,E05000130,Camden Town with Primrose Hill,528701.03,183723.65,-0.14571199999999998,51.537762,Nearest OS Open Map-Local Building,11/05/2017 07:37:30 PM,"(51.537762, -0.145712)",28834,http://opendatacommunities.org/id/london-borough-council/camden,1,Destination,originAPP\PREMISES-NEW\001303
706,APP\PREMISES-NEW\001578,Premises - New Licence,Rosemont Cafe,"4 ROSEMONT ROAD, LONDON, NW3 6NE",LA2003,Application Partially Approved,Yes,17/11/2015,,,17/11/2015,28/10/2015,2015-09-30,,,E05000145,West Hampstead,526121.17,184925.27,-0.18245899999999998,51.549141999999996,Nearest OS Open Map-Local Building,11/05/2017 07:37:30 PM,"(51.549142, -0.182459)",28582,http://opendatacommunities.org/id/london-borough-council/camden,1,Destination,originAPP\PREMISES-NEW\001578
721,APP\PREMISES-NEW\000704,Premises - New Licence,Wallacespace Ltd,"22 DUKE'S ROAD, LONDON, WC1H 9PN",LA2003,Application Rejected,No,,,,,19/09/2008,2008-08-22,04/09/2008,,E05000141,King's Cross,529850.85,182538.16,-0.129579,51.526845,Nearest OS Open Map-Local Building,11/05/2017 07:37:30 PM,"(51.526845, -0.129579)",29367,http://opendatacommunities.org/id/london-borough-council/camden,1,Destination,originAPP\PREMISES-NEW\000704
726,APP\PREMISES-NEW\001146,Premises - New Licence,Pane Caffe,"160 CLERKENWELL ROAD, LONDON, EC1R 5DU",LA2003,Application Approved In Full,Yes,24/04/2012,,,31/05/2012,23/04/2012,2012-03-26,,,E05000138,Holborn and Covent Garden,531132.07,182076.35,-0.111293,51.522399,Nearest OS Open Map-Local Building,11/05/2017 07:37:30 PM,"(51.522399, -0.111293)",28974,http://opendatacommunities.org/id/london-borough-council/camden,1,Destination,originAPP\PREMISES-NEW\001146
764,APP\PREMISES-NEW\001064,Premises - New Licence,Roof Terrace,"THE STABLES MARKET CHALK FARM ROAD, LONDON, NW1 8AH",LA2003,Application Rejected,Yes,,,,17/05/2012,14/10/2011,2011-09-16,03/07/2012,Camden Town,E05000130,Camden Town with Primrose Hill,528518.62,184219.15,-0.14816,51.542256,Nearest OS Open Map-Local Building,11/05/2017 07:37:30 PM,"(51.542256, -0.14816)",29046,http://opendatacommunities.org/id/london-borough-council/camden,1,Destination,originAPP\PREMISES-NEW\001064
777,APP\PREMISES-NEW\000580,Premises - New Licence,Metro Express,"313 GRAY'S INN ROAD, LONDON, WC1X 8PX",LA2003,Application Partially Approved,Yes,18/12/2007,,,18/12/2007,21/11/2007,2007-10-24,,,E05000141,King's Cross,530388.77,182929.58,-0.12168499999999999,51.530239,Nearest OS Open Map-Local Building,11/05/2017 07:37:30 PM,"(51.530239, -0.121685)",29466,http://opendatacommunities.org/id/london-borough-council/camden,1,Destination,originAPP\PREMISES-NEW\000580
799,APP\PREMISES-NEW\001517,Premises - New Licence,Enrique Tomas Ltd,"68 NEAL STREET, LONDON, WC2H 9PA",LA2003,Application Partially Approved,Yes,17/06/2015,,,02/06/2015,05/05/2015,2015-07-04,,Seven Dials,E05000138,Holborn and Covent Garden,530128.31,181232.06,-0.126064,51.515044,Nearest OS Open Map-Local Building,11/05/2017 07:37:30 PM,"(51.515044, -0.126064)",28637,http://opendatacommunities.org/id/london-borough-council/camden,1,Destination,originAPP\PREMISES-NEW\001517
801,APP\PREMISES-NEW\001699,Premises - New Licence,Lazy Hunter,"117 KENTISH TOWN ROAD, LONDON, NW1 8PB",LA2003,Application Approved In Full,Yes,22/08/2016,,,25/08/2016,02/08/2016,2016-05-07,,,E05000130,Camden Town with Primrose Hill,528954.03,184464.42,-0.141795,51.544361,Nearest OS Open Map-Local Building,11/05/2017 07:37:29 PM,"(51.544361, -0.141795)",28466,http://opendatacommunities.org/id/london-borough-council/camden,1,Destination,originAPP\PREMISES-NEW\001699
850,APP\PREMISES-NEW\001295,Premises - New Licence,Camden New Town Community Fesitval,"156 ST PAUL'S CRESCENT, LONDON, NW1 9XZ",LA2003,Application Approved In Full,No,09/07/2013,,,,02/07/2013,2013-04-06,,,E05000131,Cantelowes,529871.54,184153.63,-0.128686,51.541358,Nearest OS Open Map-Local Building,11/05/2017 07:37:30 PM,"(51.541358, -0.128686)",28842,http://opendatacommunities.org/id/london-borough-council/camden,1,Destination,originAPP\PREMISES-NEW\001295
865,APP\PREMISES-NEW\000751,Premises - New Licence,Woburn House Conference Centre,"20 WOBURN HOUSE TAVISTOCK SQUARE, LONDON, WC1H 9HQ",LA2003,Application Approved In Full,Yes,19/02/2009,,,03/02/2009,07/01/2009,2008-10-12,,,E05000129,Bloomsbury,529801.94,182464.68,-0.13031099999999998,51.526196,Nearest OS Open Map-Local Building,11/05/2017 07:37:30 PM,"(51.526196, -0.130311)",29324,http://opendatacommunities.org/id/london-borough-council/camden,1,Destination,originAPP\PREMISES-NEW\000751
888,APP\PREMISES-NEW\001164,Premises - New Licence,Costa Coffee,"EUSTON RAILWAY STATION EVERSHOLT STREET, LONDON, NW1 2DU",LA2003,Application Rejected,No,,,,,21/05/2012,2012-04-23,10/05/2012,,E05000143,St Pancras and Somers Town,529635.38,182806.0,-0.13258499999999998,51.529302,Nearest OS Open Map-Local Building,11/05/2017 07:37:30 PM,"(51.529302, -0.132585)",28960,http://opendatacommunities.org/id/london-borough-council/camden,1,Destination,originAPP\PREMISES-NEW\001164
909,APP\PREMISES-NEW\000512,Premises - New Licence,The Circuit,"349 ROYAL COLLEGE STREET, LONDON, NW1 9QS",LA2003,Application Withdrawn,Yes,,,,27/06/2007,01/06/2007,2007-04-05,,,E05000131,Cantelowes,529024.87,184496.97,-0.140762,51.544638,Nearest OS Open Map-Local Building,11/05/2017 07:37:30 PM,"(51.544638, -0.140762)",29525,http://opendatacommunities.org/id/london-borough-council/camden,1,Destination,originAPP\PREMISES-NEW\000512
912,APP\PREMISES-NEW\000337,Premises - New Licence,Goodfare Pasta Bar & Restaurant,"26 PARKWAY, LONDON, NW1 7AH",LA2003,Application Approved In Full,No,14/06/2006,,,,05/06/2006,2006-08-05,,Camden Town,E05000130,Camden Town with Primrose Hill,528836.98,183880.36,-0.14369500000000002,51.539139,Nearest OS Open Map-Local Building,11/05/2017 07:37:30 PM,"(51.539139, -0.143695)",29662,http://opendatacommunities.org/id/london-borough-council/camden,1,Destination,originAPP\PREMISES-NEW\000337
975,APP\PREMISES-NEW\000874,Premises - New Licence,280 Degrees African Restaurant and Bar (formerly Sabor Latino UK - Ground Floor Premises),"280 KILBURN HIGH ROAD, LONDON, NW6 2BY",LA2003,Application Rejected,Yes,,,,,21/01/2010,2009-12-24,05/02/2010,,E05000140,Kilburn,524890.5,184341.9,-0.200406,51.544173,Nearest OS Open Map-Local Building,11/05/2017 07:37:30 PM,"(51.544173, -0.200406)",29208,http://opendatacommunities.org/id/london-borough-council/camden,1,Destination,originAPP\PREMISES-NEW\000874
1007,APP\PREMISES-NEW\000713,Premises - New Licence,Unit 339/340,"THE STABLES MARKET CHALK FARM ROAD, LONDON, NW1 8AH",LA2003,Application Approved In Full,No,19/11/2008,,,19/11/2008,03/10/2008,2008-05-09,,Camden Town,E05000130,Camden Town with Primrose Hill,528518.62,184219.15,-0.14816,51.542256,Nearest OS Open Map-Local Building,11/05/2017 07:37:30 PM,"(51.542256, -0.14816)",29358,http://opendatacommunities.org/id/london-borough-council/camden,1,Destination,originAPP\PREMISES-NEW\000713
1014,APP\PREMISES-NEW\000328,Premises - New Licence,Marchmont market,"33  37 MARCHMONT STREET, LONDON, WC1N 1AP",LA2003,Application Rejected,Yes,,,,15/06/2006,24/05/2006,2006-04-26,11/07/2006,,E05000129,Bloomsbury,530127.2,182286.62,-0.125691,51.524521,Nearest OS Open Map-Local Building,11/05/2017 07:37:30 PM,"(51.524521, -0.125691)",29670,http://opendatacommunities.org/id/london-borough-council/camden,1,Destination,originAPP\PREMISES-NEW\000328
1062,APP\PREMISES-NEW\001272,Premises - New Licence,Co-operative Foods,"23 LOWER MERTON RISE, LONDON, NW3 3RA",LA2003,Application Approved In Full,No,11/04/2013,,,,21/03/2013,2013-02-21,,,E05000128,Belsize,527231.2,184256.73,-0.166701,51.542885,Nearest OS Open Map-Local Building,11/05/2017 07:37:30 PM,"(51.542885, -0.166701)",28862,http://opendatacommunities.org/id/london-borough-council/camden,1,Destination,originAPP\PREMISES-NEW\001272
1084,APP\PREMISES-NEW\001796,Premises - New Licence,Domino's  Pizza,"194 KENTISH TOWN ROAD, LONDON, NW5 2AE",LA2003,Under Consultation,No,,,,,22/05/2017,2017-04-24,,,E05000131,Cantelowes,529020.57,184828.56,-0.140702,51.547618,Nearest OS Open Map-Local Building,11/05/2017 07:37:29 PM,"(51.547618, -0.140702)",28374,http://opendatacommunities.org/id/london-borough-council/camden,1,Destination,originAPP\PREMISES-NEW\001796
1087,APP\PREMISES-NEW\000435,Premises - New Licence,Bourne and Hollingsworth,"28 RATHBONE PLACE, LONDON, W1T 1JF",LA2003,Application Rejected,Yes,,,,,08/11/2006,2006-11-10,06/11/2006,,,,529490.27,181592.82,-0.135121,51.518432000000004,Nearest OS Open Map-Local Building,11/05/2017 07:37:30 PM,"(51.518432, -0.135121)",29591,http://opendatacommunities.org/id/london-borough-council/camden,1,Destination,originAPP\PREMISES-NEW\000435
1094,APP\PREMISES-NEW\000516,Premises - New Licence,Jester Festival,"FORTUNE GREEN FORTUNE GREEN ROAD,",LA2003,Application Approved In Full,No,07/06/2007,,,,06/06/2007,2007-09-05,,,E05000132,Fortune Green,525033.66,185573.35,-0.197905,51.555208,Nearest OS Open Map-Local Building,11/05/2017 07:37:30 PM,"(51.555208, -0.197905)",29521,http://opendatacommunities.org/id/london-borough-council/camden,1,Destination,originAPP\PREMISES-NEW\000516
1117,APP\PREMISES-NEW\001340,Premises - New Licence,Verdelin,"39 ENDELL STREET, LONDON, WC2H 9BA",LA2003,Application Approved In Full,No,23/12/2013,,,,30/10/2013,2013-02-10,,Seven Dials,E05000138,Holborn and Covent Garden,530211.81,181163.2,-0.12488599999999998,51.514406,Nearest OS Open Map-Local Building,11/05/2017 07:37:30 PM,"(51.514406, -0.124886)",28798,http://opendatacommunities.org/id/london-borough-council/camden,1,Destination,originAPP\PREMISES-NEW\001340
1171,APP\PREMISES-NEW\001299,Premises - New Licence,Brazilian Gourmet,"70 CLEVELAND STREET, LONDON, W1T 6LY",LA2003,Application Rejected,No,,,,01/08/2013,12/07/2013,2013-06-14,04/07/2013,,E05000129,Bloomsbury,529129.59,181981.45,-0.140174,51.522007,Nearest OS Open Map-Local Building,11/05/2017 07:37:30 PM,"(51.522007, -0.140174)",28838,http://opendatacommunities.org/id/london-borough-council/camden,1,Destination,originAPP\PREMISES-NEW\001299
1205,APP\PREMISES-NEW\000004,Premises - New Licence,Fortune Gate Chinese Takeaway,"315 WEST END LANE, LONDON, NW6 1RD",LA2003,Application Approved In Full,No,30/08/2005,,,,02/08/2005,2005-04-07,,,E05000145,West Hampstead,525401.94,185143.05,-0.192749,51.55126,Nearest OS Open Map-Local Building,11/05/2017 07:37:30 PM,"(51.55126, -0.192749)",29954,http://opendatacommunities.org/id/london-borough-council/camden,1,Destination,originAPP\PREMISES-NEW\000004
1253,APP\PREMISES-NEW\000189,Premises - New Licence,Burger King,"117 KINGSWAY, LONDON, WC2B 6PP",LA2003,Application Rejected,Yes,,,,21/12/2005,07/12/2005,2005-09-11,13/12/2005,Seven Dials,E05000138,Holborn and Covent Garden,530478.27,181454.75,-0.120941,51.516965,Nearest OS Open Map-Local Building,11/05/2017 07:37:30 PM,"(51.516965, -0.120941)",29795,http://opendatacommunities.org/id/london-borough-council/camden,1,Destination,originAPP\PREMISES-NEW\000189
1284,APP\PREMISES-NEW\000921,Premises - New Licence,Piccollo Kebab House,"174 DRURY LANE, LONDON, WC2B 5QF",LA2003,Application Partially Approved,Yes,16/09/2010,,,05/08/2010,08/07/2010,2010-10-06,,Seven Dials,E05000138,Holborn and Covent Garden,530343.37,181352.31,-0.122922,51.516075,Nearest OS Open Map-Local Building,11/05/2017 07:37:30 PM,"(51.516075, -0.122922)",29165,http://opendatacommunities.org/id/london-borough-council/camden,1,Destination,originAPP\PREMISES-NEW\000921
1303,APP\PREMISES-NEW\000759,Premises - New Licence,Rosslyn Arms,"48 ROSSLYN HILL, LONDON, NW3 1NH",LA2003,Application Approved In Full,No,27/02/2009,,,17/03/2009,18/02/2009,2009-01-21,,,E05000135,Hampstead Town,526772.89,185599.21,-0.172822,51.555053,Nearest OS Open Map-Local Building,11/05/2017 07:37:30 PM,"(51.555053, -0.172822)",29316,http://opendatacommunities.org/id/london-borough-council/camden,1,Destination,originAPP\PREMISES-NEW\000759
1323,APP\PREMISES-NEW\000419,Premises - New Licence,AP Food Express,"228 SHAFTESBURY AVENUE, LONDON, WC2H 8EG",LA2003,Application Partially Approved,Yes,05/12/2006,,,20/11/2006,24/10/2006,2006-09-26,,Seven Dials,E05000138,Holborn and Covent Garden,530095.07,181431.33,-0.126469,51.516842,Nearest OS Open Map-Local Building,11/05/2017 07:37:30 PM,"(51.516842, -0.126469)",29605,http://opendatacommunities.org/id/london-borough-council/camden,1,Destination,originAPP\PREMISES-NEW\000419
1349,APP\PREMISES-NEW\001579,Premises - New Licence,9 Chalton Street,"9 CHALTON STREET, LONDON, NW1 1JD",LA2003,Application Approved In Full,No,04/11/2015,,,,03/11/2015,2015-06-10,,,E05000143,St Pancras and Somers Town,529856.65,182698.78,-0.129436,51.528287,Nearest OS Open Map-Local Building,11/05/2017 07:37:30 PM,"(51.528287, -0.129436)",28581,http://opendatacommunities.org/id/london-borough-council/camden,1,Destination,originAPP\PREMISES-NEW\001579
1365,APP\PREMISES-NEW\000709,Premises - New Licence,Gaucho Grill (Charlotte Street),"58  62 CHARLOTTE STREET, LONDON, W1T 2NU",LA2003,Application Approved In Full,Yes,19/02/2009,,,28/10/2008,03/10/2008,2008-05-09,,,E05000129,Bloomsbury,529439.48,181788.23,-0.13578099999999999,51.5202,Nearest OS Open Map-Local Building,11/05/2017 07:37:30 PM,"(51.5202, -0.135781)",29362,http://opendatacommunities.org/id/london-borough-council/camden,1,Destination,originAPP\PREMISES-NEW\000709
1376,APP\PREMISES-NEW\000434,Premises - New Licence,Sara News,"14 BLOOMSBURY STREET, LONDON, WC1B 3QA",LA2003,Application Partially Approved,Yes,08/11/2006,,,,02/11/2006,2006-05-10,,Seven Dials,E05000138,Holborn and Covent Garden,530049.16,181501.55,-0.127104,51.517484,Nearest OS Open Map-Local Building,11/05/2017 07:37:30 PM,"(51.517484, -0.127104)",29592,http://opendatacommunities.org/id/london-borough-council/camden,1,Destination,originAPP\PREMISES-NEW\000434
1389,APP\PREMISES-NEW\001244,Premises - New Licence,Spaghetti House,"169 FORTESS ROAD, LONDON, NW5 2HR",LA2003,Application Approved In Full,No,18/12/2012,,,24/01/2013,17/12/2012,2012-11-19,,,E05000139,Kentish Town,529086.03,185849.19,-0.13938499999999998,51.556776,Nearest OS Open Map-Local Building,11/05/2017 07:37:30 PM,"(51.556776, -0.139385)",28885,http://opendatacommunities.org/id/london-borough-council/camden,1,Destination,originAPP\PREMISES-NEW\001244
1392,APP\PREMISES-NEW\000701,Premises - New Licence,Fremantlemedia Limited,"1 STEPHEN STREET, LONDON, W1T 1AT",LA2003,Application Rejected,Yes,,,,,05/09/2008,2008-08-08,19/09/2008,,E05000129,Bloomsbury,529658.98,181501.2,-0.132725,51.51757,Nearest OS Open Map-Local Building,11/05/2017 07:37:30 PM,"(51.51757, -0.132725)",29370,http://opendatacommunities.org/id/london-borough-council/camden,1,Destination,originAPP\PREMISES-NEW\000701
1396,APP\PREMISES-NEW\000630,Premises - New Licence,Revital Health,"197 HAVERSTOCK HILL, LONDON, NW3 4QG",LA2003,Application Partially Approved,Yes,22/05/2008,,,16/04/2008,10/03/2008,2008-11-02,,,E05000128,Belsize,527266.83,185119.54,-0.165875,51.550631,Nearest OS Open Map-Local Building,11/05/2017 07:37:30 PM,"(51.550631, -0.165875)",29429,http://opendatacommunities.org/id/london-borough-council/camden,1,Destination,originAPP\PREMISES-NEW\000630
1435,APP\PREMISES-NEW\001776,Premises - New Licence,Seventeen 0 Seven,"23 WARREN STREET, LONDON, W1T 5LX",LA2003,Referred To Committee Hearing,Yes,,,,06/04/2017,16/03/2017,2017-02-16,,,E05000129,Bloomsbury,529087.01,182151.41,-0.140725,51.523545,Nearest OS Open Map-Local Building,11/05/2017 07:37:29 PM,"(51.523545, -0.140725)",28392,http://opendatacommunities.org/id/london-borough-council/camden,1,Destination,originAPP\PREMISES-NEW\001776
1453,APP\PREMISES-NEW\001430,Premises - New Licence,Mildreds,"9  11 JAMESTOWN ROAD, LONDON, NW1 7BW",LA2003,Application Partially Approved,No,25/09/2014,,,25/09/2014,18/08/2014,2014-07-21,,Camden Town,E05000130,Camden Town with Primrose Hill,528724.04,184057.19,-0.145258,51.540754,Nearest OS Open Map-Local Building,11/05/2017 07:37:30 PM,"(51.540754, -0.145258)",28713,http://opendatacommunities.org/id/london-borough-council/camden,1,Destination,originAPP\PREMISES-NEW\001430
1484,APP\PREMISES-NEW\000085,Premises - New Licence,Shahbhag Tandoori,"70 ROSSLYN HILL, LONDON, NW3 1ND",LA2003,Application Approved In Full,No,28/10/2005,,,,27/10/2005,2005-09-29,,,E05000135,Hampstead Town,526707.14,185632.32,-0.173758,51.555365,Nearest OS Open Map-Local Building,11/05/2017 07:37:30 PM,"(51.555365, -0.173758)",29884,http://opendatacommunities.org/id/london-borough-council/camden,1,Destination,originAPP\PREMISES-NEW\000085
1499,APP\PREMISES-NEW\000173,Premises - New Licence,Atrium Cafe,"1 STEPHEN STREET, LONDON, W1T 1AT",LA2003,Application Rejected - Incomplete Documentation,No,,,,,29/11/2005,2005-01-11,07/11/2005,,E05000129,Bloomsbury,529658.98,181501.2,-0.132725,51.51757,Nearest OS Open Map-Local Building,11/05/2017 07:37:30 PM,"(51.51757, -0.132725)",29808,http://opendatacommunities.org/id/london-borough-council/camden,1,Destination,originAPP\PREMISES-NEW\000173
1509,APP\PREMISES-NEW\000703,Premises - New Licence,G. B. Off Licence,"46 EVERSHOLT STREET, LONDON, NW1 1DA",LA2003,Application Partially Approved,Yes,23/06/2009,,,16/10/2008,19/09/2008,2008-08-22,,,E05000143,St Pancras and Somers Town,529635.38,182806.0,-0.13258499999999998,51.529302,Nearest OS Open Map-Local Building,11/05/2017 07:37:30 PM,"(51.529302, -0.132585)",29368,http://opendatacommunities.org/id/london-borough-council/camden,1,Destination,originAPP\PREMISES-NEW\000703
1517,APP\PREMISES-NEW\000171,Premises - New Licence,Naru,"230 SHAFTESBURY AVENUE, LONDON, WC2H 8EG",LA2003,Application Approved In Full,No,17/02/2006,,,,08/12/2005,2005-10-11,,Seven Dials,E05000138,Holborn and Covent Garden,530095.07,181431.33,-0.126469,51.516842,Nearest OS Open Map-Local Building,11/05/2017 07:37:30 PM,"(51.516842, -0.126469)",29810,http://opendatacommunities.org/id/london-borough-council/camden,1,Destination,originAPP\PREMISES-NEW\000171
1525,APP\PREMISES-NEW\000347,Premises - New Licence,Le Plateau De Fromage,"LEATHER LANE MARKET LEATHER LANE,",LA2003,Application Approved In Full,No,14/06/2006,,,,13/06/2006,2006-05-16,,,E05000138,Holborn and Covent Garden,531211.28,181904.79,-0.11021500000000001,51.520839,Nearest OS Open Map-Local Building,11/05/2017 07:37:30 PM,"(51.520839, -0.110215)",29655,http://opendatacommunities.org/id/london-borough-council/camden,1,Destination,originAPP\PREMISES-NEW\000347
1538,APP\PREMISES-NEW\001033,Premises - New Licence,Off licence,"98 CROMER STREET, LONDON, WC1H 8BZ",LA2003,Application Rejected,No,,,,,01/07/2011,2011-03-06,,,E05000141,King's Cross,530287.26,182621.11,-0.123261,51.52749,Nearest OS Open Map-Local Building,11/05/2017 07:37:30 PM,"(51.52749, -0.123261)",29069,http://opendatacommunities.org/id/london-borough-council/camden,1,Destination,originAPP\PREMISES-NEW\001033
1549,APP\PREMISES-NEW\001060,Premises - New Licence,Monsoon,"24 YORK RISE, LONDON, NW5 1ST",LA2003,Application Partially Approved,Yes,22/11/2011,,,13/10/2011,19/09/2011,2011-08-22,,,E05000137,Highgate,528786.69,186081.32,-0.14361500000000002,51.55893,Nearest OS Open Map-Local Building,11/05/2017 07:37:30 PM,"(51.55893, -0.143615)",29049,http://opendatacommunities.org/id/london-borough-council/camden,1,Destination,originAPP\PREMISES-NEW\001060
1603,APP\PREMISES-NEW\000472,Premises - New Licence,Royal Exchange,"57 HARTLAND ROAD, LONDON, NW1 8DB",LA2003,Application Partially Approved,Yes,17/05/2007,,,16/04/2007,16/03/2007,2007-02-16,,Camden Town,E05000130,Camden Town with Primrose Hill,528675.34,184401.5,-0.145834,51.543859000000005,Nearest OS Open Map-Local Building,11/05/2017 07:37:30 PM,"(51.543859, -0.145834)",29556,http://opendatacommunities.org/id/london-borough-council/camden,1,Destination,originAPP\PREMISES-NEW\000472
1632,APP\PREMISES-NEW\001193,Premises - New Licence,Caps & Taps,"130 KENTISH TOWN ROAD, LONDON, NW1 9QB",LA2003,Application Partially Approved,Yes,02/10/2012,,,23/08/2012,06/08/2012,2012-09-07,,,E05000131,Cantelowes,529008.65,184633.75,-0.14094600000000002,51.54587,Nearest OS Open Map-Local Building,11/05/2017 07:37:30 PM,"(51.54587, -0.140946)",28933,http://opendatacommunities.org/id/london-borough-council/camden,1,Destination,originAPP\PREMISES-NEW\001193
1657,APP\PREMISES-NEW\001786,Premises - New Licence,KICK & MUNCH,"71 CAMDEN ROAD, LONDON, NW1 9EU",LA2003,Application Approved In Full,Yes,13/04/2017,,,04/05/2017,12/04/2017,2017-03-15,,,E05000131,Cantelowes,529188.17,184261.8,-0.138495,51.542487,Nearest OS Open Map-Local Building,11/05/2017 07:37:29 PM,"(51.542487, -0.138495)",28382,http://opendatacommunities.org/id/london-borough-council/camden,1,Destination,originAPP\PREMISES-NEW\001786
1805,APP\PREMISES-NEW\001236,Premises - New Licence,We Love Pizza Limited,"66 HEATH STREET, LONDON, NW3 1DN",LA2003,Application Approved In Full,No,28/11/2012,,,20/12/2012,14/11/2012,2012-10-17,,,E05000135,Hampstead Town,526411.25,185837.5,-0.17795,51.557276,Nearest OS Open Map-Local Building,11/05/2017 07:37:30 PM,"(51.557276, -0.17795)",28893,http://opendatacommunities.org/id/london-borough-council/camden,1,Destination,originAPP\PREMISES-NEW\001236
1863,APP\PREMISES-NEW\001596,Premises - New Licence,ZLC 7 Dials,"16 NEAL'S YARD, LONDON, WC2H 9DP",LA2003,Application Partially Approved,Yes,19/01/2016,,,05/01/2016,07/12/2015,2015-09-11,,Seven Dials,E05000138,Holborn and Covent Garden,530096.62,181164.76,-0.126545,51.514446,Nearest OS Open Map-Local Building,11/05/2017 07:37:30 PM,"(51.514446, -0.126545)",28566,http://opendatacommunities.org/id/london-borough-council/camden,1,Destination,originAPP\PREMISES-NEW\001596
1928,APP\PREMISES-NEW\000850,Premises - New Licence,Robert Graham Ltd,"BROADWELL PARADE BROADHURST GARDENS, LONDON, NW6 3BQ",LA2003,Application Partially Approved,Yes,27/01/2010,,,,16/11/2009,2009-10-19,,,E05000144,Swiss Cottage,525670.53,184602.74,-0.18907000000000002,51.546344,Nearest OS Open Map-Local Building,11/05/2017 07:37:30 PM,"(51.546344, -0.18907)",29230,http://opendatacommunities.org/id/london-borough-council/camden,1,Destination,originAPP\PREMISES-NEW\000850
2029,APP\PREMISES-NEW\000508,Premises - New Licence,Subway,"109 TOTTENHAM COURT ROAD, LONDON, W1T 5AD",LA2003,Application Partially Approved,Yes,21/06/2007,,,21/06/2007,28/05/2007,2007-04-30,,,E05000129,Bloomsbury,529311.16,182112.36,-0.137511,51.523142,Nearest OS Open Map-Local Building,11/05/2017 07:37:30 PM,"(51.523142, -0.137511)",29529,http://opendatacommunities.org/id/london-borough-council/camden,1,Destination,originAPP\PREMISES-NEW\000508
2078,APP\PREMISES-NEW\001454,Premises - New Licence,The Bryson,"124 132 CLERKENWELL ROAD, LONDON, EC1R 5DL",LA2003,Application Approved In Full,No,11/11/2014,,,,10/11/2014,2014-10-13,,,E05000138,Holborn and Covent Garden,531287.4,182086.91,-0.109051,51.522458,Nearest OS Open Map-Local Building,11/05/2017 07:37:30 PM,"(51.522458, -0.109051)",28692,http://opendatacommunities.org/id/london-borough-council/camden,1,Destination,originAPP\PREMISES-NEW\001454
2092,APP\PREMISES-NEW\001423,Premises - New Licence,House of Illustration,"2 GRANARY SQUARE, LONDON, N1C 1FA",LA2003,Application Approved In Full,No,18/08/2014,,,,06/08/2014,2014-09-07,,,E05000143,St Pancras and Somers Town,530179.14,183608.02,-0.124454,51.536384000000005,Nearest OS Open Map-Local Building,11/05/2017 07:37:30 PM,"(51.536384, -0.124454)",28720,http://opendatacommunities.org/id/london-borough-council/camden,1,Destination,originAPP\PREMISES-NEW\001423
2161,APP\PREMISES-NEW\000858,Premises - New Licence,Elementree,"108 110 CRICKLEWOOD BROADWAY, LONDON, NW2 3EJ",LA2003,Application Rejected,No,,,,,15/12/2009,2009-11-17,17/12/2009,,E05000132,Fortune Green,524010.52,185574.37,-0.212655,51.555443,Nearest OS Open Map-Local Building,11/05/2017 07:37:30 PM,"(51.555443, -0.212655)",29223,http://opendatacommunities.org/id/london-borough-council/camden,1,Destination,originAPP\PREMISES-NEW\000858
2168,APP\PREMISES-NEW\000718,Premises - New Licence,Wallacespace Ltd,"22 DUKE'S ROAD, LONDON, WC1H 9PN",LA2003,Application Rejected,Yes,,,,30/10/2008,03/10/2008,2008-05-09,18/11/2008,,E05000141,King's Cross,529850.85,182538.16,-0.129579,51.526845,Nearest OS Open Map-Local Building,11/05/2017 07:37:30 PM,"(51.526845, -0.129579)",29353,http://opendatacommunities.org/id/london-borough-council/camden,1,Destination,originAPP\PREMISES-NEW\000718
2185,APP\PREMISES-NEW\001753,Premises - New Licence,The Famous Flames,"11 KENTISH TOWN ROAD, LONDON, NW1 8NH",LA2003,Referred To Committee Hearing,Yes,,,,20/04/2017,28/12/2016,2016-11-30,,Camden Town,E05000130,Camden Town with Primrose Hill,528899.47,183943.05,-0.142772,51.539688,Nearest OS Open Map-Local Building,11/05/2017 07:37:29 PM,"(51.539688, -0.142772)",28414,http://opendatacommunities.org/id/london-borough-council/camden,1,Destination,originAPP\PREMISES-NEW\001753
2187,APP\PREMISES-NEW\000863,Premises - New Licence,Post Office,"91 REGENT'S PARK ROAD, LONDON, NW1 8UT",LA2003,Application Approved In Full,No,26/01/2010,,,02/02/2010,05/01/2010,2009-08-12,,,E05000130,Camden Town with Primrose Hill,527887.61,184177.69,-0.157269,51.542027000000004,Nearest OS Open Map-Local Building,11/05/2017 07:37:30 PM,"(51.542027, -0.157269)",29219,http://opendatacommunities.org/id/london-borough-council/camden,1,Destination,originAPP\PREMISES-NEW\000863
2194,APP\PREMISES-NEW\001481,Premises - New Licence,The Collective Bedford Square Partnership,"14 BEDFORD SQUARE, LONDON, WC1B 3JA",LA2003,Application Partially Approved,Yes,17/03/2015,,,05/02/2015,20/01/2015,2014-12-23,,,E05000129,Bloomsbury,529854.65,181787.75,-0.129801,51.520101000000004,Nearest OS Open Map-Local Building,11/05/2017 07:37:30 PM,"(51.520101, -0.129801)",28671,http://opendatacommunities.org/id/london-borough-council/camden,1,Destination,originAPP\PREMISES-NEW\001481
2233,APP\PREMISES-NEW\000234,Premises - New Licence,Hot Rock Cafe,"6A CAMDEN ROAD, LONDON, NW1 9DL",LA2003,Application Approved In Full,No,10/01/2006,,,,09/01/2006,2005-12-12,,Camden Town,E05000130,Camden Town with Primrose Hill,528955.86,183892.26,-0.141978,51.539219,Nearest OS Open Map-Local Building,11/05/2017 07:37:30 PM,"(51.539219, -0.141978)",29755,http://opendatacommunities.org/id/london-borough-council/camden,1,Destination,originAPP\PREMISES-NEW\000234
2244,APP\PREMISES-NEW\000208,Premises - New Licence,Camden Fast Food,"19 CAMDEN HIGH STREET, LONDON, NW1 7JE",LA2003,Application Rejected,Yes,,,,,20/12/2005,2005-11-22,20/02/2006,Camden Town,E05000142,Regent's Park,529129.52,183417.31,-0.139649,51.534911,Nearest OS Open Map-Local Building,11/05/2017 07:37:30 PM,"(51.534911, -0.139649)",29779,http://opendatacommunities.org/id/london-borough-council/camden,1,Destination,originAPP\PREMISES-NEW\000208
2259,APP\PREMISES-NEW\001205,Premises - New Licence,Crescent Supermarket,"88 QUEEN'S CRESCENT, LONDON, NW5 4DY",LA2003,Application Approved In Full,No,20/09/2012,,,18/10/2012,04/09/2012,2012-07-08,,,E05000136,Haverstock,528294.02,185057.4,-0.151091,51.54984,Nearest OS Open Map-Local Building,11/05/2017 07:37:30 PM,"(51.54984, -0.151091)",28923,http://opendatacommunities.org/id/london-borough-council/camden,1,Destination,originAPP\PREMISES-NEW\001205
2316,APP\PREMISES-NEW\001349,Premises - New Licence,Crepes a la Carte,"112 KENTISH TOWN ROAD, LONDON, NW1 9PX",LA2003,Application Approved In Full,No,14/12/2013,,,09/01/2014,12/12/2013,2013-11-14,,,E05000130,Camden Town with Primrose Hill,528954.03,184464.42,-0.141795,51.544361,Nearest OS Open Map-Local Building,11/05/2017 07:37:30 PM,"(51.544361, -0.141795)",28790,http://opendatacommunities.org/id/london-borough-council/camden,1,Destination,originAPP\PREMISES-NEW\001349
2327,APP\PREMISES-NEW\001434,Premises - New Licence,Patron,"26 FORTESS ROAD, LONDON, NW5 2HB",LA2003,Application Approved In Full,No,07/10/2014,,,18/09/2014,27/08/2014,2014-07-30,,,E05000139,Kentish Town,529015.39,185365.81,-0.14057999999999998,51.552448,Nearest OS Open Map-Local Building,11/05/2017 07:37:30 PM,"(51.552448, -0.14058)",28709,http://opendatacommunities.org/id/london-borough-council/camden,1,Destination,originAPP\PREMISES-NEW\001434
2386,APP\PREMISES-NEW\000984,Premises - New Licence,"Pond Square / South Grove, Highgate Village","POND SQUARE SOUTH GROVE,",LA2003,Application Approved In Full,No,19/02/2011,,,,18/02/2011,2011-01-21,,,E05000137,Highgate,528387.02,187367.07,-0.14890799999999998,51.570576,Nearest OS Open Map-Local Building,11/05/2017 07:37:30 PM,"(51.570576, -0.148908)",29110,http://opendatacommunities.org/id/london-borough-council/camden,1,Destination,originAPP\PREMISES-NEW\000984
2426,APP\PREMISES-NEW\000214,Premises - New Licence,York Way Fish Bar,"15 YORK WAY, LONDON, N7 9QG",LA2003,Application Approved In Full,No,28/12/2005,,,,23/12/2005,2005-11-25,,,E05000131,Cantelowes,530004.99,184347.96,-0.126691,51.543074,Nearest OS Open Map-Local Building,11/05/2017 07:37:30 PM,"(51.543074, -0.126691)",29773,http://opendatacommunities.org/id/london-borough-council/camden,1,Destination,originAPP\PREMISES-NEW\000214
2428,APP\PREMISES-NEW\000103,Premises - New Licence,Big Chill House,"257 259 PENTONVILLE ROAD, LONDON, N1 9NL",LA2003,Application Approved In Full,No,01/11/2005,,,,31/10/2005,2005-03-10,,,E05000141,King's Cross,530530.86,182970.86,-0.119622,51.530577,Nearest OS Open Map-Local Building,11/05/2017 07:37:30 PM,"(51.530577, -0.119622)",29871,http://opendatacommunities.org/id/london-borough-council/camden,1,Destination,originAPP\PREMISES-NEW\000103
2432,APP\PREMISES-NEW\000336,Premises - New Licence,Jester Festival,"FORTUNE GREEN FORTUNE GREEN ROAD,",LA2003,Application Approved In Full,No,02/06/2006,,,,01/06/2006,2006-04-05,,,E05000132,Fortune Green,525033.66,185573.35,-0.197905,51.555208,Nearest OS Open Map-Local Building,11/05/2017 07:37:30 PM,"(51.555208, -0.197905)",29663,http://opendatacommunities.org/id/london-borough-council/camden,1,Destination,originAPP\PREMISES-NEW\000336
2444,APP\PREMISES-NEW\001670,Premises - New Licence,Camden Assembly,"49 CHALK FARM ROAD, LONDON, NW1 8AN",LA2003,Application Partially Approved,No,12/12/2016,,,22/09/2016,22/06/2016,2016-05-25,,Camden Town,E05000130,Camden Town with Primrose Hill,528405.85,184285.95,-0.14976099999999998,51.542882,Nearest OS Open Map-Local Building,11/05/2017 07:37:30 PM,"(51.542882, -0.149761)",28493,http://opendatacommunities.org/id/london-borough-council/camden,1,Destination,originAPP\PREMISES-NEW\001670
2520,APP\PREMISES-NEW\001309,Premises - New Licence,104 New Oxford Street,"104 NEW OXFORD STREET, LONDON, WC1A 1HB",LA2003,Application Approved In Full,No,05/12/2013,,,,14/08/2013,2013-07-17,,,E05000129,Bloomsbury,529948.7,181428.38,-0.128578,51.51685,Nearest OS Open Map-Local Building,11/05/2017 07:37:30 PM,"(51.51685, -0.128578)",28829,http://opendatacommunities.org/id/london-borough-council/camden,1,Destination,originAPP\PREMISES-NEW\001309
2546,APP\PREMISES-NEW\001565,Premises - New Licence,Independent Student Living,"NIDO HOUSE BLACKBURN ROAD, LONDON, NW6 1RZ",LA2003,Application Rejected,Yes,,,,22/10/2015,01/10/2015,2015-03-09,29/09/2015,,E05000145,West Hampstead,525632.31,184738.29,-0.189573,51.547571000000005,Nearest OS Open Map-Local Building,11/05/2017 07:37:30 PM,"(51.547571, -0.189573)",28592,http://opendatacommunities.org/id/london-borough-council/camden,1,Destination,originAPP\PREMISES-NEW\001565
2548,APP\PREMISES-NEW\000440,Premises - New Licence,African Kitchen Gallery,"102 DRUMMOND STREET, LONDON, NW1 2HN",LA2003,Application Rejected - Incomplete Documentation,No,,,,,01/12/2006,2006-03-11,03/11/2006,,E05000142,Regent's Park,529351.08,182592.14,-0.13676,51.527445,Nearest OS Open Map-Local Building,11/05/2017 07:37:30 PM,"(51.527445, -0.13676)",29587,http://opendatacommunities.org/id/london-borough-council/camden,1,Destination,originAPP\PREMISES-NEW\000440
2562,APP\PREMISES-NEW\000205,Premises - New Licence,Kilburn Lahori Karahi,"280 KILBURN HIGH ROAD, LONDON, NW6 2BY",LA2003,Application Withdrawn,No,22/02/2006,,,09/01/2006,15/12/2005,2005-11-17,,,E05000140,Kilburn,524890.5,184341.9,-0.200406,51.544173,Nearest OS Open Map-Local Building,11/05/2017 07:37:30 PM,"(51.544173, -0.200406)",29782,http://opendatacommunities.org/id/london-borough-council/camden,1,Destination,originAPP\PREMISES-NEW\000205
2611,APP\PREMISES-NEW\000224,Premises - New Licence,Royal Pizza,"1 KING'S CROSS BRIDGE, LONDON, N1 9NW",LA2003,Application Rejected,Yes,,,,20/01/2006,29/12/2005,2005-01-12,10/01/2006,,E05000141,King's Cross,530402.16,182980.44,-0.121473,51.530693,Nearest OS Open Map-Local Building,11/05/2017 07:37:30 PM,"(51.530693, -0.121473)",29765,http://opendatacommunities.org/id/london-borough-council/camden,1,Destination,originAPP\PREMISES-NEW\000224
2653,APP\PREMISES-NEW\000022,Premises - New Licence,Chang's Noodle (formerly Xin Yuan Chinese Restaurant),"10 COPTIC STREET, LONDON, WC1A 1NH",LA2003,Application Approved In Full,No,09/09/2005,,,,08/09/2005,2005-11-08,,Seven Dials,E05000138,Holborn and Covent Garden,530084.59,181477.49,-0.126603,51.51726,Nearest OS Open Map-Local Building,11/05/2017 07:37:30 PM,"(51.51726, -0.126603)",29939,http://opendatacommunities.org/id/london-borough-council/camden,1,Destination,originAPP\PREMISES-NEW\000022
2668,APP\PREMISES-NEW\001255,Premises - New Licence,Aldi,"142 KILBURN HIGH ROAD, LONDON, NW6 4JD",LA2003,Application Approved In Full,No,18/01/2013,,,21/02/2013,03/01/2013,2012-06-12,,,,,525210.54,183873.78,-0.195959,51.539895,Nearest OS Open Map-Local Building,11/05/2017 07:37:30 PM,"(51.539895, -0.195959)",28874,http://opendatacommunities.org/id/london-borough-council/camden,1,Destination,originAPP\PREMISES-NEW\001255
2707,APP\PREMISES-NEW\001496,Premises - New Licence,Mia,"135 FINCHLEY ROAD, LONDON, NW3 6JH",LA2003,Application Partially Approved,Yes,31/03/2015,,,19/03/2015,24/02/2015,2015-01-27,,,E05000144,Swiss Cottage,526612.06,184280.06,-0.17561500000000002,51.543234000000005,Nearest OS Open Map-Local Building,11/05/2017 07:37:30 PM,"(51.543234, -0.175615)",28656,http://opendatacommunities.org/id/london-borough-council/camden,1,Destination,originAPP\PREMISES-NEW\001496
2709,APP\PREMISES-NEW\001558,Premises - New Licence,Turtle Bay,"1618 CHANT HOUSE DELANCEY STREET, LONDON, NW1 7NH",LA2003,Application Withdrawn,Yes,,,,15/09/2015,21/08/2015,2015-07-24,,Camden Town,E05000142,Regent's Park,528967.19,183628.74,-0.14191099999999998,51.536848,Nearest OS Open Map-Local Building,11/05/2017 07:37:30 PM,"(51.536848, -0.141911)",28599,http://opendatacommunities.org/id/london-borough-council/camden,1,Destination,originAPP\PREMISES-NEW\001558
2712,APP\PREMISES-NEW\000688,Premises - New Licence,Cafe Lemon,"190 GRAY'S INN ROAD, LONDON, WC1X 8EW",LA2003,Application Partially Approved,Yes,04/11/2008,,,16/09/2008,11/08/2008,2008-07-14,,,E05000138,Holborn and Covent Garden,530930.36,182178.07,-0.11416099999999998,51.52336,Nearest OS Open Map-Local Building,11/05/2017 07:37:30 PM,"(51.52336, -0.114161)",29382,http://opendatacommunities.org/id/london-borough-council/camden,1,Destination,originAPP\PREMISES-NEW\000688
2734,APP\PREMISES-NEW\000192,Premises - New Licence,The Petite Coree,"98 WEST END LANE, LONDON, NW6 2LU",LA2003,Application Rejected,Yes,,,,,07/12/2005,2005-09-11,24/11/2005,,E05000145,West Hampstead,525571.42,184575.8,-0.19050799999999998,51.546124,Nearest OS Open Map-Local Building,11/05/2017 07:37:30 PM,"(51.546124, -0.190508)",29792,http://opendatacommunities.org/id/london-borough-council/camden,1,Destination,originAPP\PREMISES-NEW\000192
2742,APP\PREMISES-NEW\001233,Premises - New Licence,Sabarees Food and Wine,"73 KINGSGATE ROAD, LONDON, NW6 4JY",LA2003,Application Approved In Full,Yes,31/01/2013,,,31/01/2013,14/11/2012,2012-10-17,,,E05000140,Kilburn,525247.84,184149.93,-0.195324,51.542369,Nearest OS Open Map-Local Building,11/05/2017 07:37:30 PM,"(51.542369, -0.195324)",28896,http://opendatacommunities.org/id/london-borough-council/camden,1,Destination,originAPP\PREMISES-NEW\001233
2750,APP\PREMISES-NEW\001210,Premises - New Licence,La Rossella (previously Pasta Habit),"103 HIGHGATE ROAD, LONDON, NW5 1TR",LA2003,Application Rejected,Yes,,,,24/09/2012,26/09/2012,2012-08-29,28/09/2012,,E05000137,Highgate,528668.25,185666.66,-0.145474,51.55523,Nearest OS Open Map-Local Building,11/05/2017 07:37:30 PM,"(51.55523, -0.145474)",28918,http://opendatacommunities.org/id/london-borough-council/camden,1,Destination,originAPP\PREMISES-NEW\001210
2756,APP\PREMISES-NEW\000905,Premises - New Licence,Delidishes Ltd,"40 NEW OXFORD STREET, LONDON, WC1A 1EP",LA2003,Application Rejected,Yes,,,,25/11/2010,01/06/2010,2010-04-05,02/03/2011,Seven Dials,E05000138,Holborn and Covent Garden,530146.05,181494.24,-0.125711,51.517396000000005,Nearest OS Open Map-Local Building,11/05/2017 07:37:30 PM,"(51.517396, -0.125711)",29181,http://opendatacommunities.org/id/london-borough-council/camden,1,Destination,originAPP\PREMISES-NEW\000905
2765,APP\PREMISES-NEW\001643,Premises - New Licence,Itsu,"52  54 HIGH HOLBORN HOUSE HIGH HOLBORN, LONDON, WC1V 6RL",LA2003,Application Approved In Full,Yes,18/04/2016,,,03/05/2016,08/04/2016,2016-11-03,,,E05000138,Holborn and Covent Garden,530830.04,181642.15,-0.11580399999999999,51.518567,Nearest OS Open Map-Local Building,11/05/2017 07:37:30 PM,"(51.518567, -0.115804)",28520,http://opendatacommunities.org/id/london-borough-council/camden,1,Destination,originAPP\PREMISES-NEW\001643
2769,APP\PREMISES-NEW\001637,Premises - New Licence,Camden Lock Hotel Limited,"88 CHALK FARM ROAD, LONDON, NW1 8AR",LA2003,Application Withdrawn,Yes,,,,17/05/2016,04/03/2016,2016-05-02,,Camden Town,E05000130,Camden Town with Primrose Hill,528221.28,184361.52,-0.152393,51.543603000000004,Nearest OS Open Map-Local Building,11/05/2017 07:37:30 PM,"(51.543603, -0.152393)",28526,http://opendatacommunities.org/id/london-borough-council/camden,1,Destination,originAPP\PREMISES-NEW\001637
2800,APP\PREMISES-NEW\001553,Premises - New Licence,The Bowler,"1 MONMOUTH STREET, LONDON, WC2H 9DA",LA2003,Application Approved In Full,No,30/07/2015,,,25/08/2015,29/07/2015,2015-01-07,,Seven Dials,E05000138,Holborn and Covent Garden,530128.31,181232.06,-0.126064,51.515044,Nearest OS Open Map-Local Building,11/05/2017 07:37:30 PM,"(51.515044, -0.126064)",28602,http://opendatacommunities.org/id/london-borough-council/camden,1,Destination,originAPP\PREMISES-NEW\001553
2806,APP\PREMISES-NEW\000916,Premises - New Licence,Joe's Southern Table & Bar,"298 302 KENTISH TOWN ROAD, LONDON, NW5 2TG",LA2003,Application Partially Approved,Yes,27/09/2010,,,05/08/2010,17/06/2010,2010-05-20,,,E05000139,Kentish Town,529038.33,185212.57,-0.140306,51.551065,Nearest OS Open Map-Local Building,11/05/2017 07:37:30 PM,"(51.551065, -0.140306)",29170,http://opendatacommunities.org/id/london-borough-council/camden,1,Destination,originAPP\PREMISES-NEW\000916
2811,APP\PREMISES-NEW\001698,Premises - New Licence,Pizza Sophia (formerly Grrrilla),"50 TAVISTOCK PLACE, LONDON, WC1H 9RG",LA2003,Application Approved In Full,No,27/07/2016,,,11/08/2016,26/07/2016,2016-06-28,,,E05000129,Bloomsbury,530167.12,182389.54,-0.125078,51.525437,Nearest OS Open Map-Local Building,11/05/2017 07:37:29 PM,"(51.525437, -0.125078)",28467,http://opendatacommunities.org/id/london-borough-council/camden,1,Destination,originAPP\PREMISES-NEW\001698
2836,APP\PREMISES-NEW\001528,Premises - New Licence,Valentinos Cafe,"10 LITTLE TURNSTILE, LONDON, WC1V 7DX",LA2003,Application Approved In Full,Yes,28/07/2015,,,18/06/2015,25/05/2015,2015-04-27,,,E05000138,Holborn and Covent Garden,530553.25,181505.71,-0.119842,51.517405,Nearest OS Open Map-Local Building,11/05/2017 07:37:30 PM,"(51.517405, -0.119842)",28626,http://opendatacommunities.org/id/london-borough-council/camden,1,Destination,originAPP\PREMISES-NEW\001528
2847,APP\PREMISES-NEW\000578,Premises - New Licence,Barraco Ltd,"PRIORY HOUSE KINGSGATE PLACE, LONDON, NW6 4TA",LA2003,Application Rejected,Yes,,,,,19/11/2007,2007-10-22,21/11/2007,,E05000140,Kilburn,525202.58,183957.3,-0.196044,51.540648,Nearest OS Open Map-Local Building,11/05/2017 07:37:30 PM,"(51.540648, -0.196044)",29468,http://opendatacommunities.org/id/london-borough-council/camden,1,Destination,originAPP\PREMISES-NEW\000578
2886,APP\PREMISES-NEW\001384,Premises - New Licence,Ladies and Gentlemen,"PUBLIC CONVENIENCES HIGHGATE ROAD,",LA2003,Application Partially Approved,Yes,16/12/2014,,,08/04/2014,09/04/2014,2014-12-03,,,E05000137,Highgate,528217.41,186119.31,-0.151809,51.559401,Nearest OS Open Map-Local Building,11/05/2017 07:37:30 PM,"(51.559401, -0.151809)",28758,http://opendatacommunities.org/id/london-borough-council/camden,1,Destination,originAPP\PREMISES-NEW\001384
2901,APP\PREMISES-NEW\000987,Premises - New Licence,Giovanni Rana,"17  19 TRITON STREET, LONDON, NW1 3BF",LA2003,Application Approved In Full,No,,,,,17/02/2011,2011-01-20,,,E05000142,Regent's Park,529019.9,182268.96,-0.141649,51.524615999999995,Nearest OS Open Map-Local Building,11/05/2017 07:37:30 PM,"(51.524616, -0.141649)",29107,http://opendatacommunities.org/id/london-borough-council/camden,1,Destination,originAPP\PREMISES-NEW\000987
2916,APP\PREMISES-NEW\001556,Premises - New Licence,Fields Bar and Kitchen,"LINCOLN'S INN FIELDS GARDEN LINCOLN'S INN FIELDS,",LA2003,Application Approved In Full,No,07/08/2015,,,,06/08/2015,2015-09-07,,,E05000138,Holborn and Covent Garden,530781.18,181384.98,-0.116604,51.516268,Nearest OS Open Map-Local Building,11/05/2017 07:37:30 PM,"(51.516268, -0.116604)",28601,http://opendatacommunities.org/id/london-borough-council/camden,1,Destination,originAPP\PREMISES-NEW\001556
2971,APP\PREMISES-NEW\001346,Premises - New Licence,"Frankie & Benny's, Unit 8D","255 THE O2 CENTRE FINCHLEY ROAD, LONDON, NW3 6LU",LA2003,Application Approved In Full,No,30/11/2013,,,,29/11/2013,2013-01-11,,,E05000145,West Hampstead,526204.1,184766.66,-0.181321,51.547698,Nearest OS Open Map-Local Building,11/05/2017 07:37:30 PM,"(51.547698, -0.181321)",28793,http://opendatacommunities.org/id/london-borough-council/camden,1,Destination,originAPP\PREMISES-NEW\001346
2987,APP\PREMISES-NEW\000387,Premises - New Licence,Subway,"75 KINGSWAY, LONDON, WC2B 6SR",LA2003,Application Partially Approved,Yes,03/10/2006,,,14/09/2006,18/08/2006,2006-07-21,,Seven Dials,E05000138,Holborn and Covent Garden,530517.17,181284.16,-0.12044400000000001,51.515423,Nearest OS Open Map-Local Building,11/05/2017 07:37:30 PM,"(51.515423, -0.120444)",29625,http://opendatacommunities.org/id/london-borough-council/camden,1,Destination,originAPP\PREMISES-NEW\000387
3019,APP\PREMISES-NEW\001157,Premises - New Licence,Iceland,"177 FINCHLEY ROAD, LONDON, NW3 6LB",LA2003,Application Approved In Full,No,16/05/2012,,,,15/05/2012,2012-04-17,,,E05000144,Swiss Cottage,526388.97,184535.84,-0.178739,51.545583,Nearest OS Open Map-Local Building,11/05/2017 07:37:30 PM,"(51.545583, -0.178739)",28967,http://opendatacommunities.org/id/london-borough-council/camden,1,Destination,originAPP\PREMISES-NEW\001157
3066,APP\PREMISES-NEW\000017,Premises - New Licence,Golden Valley,"177 YORK WAY, LONDON, N7 9LN",LA2003,Application Approved In Full,No,20/02/2006,,,,26/08/2005,2005-07-29,,,E05000131,Cantelowes,529809.5,184935.2,-0.12929200000000002,51.548396000000004,Nearest OS Open Map-Local Building,11/05/2017 07:37:30 PM,"(51.548396, -0.129292)",29943,http://opendatacommunities.org/id/london-borough-council/camden,1,Destination,originAPP\PREMISES-NEW\000017
3101,APP\PREMISES-NEW\001474,Premises - New Licence,On The Go (Ground & Basement),"3  16 WOBURN PLACE, LONDON, WC1H 0LS",LA2003,Application Approved In Full,Yes,18/02/2015,,,29/01/2015,12/01/2015,2014-12-15,,,E05000129,Bloomsbury,530113.54,182174.09,-0.12592899999999999,51.523513,Nearest OS Open Map-Local Building,11/05/2017 07:37:30 PM,"(51.523513, -0.125929)",28677,http://opendatacommunities.org/id/london-borough-council/camden,1,Destination,originAPP\PREMISES-NEW\001474
3135,APP\PREMISES-NEW\000222,Premises - New Licence,Amt Coffee Ltd KX3,"KINGS CROSS RAILWAY STATION EUSTON ROAD, LONDON, N1 9AP",LA2003,Application Approved In Full,No,31/12/2005,,,,30/12/2005,2005-02-12,,,E05000143,St Pancras and Somers Town,530247.52,183117.31,-0.12365,51.531959,Nearest OS Open Map-Local Building,11/05/2017 07:37:30 PM,"(51.531959, -0.12365)",29767,http://opendatacommunities.org/id/london-borough-council/camden,1,Destination,originAPP\PREMISES-NEW\000222
3146,APP\PREMISES-NEW\001015,Premises - New Licence,Kaas Cafe,"150 CAMDEN HIGH STREET, LONDON, NW1 0NE",LA2003,Application Rejected,Yes,,,,14/07/2011,29/04/2011,2011-01-04,17/10/2011,Camden Town,E05000130,Camden Town with Primrose Hill,528966.15,183826.35,-0.141854,51.538624,Nearest OS Open Map-Local Building,11/05/2017 07:37:30 PM,"(51.538624, -0.141854)",29085,http://opendatacommunities.org/id/london-borough-council/camden,1,Destination,originAPP\PREMISES-NEW\001015
3181,APP\PREMISES-NEW\000547,Premises - New Licence,Foodworld Central,"7 GREAT QUEEN STREET, LONDON, WC2B 5DH",LA2003,Application Approved In Full,No,10/12/2007,,,25/10/2007,03/09/2007,2007-06-08,,Seven Dials,E05000138,Holborn and Covent Garden,530459.49,181314.37,-0.12126300000000001,51.515707,Nearest OS Open Map-Local Building,11/05/2017 07:37:30 PM,"(51.515707, -0.121263)",29493,http://opendatacommunities.org/id/london-borough-council/camden,1,Destination,originAPP\PREMISES-NEW\000547
3261,APP\PREMISES-NEW\000924,Premises - New Licence,Lara Wine,"63 CHETWYND ROAD, LONDON, NW5 1BX",LA2003,Application Partially Approved,Yes,27/08/2010,,,04/08/2010,15/07/2010,2010-06-17,,,E05000137,Highgate,528773.28,186036.99,-0.143825,51.558535,Nearest OS Open Map-Local Building,11/05/2017 07:37:30 PM,"(51.558535, -0.143825)",29162,http://opendatacommunities.org/id/london-borough-council/camden,1,Destination,originAPP\PREMISES-NEW\000924
3288,APP\PREMISES-NEW\001630,Premises - New Licence,The Bedford Hotel,"83  95 SOUTHAMPTON ROW, LONDON, WC1B 4HD",LA2003,Application Approved In Full,No,04/03/2016,,,15/03/2016,24/02/2016,2016-01-27,,,E05000129,Bloomsbury,530273.33,181839.97,-0.12375,51.520474,Nearest OS Open Map-Local Building,11/05/2017 07:37:30 PM,"(51.520474, -0.12375)",28533,http://opendatacommunities.org/id/london-borough-council/camden,1,Destination,originAPP\PREMISES-NEW\001630
3289,APP\PREMISES-NEW\001405,Premises - New Licence,283 Kentish Town Road,"283 KENTISH TOWN ROAD, LONDON, NW5 2JS",LA2003,Application Rejected - Incomplete Documentation,No,,,,,18/06/2014,2014-05-21,22/05/2014,,E05000139,Kentish Town,528950.78,184994.83,-0.141647,51.549129,Nearest OS Open Map-Local Building,11/05/2017 07:37:30 PM,"(51.549129, -0.141647)",28737,http://opendatacommunities.org/id/london-borough-council/camden,1,Destination,originAPP\PREMISES-NEW\001405
3299,APP\PREMISES-NEW\000186,Premises - New Licence,Fortess Tandoori,"131 FORTESS ROAD, LONDON, NW5 2HR",LA2003,Application Approved In Full,No,19/12/2005,,,20/12/2005,06/12/2005,2005-08-11,,,E05000139,Kentish Town,529097.8,185793.5,-0.139235,51.556272,Nearest OS Open Map-Local Building,11/05/2017 07:37:30 PM,"(51.556272, -0.139235)",29798,http://opendatacommunities.org/id/london-borough-council/camden,1,Destination,originAPP\PREMISES-NEW\000186
3305,APP\PREMISES-NEW\000065,Premises - New Licence,Kami Japanese Restaurant (formerly Satuma Japanese Restaurant),"8 FORTESS ROAD, LONDON, NW5 2ES",LA2003,Application Partially Approved,Yes,11/11/2005,,,11/11/2005,21/10/2005,2005-09-23,,,E05000139,Kentish Town,529002.77,185287.5,-0.140791,51.551747,Nearest OS Open Map-Local Building,11/05/2017 07:37:30 PM,"(51.551747, -0.140791)",29901,http://opendatacommunities.org/id/london-borough-council/camden,1,Destination,originAPP\PREMISES-NEW\000065
3325,APP\PREMISES-NEW\001362,Premises - New Licence,Le Cordon Bleu Limited,"15 BLOOMSBURY SQUARE, LONDON, WC1A 2LS",LA2003,Application Partially Approved,Yes,28/03/2014,,,13/03/2014,08/02/2014,2014-11-01,,Seven Dials,E05000138,Holborn and Covent Garden,530275.99,181623.49,-0.12379200000000001,51.518528,Nearest OS Open Map-Local Building,11/05/2017 07:37:30 PM,"(51.518528, -0.123792)",28777,http://opendatacommunities.org/id/london-borough-council/camden,1,Destination,originAPP\PREMISES-NEW\001362
3334,APP\PREMISES-NEW\001116,Premises - New Licence,Alps Restaurant,"42 THEOBALD'S ROAD, LONDON, WC1X 8NW",LA2003,Application Approved In Full,No,08/03/2012,,,,06/03/2012,2012-07-02,,,E05000138,Holborn and Covent Garden,530809.44,181960.47,-0.11598299999999999,51.521433,Nearest OS Open Map-Local Building,11/05/2017 07:37:30 PM,"(51.521433, -0.115983)",29002,http://opendatacommunities.org/id/london-borough-council/camden,1,Destination,originAPP\PREMISES-NEW\001116
3340,APP\PREMISES-NEW\000248,Premises - New Licence,Pizza Hut,"38 CAMDEN HIGH STREET, LONDON, NW1 0JH",LA2003,Application Withdrawn,Yes,,,,,02/02/2006,2006-05-01,,Camden Town,E05000142,Regent's Park,529209.38,183490.42,-0.138472,51.53555,Nearest OS Open Map-Local Building,11/05/2017 07:37:30 PM,"(51.53555, -0.138472)",29742,http://opendatacommunities.org/id/london-borough-council/camden,1,Destination,originAPP\PREMISES-NEW\000248
3353,APP\PREMISES-NEW\000758,Premises - New Licence,Asena Kebab,"4 MALDEN ROAD, LONDON, NW5 3HR",LA2003,Application Rejected,No,,,,,23/02/2009,2009-01-26,09/02/2009,,E05000136,Haverstock,528302.9,184639.18,-0.151116,51.546079999999996,Nearest OS Open Map-Local Building,11/05/2017 07:37:30 PM,"(51.54608, -0.151116)",29317,http://opendatacommunities.org/id/london-borough-council/camden,1,Destination,originAPP\PREMISES-NEW\000758
3361,APP\PREMISES-NEW\001136,Premises - New Licence,You Me Sushi,"37 TOTTENHAM COURT ROAD, LONDON, W1T 1BY",LA2003,Application Approved In Full,No,06/04/2012,,,,05/04/2012,2012-08-03,,,E05000129,Bloomsbury,529729.97,181585.26,-0.131671,51.51831,Nearest OS Open Map-Local Building,11/05/2017 07:37:30 PM,"(51.51831, -0.131671)",28983,http://opendatacommunities.org/id/london-borough-council/camden,1,Destination,originAPP\PREMISES-NEW\001136
3378,APP\PREMISES-NEW\000375,Premises - New Licence,Retail 24,"21 SOUTH END ROAD, LONDON, NW3 2PT",LA2003,Application Partially Approved,Yes,15/08/2006,,,15/08/2006,21/07/2006,2006-06-23,,,E05000134,Gospel Oak,527274.81,185572.58,-0.165596,51.554701,Nearest OS Open Map-Local Building,11/05/2017 07:37:30 PM,"(51.554701, -0.165596)",29634,http://opendatacommunities.org/id/london-borough-council/camden,1,Destination,originAPP\PREMISES-NEW\000375
3389,APP\PREMISES-NEW\001302,Premises - New Licence,TORTILLA,"144 CAMDEN HIGH STREET, LONDON, NW1 0NE",LA2003,Application Partially Approved,Yes,05/09/2013,,,22/08/2013,23/07/2013,2013-06-25,,Camden Town,E05000130,Camden Town with Primrose Hill,528966.15,183826.35,-0.141854,51.538624,Nearest OS Open Map-Local Building,11/05/2017 07:37:30 PM,"(51.538624, -0.141854)",28835,http://opendatacommunities.org/id/london-borough-council/camden,1,Destination,originAPP\PREMISES-NEW\001302
3408,APP\PREMISES-NEW\000529,Premises - New Licence,Madhaan Store,"59  61 CAMDEN HIGH STREET, LONDON, NW1 7JL",LA2003,Application Partially Approved,Yes,06/08/2007,,,06/08/2007,12/07/2007,2007-06-14,,Camden Town,E05000142,Regent's Park,529032.06,183577.57,-0.140995,51.536374,Nearest OS Open Map-Local Building,11/05/2017 07:37:30 PM,"(51.536374, -0.140995)",29510,http://opendatacommunities.org/id/london-borough-council/camden,1,Destination,originAPP\PREMISES-NEW\000529
3420,APP\PREMISES-NEW\001422,Premises - New Licence,Swiss Church,"79 ENDELL STREET, LONDON, WC2H 9AJ",LA2003,Application Approved In Full,No,01/08/2014,,,,31/07/2014,2014-03-07,,Seven Dials,E05000138,Holborn and Covent Garden,530128.31,181232.06,-0.126064,51.515044,Nearest OS Open Map-Local Building,11/05/2017 07:37:30 PM,"(51.515044, -0.126064)",28721,http://opendatacommunities.org/id/london-borough-council/camden,1,Destination,originAPP\PREMISES-NEW\001422
3449,APP\PREMISES-NEW\000359,Premises - New Licence,LB Camden Multi Faith Festival,"RUSSELL SQUARE GARDENS RUSSELL SQUARE,",LA2003,Application Partially Approved,Yes,05/09/2006,,,19/07/2006,27/06/2006,2006-05-30,,,E05000129,Bloomsbury,530129.26,182030.44,-0.125756,51.522219,Nearest OS Open Map-Local Building,11/05/2017 07:37:30 PM,"(51.522219, -0.125756)",29645,http://opendatacommunities.org/id/london-borough-council/camden,1,Destination,originAPP\PREMISES-NEW\000359
3476,APP\PREMISES-NEW\000330,Premises - New Licence,Bloomsbury Ballroom,"37  63 VICTORIA HOUSE SOUTHAMPTON ROW, LONDON, WC1B 4DA",LA2003,Application Partially Approved,Yes,20/06/2006,,,20/06/2006,31/05/2006,2006-03-05,,Seven Dials,E05000138,Holborn and Covent Garden,530393.5,181710.95,-0.12206700000000001,51.519286,Nearest OS Open Map-Local Building,11/05/2017 07:37:30 PM,"(51.519286, -0.122067)",29669,http://opendatacommunities.org/id/london-borough-council/camden,1,Destination,originAPP\PREMISES-NEW\000330
3494,APP\PREMISES-NEW\000661,Premises - New Licence,S.A.M-Platform-LTD,"57 CAMDEN HIGH STREET, LONDON, NW1 7JL",LA2003,Application Approved In Full,No,27/05/2008,,,,22/05/2008,2008-04-24,,Camden Town,E05000142,Regent's Park,529083.06,183480.97,-0.140296,51.535494,Nearest OS Open Map-Local Building,11/05/2017 07:37:30 PM,"(51.535494, -0.140296)",29405,http://opendatacommunities.org/id/london-borough-council/camden,1,Destination,originAPP\PREMISES-NEW\000661
3531,APP\PREMISES-NEW\000890,Premises - New Licence,Mezza Express,"47 PARKWAY, LONDON, NW1 7PN",LA2003,Application Rejected,Yes,,,,22/06/2010,09/03/2010,2010-09-02,05/07/2010,Camden Town,E05000130,Camden Town with Primrose Hill,528728.91,183764.09,-0.145295,51.538119,Nearest OS Open Map-Local Building,11/05/2017 07:37:30 PM,"(51.538119, -0.145295)",29194,http://opendatacommunities.org/id/london-borough-council/camden,1,Destination,originAPP\PREMISES-NEW\000890
3540,APP\PREMISES-NEW\000129,Premises - New Licence,The Earl of Camden,"55 PARKWAY, LONDON, NW1 7PN",LA2003,Application Partially Approved,Yes,20/02/2006,,,30/11/2005,09/11/2005,2005-12-10,,Camden Town,E05000130,Camden Town with Primrose Hill,528830.64,183707.33,-0.14385,51.537586,Nearest OS Open Map-Local Building,11/05/2017 07:37:30 PM,"(51.537586, -0.14385)",29850,http://opendatacommunities.org/id/london-borough-council/camden,1,Destination,originAPP\PREMISES-NEW\000129
3548,APP\PREMISES-NEW\000482,Premises - New Licence,Hampstead Parish Church,"HAMPSTEAD PARISH CHURCH CHURCH ROW, LONDON, NW3 6UU",LA2003,Application Partially Approved,Yes,02/05/2007,,,02/05/2007,02/04/2007,2007-05-03,,,E05000133,Frognal and Fitzjohns,526190.92,185613.62,-0.181207,51.555313,Nearest OS Open Map-Local Building,11/05/2017 07:37:30 PM,"(51.555313, -0.181207)",29549,http://opendatacommunities.org/id/london-borough-council/camden,1,Destination,originAPP\PREMISES-NEW\000482
3569,APP\PREMISES-NEW\001317,Premises - New Licence,Yaki Japanese Bakery,"53 GOODGE STREET, LONDON, W1T 1TG",LA2003,Application Partially Approved,No,21/11/2013,,,10/10/2013,11/09/2013,2013-08-14,,,E05000129,Bloomsbury,529442.0,181657.07,-0.135793,51.519021,Nearest OS Open Map-Local Building,11/05/2017 07:37:30 PM,"(51.519021, -0.135793)",28821,http://opendatacommunities.org/id/london-borough-council/camden,1,Destination,originAPP\PREMISES-NEW\001317
3574,APP\PREMISES-NEW\000707,Premises - New Licence,My Village,"37 CHALK FARM ROAD, LONDON, NW1 8AJ",LA2003,Application Approved In Full,Yes,18/02/2009,,,22/10/2008,29/09/2008,2008-01-09,,Camden Town,E05000136,Haverstock,528500.65,184316.98,-0.148383,51.54314,Nearest OS Open Map-Local Building,11/05/2017 07:37:30 PM,"(51.54314, -0.148383)",29364,http://opendatacommunities.org/id/london-borough-council/camden,1,Destination,originAPP\PREMISES-NEW\000707
3591,APP\PREMISES-NEW\000614,Premises - New Licence,Zizzi,"255 THE O2 CENTRE FINCHLEY ROAD, LONDON, NW3 6LU",LA2003,Application Approved In Full,No,13/02/2008,,,,11/02/2008,2008-01-14,,,E05000145,West Hampstead,526204.1,184766.66,-0.181321,51.547698,Nearest OS Open Map-Local Building,11/05/2017 07:37:30 PM,"(51.547698, -0.181321)",29440,http://opendatacommunities.org/id/london-borough-council/camden,1,Destination,originAPP\PREMISES-NEW\000614
3634,APP\PREMISES-NEW\000251,Premises - New Licence,Beetroot Deli,"92 FLEET ROAD, LONDON, NW3 2QX",LA2003,Application Approved In Full,No,09/02/2006,,,,08/02/2006,2006-11-01,,,E05000134,Gospel Oak,527528.74,185437.47,-0.161985,51.553429,Nearest OS Open Map-Local Building,11/05/2017 07:37:30 PM,"(51.553429, -0.161985)",29739,http://opendatacommunities.org/id/london-borough-council/camden,1,Destination,originAPP\PREMISES-NEW\000251
3700,APP\PREMISES-NEW\001722,Premises - New Licence,Hotel Chocolat,"EUSTON RAILWAY STATION EVERSHOLT STREET, LONDON, NW1 2DU",LA2003,Application Approved In Full,No,16/09/2016,,,,15/09/2016,2016-08-18,,,E05000143,St Pancras and Somers Town,529635.38,182806.0,-0.13258499999999998,51.529302,Nearest OS Open Map-Local Building,11/05/2017 07:37:29 PM,"(51.529302, -0.132585)",28444,http://opendatacommunities.org/id/london-borough-council/camden,1,Destination,originAPP\PREMISES-NEW\001722
3729,APP\PREMISES-NEW\001192,Premises - New Licence,Costa Coffee,"EUSTON RAILWAY STATION EVERSHOLT STREET, LONDON, NW1 2DU",LA2003,Application Approved In Full,No,15/08/2012,,,,27/07/2012,2012-06-29,,,E05000143,St Pancras and Somers Town,529635.38,182806.0,-0.13258499999999998,51.529302,Nearest OS Open Map-Local Building,11/05/2017 07:37:30 PM,"(51.529302, -0.132585)",28934,http://opendatacommunities.org/id/london-borough-council/camden,1,Destination,originAPP\PREMISES-NEW\001192
3741,APP\PREMISES-NEW\001424,Premises - New Licence,Gusti Food,"92 GRAY'S INN ROAD, LONDON, WC1X 8AJ",LA2003,Application Approved In Full,No,15/08/2014,,,,14/08/2014,2014-07-17,,,E05000138,Holborn and Covent Garden,530996.76,181907.05,-0.11330499999999999,51.520909,Nearest OS Open Map-Local Building,11/05/2017 07:37:30 PM,"(51.520909, -0.113305)",28719,http://opendatacommunities.org/id/london-borough-council/camden,1,Destination,originAPP\PREMISES-NEW\001424
3759,APP\PREMISES-NEW\001084,Premises - New Licence,The Bull Steak Expert Limited,"54 RED LION STREET, LONDON, WC1R 4PD",LA2003,Application Approved In Full,No,15/12/2011,,,,14/12/2011,2011-11-16,,,E05000138,Holborn and Covent Garden,530721.76,181731.7,-0.11733099999999999,51.519397,Nearest OS Open Map-Local Building,11/05/2017 07:37:30 PM,"(51.519397, -0.117331)",29028,http://opendatacommunities.org/id/london-borough-council/camden,1,Destination,originAPP\PREMISES-NEW\001084
3775,APP\PREMISES-NEW\000247,Premises - New Licence,Pizza Pleeze,"163 FORTESS ROAD, LONDON, NW5 2HR",LA2003,Application Rejected - Incomplete Documentation,No,,,,,01/02/2006,2006-04-01,11/01/2006,,E05000139,Kentish Town,529086.03,185849.19,-0.13938499999999998,51.556776,Nearest OS Open Map-Local Building,11/05/2017 07:37:30 PM,"(51.556776, -0.139385)",29743,http://opendatacommunities.org/id/london-borough-council/camden,1,Destination,originAPP\PREMISES-NEW\000247
3781,APP\PREMISES-NEW\000799,Premises - New Licence,Doubletree by Hilton London - West End,"92 SOUTHAMPTON ROW, LONDON, WC1B 4BH",LA2003,Application Approved In Full,Yes,16/07/2009,,,,28/05/2009,2009-04-30,,,E05000138,Holborn and Covent Garden,530397.56,181815.73,-0.12197000000000001,51.520227,Nearest OS Open Map-Local Building,11/05/2017 07:37:30 PM,"(51.520227, -0.12197)",29281,http://opendatacommunities.org/id/london-borough-council/camden,1,Destination,originAPP\PREMISES-NEW\000799
3786,APP\PREMISES-NEW\000692,Premises - New Licence,G. B. Off Licence,"46 EVERSHOLT STREET, LONDON, NW1 1DA",LA2003,Application Rejected - Incomplete Documentation,No,,,,,14/08/2008,2008-07-17,24/07/2008,,E05000143,St Pancras and Somers Town,529635.38,182806.0,-0.13258499999999998,51.529302,Nearest OS Open Map-Local Building,11/05/2017 07:37:30 PM,"(51.529302, -0.132585)",29379,http://opendatacommunities.org/id/london-borough-council/camden,1,Destination,originAPP\PREMISES-NEW\000692
3840,APP\PREMISES-NEW\001706,Premises - New Licence,L'oscar Hotel,"2   6 SOUTHAMPTON ROW, LONDON, WC1B 4AA",LA2003,Application Withdrawn,No,,,,11/08/2016,26/07/2016,2016-06-28,,,E05000138,Holborn and Covent Garden,530511.07,181596.37,-0.12041600000000001,51.518229999999996,Nearest OS Open Map-Local Building,11/05/2017 07:37:29 PM,"(51.51823, -0.120416)",28459,http://opendatacommunities.org/id/london-borough-council/camden,1,Destination,originAPP\PREMISES-NEW\001706
3886,APP\PREMISES-NEW\000188,Premises - New Licence,The Falkland Stores,"71 FALKLAND ROAD, LONDON, NW5 2XB",LA2003,Application Rejected - Incomplete Documentation,No,,,,,05/12/2005,2005-07-11,11/11/2005,,E05000139,Kentish Town,529362.32,185312.02,-0.135599,51.551885,Nearest OS Open Map-Local Building,11/05/2017 07:37:30 PM,"(51.551885, -0.135599)",29796,http://opendatacommunities.org/id/london-borough-council/camden,1,Destination,originAPP\PREMISES-NEW\000188
3942,APP\PREMISES-NEW\001585,Premises - New Licence,"Offices Ground, 1st & 4th Floor , Stanley Wrap Building","7 PANCRAS SQUARE, LONDON, N1C 4AG",LA2003,Application Approved In Full,No,17/11/2015,,,,16/11/2015,2015-10-19,,,E05000143,St Pancras and Somers Town,530079.57,183254.06,-0.12602,51.533226,Nearest OS Open Map-Local Building,11/05/2017 07:37:30 PM,"(51.533226, -0.12602)",28576,http://opendatacommunities.org/id/london-borough-council/camden,1,Destination,originAPP\PREMISES-NEW\001585
3960,APP\PREMISES-NEW\001079,Premises - New Licence,Castle Express,"88 CAMDEN ROAD, LONDON, NW1 9EA",LA2003,Application Rejected,Yes,,,,19/01/2012,01/12/2011,2011-03-11,27/01/2012,,E05000130,Camden Town with Primrose Hill,529205.13,184115.83,-0.13830399999999998,51.541171000000006,Nearest OS Open Map-Local Building,11/05/2017 07:37:30 PM,"(51.541171, -0.138304)",29033,http://opendatacommunities.org/id/london-borough-council/camden,1,Destination,originAPP\PREMISES-NEW\001079
3965,APP\PREMISES-NEW\000150,Premises - New Licence,Mamas Pizza,"158 FROGNAL PARADE FINCHLEY ROAD, LONDON, NW3 5HH",LA2003,Application Rejected,Yes,,,,,24/11/2005,2005-10-27,16/11/2005,,E05000133,Frognal and Fitzjohns,526206.41,184952.7,-0.181221,51.54937,Nearest OS Open Map-Local Building,11/05/2017 07:37:30 PM,"(51.54937, -0.181221)",29830,http://opendatacommunities.org/id/london-borough-council/camden,1,Destination,originAPP\PREMISES-NEW\000150
4005,APP\PREMISES-NEW\001573,Premises - New Licence,One Tun,"125 SAFFRON HILL, LONDON, EC1N 8QS",LA2003,Application Approved In Full,No,20/10/2015,,,,14/10/2015,2015-09-16,,,E05000138,Holborn and Covent Garden,531437.81,181828.21,-0.10698099999999999,51.520098,Nearest OS Open Map-Local Building,11/05/2017 07:37:30 PM,"(51.520098, -0.106981)",28586,http://opendatacommunities.org/id/london-borough-council/camden,1,Destination,originAPP\PREMISES-NEW\001573
4037,APP\PREMISES-NEW\001175,Premises - New Licence,Camden New Town Community Fesitval,"156 ST PAUL'S CRESCENT, LONDON, NW1 9XZ",LA2003,Application Approved In Full,No,09/06/2012,,,,08/06/2012,2012-11-05,,,E05000131,Cantelowes,529871.54,184153.63,-0.128686,51.541358,Nearest OS Open Map-Local Building,11/05/2017 07:37:30 PM,"(51.541358, -0.128686)",28950,http://opendatacommunities.org/id/london-borough-council/camden,1,Destination,originAPP\PREMISES-NEW\001175
4056,APP\PREMISES-NEW\001494,Premises - New Licence,BIG APPLE HOT DOGS,"EUSTON RAILWAY STATION EVERSHOLT STREET, LONDON, NW1 2HS",LA2003,Application Approved In Full,No,20/02/2015,,,,19/02/2015,2015-01-22,,,E05000143,St Pancras and Somers Town,529635.38,182806.0,-0.13258499999999998,51.529302,Nearest OS Open Map-Local Building,11/05/2017 07:37:30 PM,"(51.529302, -0.132585)",28658,http://opendatacommunities.org/id/london-borough-council/camden,1,Destination,originAPP\PREMISES-NEW\001494
4060,APP\PREMISES-NEW\000786,Premises - New Licence,Sai News,"8 TOTTENHAM STREET, LONDON, W1T 4RB",LA2003,Application Rejected,Yes,,,,,20/04/2009,2009-03-23,17/04/2009,,E05000129,Bloomsbury,529473.33,181847.5,-0.135272,51.520725,Nearest OS Open Map-Local Building,11/05/2017 07:37:30 PM,"(51.520725, -0.135272)",29294,http://opendatacommunities.org/id/london-borough-council/camden,1,Destination,originAPP\PREMISES-NEW\000786
4072,APP\PREMISES-NEW\001130,Premises - New Licence,Prime Burger,"ST PANCRAS INTERNATIONAL STATION PANCRAS ROAD, LONDON, NW1 2QL",LA2003,Application Approved In Full,No,03/05/2012,,,10/05/2012,27/03/2012,2012-02-28,,,E05000143,St Pancras and Somers Town,530045.03,183091.73,-0.126577,51.531775,Nearest OS Open Map-Local Building,11/05/2017 07:37:30 PM,"(51.531775, -0.126577)",28989,http://opendatacommunities.org/id/london-borough-council/camden,1,Destination,originAPP\PREMISES-NEW\001130
4087,APP\PREMISES-NEW\001135,Premises - New Licence,Estancia Brasil Steak House (formerly Iceland),"117 FINCHLEY ROAD, LONDON, NW3 6HY",LA2003,Application Rejected,Yes,,,,17/05/2012,06/04/2012,2012-09-03,,,E05000144,Swiss Cottage,526612.06,184280.06,-0.17561500000000002,51.543234000000005,Nearest OS Open Map-Local Building,11/05/2017 07:37:30 PM,"(51.543234, -0.175615)",28984,http://opendatacommunities.org/id/london-borough-council/camden,1,Destination,originAPP\PREMISES-NEW\001135
4102,APP\PREMISES-NEW\000639,Premises - New Licence,The Sun,"21 DRURY LANE, LONDON, WC2B 5RH",LA2003,Application Rejected,Yes,,,,,24/03/2008,2008-02-25,06/03/2008,,,,530342.31,181211.81,-0.12298900000000001,51.514813000000004,Nearest OS Open Map-Local Building,11/05/2017 07:37:30 PM,"(51.514813, -0.122989)",29421,http://opendatacommunities.org/id/london-borough-council/camden,1,Destination,originAPP\PREMISES-NEW\000639
4136,APP\PREMISES-NEW\000296,Premises - New Licence,Melrose And Morgan Limited,"42 GLOUCESTER AVENUE, LONDON, NW1 8JD",LA2003,Application Approved In Full,No,20/04/2006,,,,31/03/2006,2006-03-03,,,E05000130,Camden Town with Primrose Hill,528343.29,184027.44,-0.150756,51.540572999999995,Nearest OS Open Map-Local Building,11/05/2017 07:37:30 PM,"(51.540573, -0.150756)",29698,http://opendatacommunities.org/id/london-borough-council/camden,1,Destination,originAPP\PREMISES-NEW\000296
4152,APP\PREMISES-NEW\001750,Premises - New Licence,Unit R01 & Unit R02,"CENTRE POINT COMPLEX DEVELOPMENT SITE AT 101-103 NEW OXFORD STREET, LONDON, WC1A 1DD",LA2003,Application Partially Approved,Yes,27/02/2017,,,15/12/2016,28/11/2016,2016-10-31,,Seven Dials,E05000138,Holborn and Covent Garden,529902.99,181352.5,-0.12926500000000002,51.516178000000004,Nearest OS Open Map-Local Building,11/05/2017 07:37:29 PM,"(51.516178, -0.129265)",28417,http://opendatacommunities.org/id/london-borough-council/camden,1,Destination,originAPP\PREMISES-NEW\001750
4170,APP\PREMISES-NEW\000926,Premises - New Licence,Mushu,"53 WARREN STREET, LONDON, W1T 5NL",LA2003,Application Partially Approved,Yes,01/09/2010,,,25/08/2010,26/07/2010,2010-06-28,,,E05000129,Bloomsbury,529182.68,182248.85,-0.139311,51.524398,Nearest OS Open Map-Local Building,11/05/2017 07:37:30 PM,"(51.524398, -0.139311)",29161,http://opendatacommunities.org/id/london-borough-council/camden,1,Destination,originAPP\PREMISES-NEW\000926
4171,APP\PREMISES-NEW\000960,Premises - New Licence,Reverend JW Simpson,"32  34 GOODGE STREET, LONDON, W1T 2QJ",LA2003,Application Withdrawn,Yes,,,,,04/11/2010,2010-07-10,,,E05000129,Bloomsbury,529468.36,181750.5,-0.135379,51.519855,Nearest OS Open Map-Local Building,11/05/2017 07:37:30 PM,"(51.519855, -0.135379)",29133,http://opendatacommunities.org/id/london-borough-council/camden,1,Destination,originAPP\PREMISES-NEW\000960
4174,APP\PREMISES-NEW\000741,Premises - New Licence,Camden Food Co,"KINGS CROSS RAILWAY STATION EUSTON ROAD, LONDON, N1 9AP",LA2003,Application Approved In Full,No,22/12/2008,,,,16/12/2008,2008-11-18,,,E05000143,St Pancras and Somers Town,530247.52,183117.31,-0.12365,51.531959,Nearest OS Open Map-Local Building,11/05/2017 07:37:30 PM,"(51.531959, -0.12365)",29333,http://opendatacommunities.org/id/london-borough-council/camden,1,Destination,originAPP\PREMISES-NEW\000741
4181,APP\PREMISES-NEW\000370,Premises - New Licence,LAS IGUANAS,"11  13 BRUNSWICK CENTRE, LONDON, WC1N 1AF",LA2003,Application Rejected,No,,,,,18/07/2006,2006-06-20,13/07/2006,,E05000129,Bloomsbury,530255.25,182276.13,-0.12385,51.524397,Nearest OS Open Map-Local Building,11/05/2017 07:37:30 PM,"(51.524397, -0.12385)",29638,http://opendatacommunities.org/id/london-borough-council/camden,1,Destination,originAPP\PREMISES-NEW\000370
4190,APP\PREMISES-NEW\001468,Premises - New Licence,"PizzaExpress, Unit 7B","255 THE O2 CENTRE FINCHLEY ROAD, LONDON, NW3 6LU",LA2003,Application Approved In Full,No,06/01/2015,,,,23/12/2014,2014-11-25,,,E05000145,West Hampstead,526204.1,184766.66,-0.181321,51.547698,Nearest OS Open Map-Local Building,11/05/2017 07:37:30 PM,"(51.547698, -0.181321)",28682,http://opendatacommunities.org/id/london-borough-council/camden,1,Destination,originAPP\PREMISES-NEW\001468
4226,APP\PREMISES-NEW\001486,Premises - New Licence,MoBa,"53 GOODGE STREET, LONDON, W1T 1TG",LA2003,Application Approved In Full,Yes,05/02/2015,,,26/02/2015,04/02/2015,2015-07-01,,,E05000129,Bloomsbury,529442.0,181657.07,-0.135793,51.519021,Nearest OS Open Map-Local Building,11/05/2017 07:37:30 PM,"(51.519021, -0.135793)",28666,http://opendatacommunities.org/id/london-borough-council/camden,1,Destination,originAPP\PREMISES-NEW\001486
4264,APP\PREMISES-NEW\000215,Premises - New Licence,The Falkland Stores,"71 FALKLAND ROAD, LONDON, NW5 2XB",LA2003,Application Rejected,Yes,,,,12/01/2006,20/12/2005,2005-11-22,01/02/2006,,E05000139,Kentish Town,529362.32,185312.02,-0.135599,51.551885,Nearest OS Open Map-Local Building,11/05/2017 07:37:30 PM,"(51.551885, -0.135599)",29772,http://opendatacommunities.org/id/london-borough-council/camden,1,Destination,originAPP\PREMISES-NEW\000215
4306,APP\PREMISES-NEW\001663,Premises - New Licence,Whitestone Pond and Heath Street,"WHITESTONE COTTAGE WHITESTONE LANE, LONDON, NW3 1EA",LA2003,Application Approved In Full,Yes,24/06/2016,,,21/06/2016,31/05/2016,2016-03-05,,,E05000135,Hampstead Town,526342.52,186301.49,-0.178775,51.561461,Nearest OS Open Map-Local Building,11/05/2017 07:37:30 PM,"(51.561461, -0.178775)",28500,http://opendatacommunities.org/id/london-borough-council/camden,1,Destination,originAPP\PREMISES-NEW\001663
4311,APP\PREMISES-NEW\001597,Premises - New Licence,Central News and Wine,"234 SHAFTESBURY AVENUE, LONDON, WC2H 8EG",LA2003,Application Partially Approved,No,05/01/2016,,,05/01/2016,07/12/2015,2015-09-11,,Seven Dials,E05000138,Holborn and Covent Garden,530175.35,181438.83,-0.12531,51.516890999999994,Nearest OS Open Map-Local Building,11/05/2017 07:37:30 PM,"(51.516891, -0.12531)",28565,http://opendatacommunities.org/id/london-borough-council/camden,1,Destination,originAPP\PREMISES-NEW\001597
4321,APP\PREMISES-NEW\000061,Premises - New Licence,113 Restaurant & Bar,"111 113 HAMPSTEAD ROAD, LONDON, NW1 3EE",LA2003,Application Partially Approved,Yes,18/11/2005,,,18/11/2005,21/10/2005,2005-09-23,,,E05000142,Regent's Park,529184.17,182645.2,-0.139145,51.52796,Nearest OS Open Map-Local Building,11/05/2017 07:37:30 PM,"(51.52796, -0.139145)",29904,http://opendatacommunities.org/id/london-borough-council/camden,1,Destination,originAPP\PREMISES-NEW\000061
4337,APP\PREMISES-NEW\000684,Premises - New Licence,Diamond Supermarket,"87 HAVERSTOCK HILL, LONDON, NW3 4RL",LA2003,Application Withdrawn,No,,,,,21/07/2008,2008-06-23,,,E05000128,Belsize,527774.46,184692.48,-0.15871300000000002,51.546679,Nearest OS Open Map-Local Building,11/05/2017 07:37:30 PM,"(51.546679, -0.158713)",29386,http://opendatacommunities.org/id/london-borough-council/camden,1,Destination,originAPP\PREMISES-NEW\000684
4352,APP\PREMISES-NEW\000470,Premises - New Licence,Paya Thai,"96 WEST END LANE, LONDON, NW6 2LU",LA2003,Application Approved In Full,No,10/03/2007,,,,09/03/2007,2007-09-02,,,E05000145,West Hampstead,525571.42,184575.8,-0.19050799999999998,51.546124,Nearest OS Open Map-Local Building,11/05/2017 07:37:30 PM,"(51.546124, -0.190508)",29558,http://opendatacommunities.org/id/london-borough-council/camden,1,Destination,originAPP\PREMISES-NEW\000470
4359,APP\PREMISES-NEW\000818,Premises - New Licence,Unit 109,"MARKET HALL CAMDEN LOCK PLACE, LONDON, NW1 8AF",LA2003,Application Rejected,Yes,,,,03/09/2009,11/08/2009,2009-07-14,06/10/2009,Camden Town,E05000130,Camden Town with Primrose Hill,528681.08,184131.14,-0.145851,51.541428,Nearest OS Open Map-Local Building,11/05/2017 07:37:30 PM,"(51.541428, -0.145851)",29262,http://opendatacommunities.org/id/london-borough-council/camden,1,Destination,originAPP\PREMISES-NEW\000818
4365,APP\PREMISES-NEW\000875,Premises - New Licence,Bounce,"121 HOLBORN, LONDON, EC1N 2TD",LA2003,Application Rejected,Yes,,,,18/02/2010,21/01/2010,2009-12-24,06/04/2010,,E05000138,Holborn and Covent Garden,531335.61,181650.94,-0.108519,51.518529,Nearest OS Open Map-Local Building,11/05/2017 07:37:30 PM,"(51.518529, -0.108519)",29207,http://opendatacommunities.org/id/london-borough-council/camden,1,Destination,originAPP\PREMISES-NEW\000875
4413,APP\PREMISES-NEW\001087,Premises - New Licence,Break Point,"73 NEW OXFORD STREET, LONDON, WC1A 1DG",LA2003,Application Partially Approved,Yes,21/09/2012,,,01/03/2012,27/12/2011,2011-11-29,01/03/2012,Seven Dials,E05000138,Holborn and Covent Garden,529983.42,181393.32,-0.128091,51.516527,Nearest OS Open Map-Local Building,11/05/2017 07:37:30 PM,"(51.516527, -0.128091)",29025,http://opendatacommunities.org/id/london-borough-council/camden,1,Destination,originAPP\PREMISES-NEW\001087
4422,APP\PREMISES-NEW\000626,Premises - New Licence,IL Fornello Restaurant,"150 PREMIER HOUSE SOUTHAMPTON ROW, LONDON, WC1B 5AL",LA2003,Application Partially Approved,No,19/03/2008,,,,03/03/2008,2008-04-02,,,E05000138,Holborn and Covent Garden,530280.54,181985.11,-0.12359300000000001,51.521776,Nearest OS Open Map-Local Building,11/05/2017 07:37:30 PM,"(51.521776, -0.123593)",29432,http://opendatacommunities.org/id/london-borough-council/camden,1,Destination,originAPP\PREMISES-NEW\000626
4433,APP\PREMISES-NEW\001258,Premises - New Licence,TARA TARI,"117 FINCHLEY ROAD, LONDON, NW3 6HY",LA2003,Application Approved In Full,No,18/01/2013,,,,17/01/2013,2012-12-20,,,E05000144,Swiss Cottage,526612.06,184280.06,-0.17561500000000002,51.543234000000005,Nearest OS Open Map-Local Building,11/05/2017 07:37:30 PM,"(51.543234, -0.175615)",28872,http://opendatacommunities.org/id/london-borough-council/camden,1,Destination,originAPP\PREMISES-NEW\001258
4475,APP\PREMISES-NEW\000523,Premises - New Licence,Tin Pan Alley Festival,"1 DENMARK STREET, LONDON, WC2H 8LP",LA2003,Application Approved In Full,No,12/06/2007,,,,11/06/2007,2007-05-14,,Seven Dials,E05000138,Holborn and Covent Garden,529890.6,181279.62,-0.12947,51.515526,Nearest OS Open Map-Local Building,11/05/2017 07:37:30 PM,"(51.515526, -0.12947)",29515,http://opendatacommunities.org/id/london-borough-council/camden,1,Destination,originAPP\PREMISES-NEW\000523
4482,APP\PREMISES-NEW\000226,Premises - New Licence,Chez Bob,"205 207 HAVERSTOCK HILL, LONDON, NW3 4QG",LA2003,Application Rejected,No,,,,,06/01/2006,2005-09-12,22/12/2005,,E05000128,Belsize,527266.83,185119.54,-0.165875,51.550631,Nearest OS Open Map-Local Building,11/05/2017 07:37:30 PM,"(51.550631, -0.165875)",29763,http://opendatacommunities.org/id/london-borough-council/camden,1,Destination,originAPP\PREMISES-NEW\000226
4486,APP\PREMISES-NEW\000263,Premises - New Licence,Upper Crust Platform 8,"KINGS CROSS RAILWAY STATION EUSTON ROAD, LONDON, N1 9AP",LA2003,Application Approved In Full,No,17/02/2006,,,,16/02/2006,2006-01-19,,,E05000143,St Pancras and Somers Town,530247.52,183117.31,-0.12365,51.531959,Nearest OS Open Map-Local Building,11/05/2017 07:37:30 PM,"(51.531959, -0.12365)",29728,http://opendatacommunities.org/id/london-borough-council/camden,1,Destination,originAPP\PREMISES-NEW\000263
4495,APP\PREMISES-NEW\001103,Premises - New Licence,Hazraj,"1A FORTESS ROAD, LONDON, NW5 1AA",LA2003,Application Approved In Full,Yes,16/02/2012,,,07/03/2012,16/02/2012,2012-01-19,,,E05000139,Kentish Town,528957.42,185345.59,-0.141423,51.552279,Nearest OS Open Map-Local Building,11/05/2017 07:37:30 PM,"(51.552279, -0.141423)",29011,http://opendatacommunities.org/id/london-borough-council/camden,1,Destination,originAPP\PREMISES-NEW\001103
4513,APP\PREMISES-NEW\001294,Premises - New Licence,"Gulab Tandoori, 277 Pentonville Road","277 PENTONVILLE ROAD, LONDON, N1 9NL",LA2003,Application Partially Approved,Yes,06/08/2013,,,18/07/2013,02/07/2013,2013-04-06,,,E05000141,King's Cross,530402.16,182980.44,-0.121473,51.530693,Nearest OS Open Map-Local Building,11/05/2017 07:37:30 PM,"(51.530693, -0.121473)",28843,http://opendatacommunities.org/id/london-borough-council/camden,1,Destination,originAPP\PREMISES-NEW\001294
4520,APP\PREMISES-NEW\000824,Premises - New Licence,Cafe Rouge (Units A and B),"264 TOTTENHAM COURT ROAD, LONDON, W1T 7RQ",LA2003,Application Approved In Full,No,11/09/2009,,,28/09/2009,24/08/2009,2009-07-27,,,E05000129,Bloomsbury,529857.44,181436.66,-0.12989,51.516945,Nearest OS Open Map-Local Building,11/05/2017 07:37:30 PM,"(51.516945, -0.12989)",29256,http://opendatacommunities.org/id/london-borough-council/camden,1,Destination,originAPP\PREMISES-NEW\000824
4551,APP\PREMISES-NEW\001013,Premises - New Licence,Waitrose,"246 WESTON HOUSE HIGH HOLBORN, LONDON, WC1V 7EX",LA2003,Application Approved In Full,No,28/04/2011,,,,27/04/2011,2011-03-30,,,E05000138,Holborn and Covent Garden,530582.58,181461.55,-0.11943599999999999,51.517002000000005,Nearest OS Open Map-Local Building,11/05/2017 07:37:30 PM,"(51.517002, -0.119436)",29087,http://opendatacommunities.org/id/london-borough-council/camden,1,Destination,originAPP\PREMISES-NEW\001013
4568,APP\PREMISES-NEW\000223,Premises - New Licence,Casablanca,"34 CHALK FARM ROAD, LONDON, NW1 8AJ",LA2003,Application Rejected - Incomplete Documentation,No,,,,,29/12/2005,2005-01-12,05/12/2005,Camden Town,E05000130,Camden Town with Primrose Hill,528501.86,184259.1,-0.148387,51.542619,Nearest OS Open Map-Local Building,11/05/2017 07:37:30 PM,"(51.542619, -0.148387)",29766,http://opendatacommunities.org/id/london-borough-council/camden,1,Destination,originAPP\PREMISES-NEW\000223
4574,APP\PREMISES-NEW\001333,Premises - New Licence,Fish Cafe Restaurant (formerly Base),"71 HAMPSTEAD HIGH STREET, LONDON, NW3 1QP",LA2003,Application Approved In Full,No,19/10/2013,,,,18/10/2013,2013-09-20,,,E05000135,Hampstead Town,526435.88,185669.35,-0.177656,51.555759,Nearest OS Open Map-Local Building,11/05/2017 07:37:30 PM,"(51.555759, -0.177656)",28805,http://opendatacommunities.org/id/london-borough-council/camden,1,Destination,originAPP\PREMISES-NEW\001333
4621,APP\PREMISES-NEW\000476,Premises - New Licence,New Little India (formerly Chutney Raj),"137 GRAY'S INN ROAD, LONDON, WC1X 8TU",LA2003,Application Partially Approved,No,27/03/2007,,,,19/03/2007,2007-02-19,,,E05000138,Holborn and Covent Garden,530847.88,182303.83,-0.115302,51.52451,Nearest OS Open Map-Local Building,11/05/2017 07:37:30 PM,"(51.52451, -0.115302)",29553,http://opendatacommunities.org/id/london-borough-council/camden,1,Destination,originAPP\PREMISES-NEW\000476
4656,APP\PREMISES-NEW\000460,Premises - New Licence,The Wellcome Building,"183 193 EUSTON ROAD, LONDON, NW1 2BE",LA2003,Application Approved In Full,No,01/02/2007,,,,30/01/2007,2007-02-01,,,E05000129,Bloomsbury,529507.84,182401.03,-0.134571,51.525692,Nearest OS Open Map-Local Building,11/05/2017 07:37:30 PM,"(51.525692, -0.134571)",29568,http://opendatacommunities.org/id/london-borough-council/camden,1,Destination,originAPP\PREMISES-NEW\000460
4667,APP\PREMISES-NEW\001075,Premises - New Licence,Bobo Social,"95 CHARLOTTE STREET, LONDON, W1T 4PZ",LA2003,Application Partially Approved,Yes,20/01/2012,,,,18/11/2011,2011-10-21,,,E05000129,Bloomsbury,529323.21,181864.53,-0.137428,51.520912,Nearest OS Open Map-Local Building,11/05/2017 07:37:30 PM,"(51.520912, -0.137428)",29037,http://opendatacommunities.org/id/london-borough-council/camden,1,Destination,originAPP\PREMISES-NEW\001075
4680,APP\PREMISES-NEW\001536,Premises - New Licence,Central News and Wine,"234 SHAFTESBURY AVENUE, LONDON, WC2H 8EG",LA2003,Application Rejected,Yes,,,,,08/06/2015,2015-11-05,05/06/2015,Seven Dials,E05000138,Holborn and Covent Garden,530175.35,181438.83,-0.12531,51.516890999999994,Nearest OS Open Map-Local Building,11/05/2017 07:37:30 PM,"(51.516891, -0.12531)",28618,http://opendatacommunities.org/id/london-borough-council/camden,1,Destination,originAPP\PREMISES-NEW\001536
4736,APP\PREMISES-NEW\001619,Premises - New Licence,Burger King,"EUSTON RAILWAY STATION EVERSHOLT STREET, LONDON, NW1 2DY",LA2003,Application Partially Approved,No,29/03/2016,,,11/02/2016,19/01/2016,2015-12-22,,,E05000143,St Pancras and Somers Town,529635.38,182806.0,-0.13258499999999998,51.529302,Nearest OS Open Map-Local Building,11/05/2017 07:37:30 PM,"(51.529302, -0.132585)",28544,http://opendatacommunities.org/id/london-borough-council/camden,1,Destination,originAPP\PREMISES-NEW\001619
4796,APP\PREMISES-NEW\001386,Premises - New Licence,"Peyton and Byrne, The Undercroft","ST PANCRAS INTERNATIONAL STATION PANCRAS ROAD, LONDON, NW1 2QL",LA2003,Application Approved In Full,No,08/05/2014,,,15/05/2014,30/04/2014,2014-02-04,,,E05000143,St Pancras and Somers Town,530045.03,183091.73,-0.126577,51.531775,Nearest OS Open Map-Local Building,11/05/2017 07:37:30 PM,"(51.531775, -0.126577)",28756,http://opendatacommunities.org/id/london-borough-council/camden,1,Destination,originAPP\PREMISES-NEW\001386
4804,APP\PREMISES-NEW\000291,Premises - New Licence,Ay Caramba Formerly (Ottoman Palace),"14  16 CAMDEN HIGH STREET, LONDON, NW1 0JH",LA2003,Application Approved In Full,No,24/03/2006,,,,23/03/2006,2006-02-23,,Camden Town,E05000142,Regent's Park,529197.39,183454.25,-0.138658,51.535228000000004,Nearest OS Open Map-Local Building,11/05/2017 07:37:30 PM,"(51.535228, -0.138658)",29703,http://opendatacommunities.org/id/london-borough-council/camden,1,Destination,originAPP\PREMISES-NEW\000291
4824,APP\PREMISES-NEW\001056,Premises - New Licence,"University of the Arts, Central Saint Martins","1 GRANARY BUILDING GRANARY SQUARE, LONDON, N1C 4AA",LA2003,Application Approved In Full,No,13/09/2011,,,,02/09/2011,2011-05-08,,,E05000143,St Pancras and Somers Town,530066.75,183436.84,-0.126137,51.534872,Nearest OS Open Map-Local Building,11/05/2017 07:37:30 PM,"(51.534872, -0.126137)",29051,http://opendatacommunities.org/id/london-borough-council/camden,1,Destination,originAPP\PREMISES-NEW\001056
4836,APP\PREMISES-NEW\000075,Premises - New Licence,Royal Pizza,"1 KING'S CROSS BRIDGE, LONDON, N1 9NW",LA2003,Application Rejected,Yes,,,,16/11/2005,25/10/2005,2005-09-27,27/10/2005,,E05000141,King's Cross,530402.16,182980.44,-0.121473,51.530693,Nearest OS Open Map-Local Building,11/05/2017 07:37:30 PM,"(51.530693, -0.121473)",29893,http://opendatacommunities.org/id/london-borough-council/camden,1,Destination,originAPP\PREMISES-NEW\000075
4846,APP\PREMISES-NEW\001657,Premises - New Licence,West Yard & Middle Yard,"CAMDEN LOCK MARKET CAMDEN LOCK PLACE,",LA2003,Application Withdrawn,Yes,,,,16/06/2016,19/05/2016,2016-04-21,,Camden Town,E05000130,Camden Town with Primrose Hill,528630.79,184107.84,-0.146584,51.54123,Nearest OS Open Map-Local Building,11/05/2017 07:37:30 PM,"(51.54123, -0.146584)",28506,http://opendatacommunities.org/id/london-borough-council/camden,1,Destination,originAPP\PREMISES-NEW\001657
4856,APP\PREMISES-NEW\001717,Premises - New Licence,PATRON CAVE A MANGER,"16 FORTESS ROAD, LONDON, NW5 2EU",LA2003,Application Approved In Full,Yes,09/09/2016,,,04/10/2016,08/09/2016,2016-11-08,,,E05000139,Kentish Town,529015.39,185365.81,-0.14057999999999998,51.552448,Nearest OS Open Map-Local Building,11/05/2017 07:37:29 PM,"(51.552448, -0.14058)",28449,http://opendatacommunities.org/id/london-borough-council/camden,1,Destination,originAPP\PREMISES-NEW\001717
4857,APP\PREMISES-NEW\001251,Premises - New Licence,Camden Food &Wine,"174 ROYAL COLLEGE STREET, LONDON, NW1 0SP",LA2003,Application Withdrawn,Yes,,,,31/01/2013,03/01/2013,2012-11-30,,,E05000131,Cantelowes,529236.01,184161.88,-0.13784200000000002,51.541578,Nearest OS Open Map-Local Building,11/05/2017 07:37:30 PM,"(51.541578, -0.137842)",28878,http://opendatacommunities.org/id/london-borough-council/camden,1,Destination,originAPP\PREMISES-NEW\001251
4885,APP\PREMISES-NEW\000258,Premises - New Licence,Fishworks,"57 REGENT'S PARK ROAD, LONDON, NW1 8XD",LA2003,Application Approved In Full,No,15/02/2006,,,,14/02/2006,2006-01-17,,,E05000130,Camden Town with Primrose Hill,527831.92,184041.77,-0.158121,51.540818,Nearest OS Open Map-Local Building,11/05/2017 07:37:30 PM,"(51.540818, -0.158121)",29733,http://opendatacommunities.org/id/london-borough-council/camden,1,Destination,originAPP\PREMISES-NEW\000258
4960,APP\PREMISES-NEW\000082,Premises - New Licence,Liberty Kebabish Restaurant,"56 CHETWYND ROAD, LONDON, NW5 1DJ",LA2003,Application Approved In Full,No,22/10/2005,,,,21/10/2005,2005-09-23,,,E05000137,Highgate,528765.68,185937.09,-0.14397100000000002,51.557639,Nearest OS Open Map-Local Building,11/05/2017 07:37:30 PM,"(51.557639, -0.143971)",29886,http://opendatacommunities.org/id/london-borough-council/camden,1,Destination,originAPP\PREMISES-NEW\000082
4976,APP\PREMISES-NEW\000610,Premises - New Licence,Kenwood Lakeside,"KENWOOD ESTATE HAMPSTEAD LANE,",LA2003,Application Withdrawn,No,,,,,15/01/2008,2007-12-18,,,E05000137,Highgate,526787.89,187479.0,-0.171929,51.571943,Nearest OS Open Map-Local Building,11/05/2017 07:37:30 PM,"(51.571943, -0.171929)",29444,http://opendatacommunities.org/id/london-borough-council/camden,1,Destination,originAPP\PREMISES-NEW\000610
5016,APP\PREMISES-NEW\000558,Premises - New Licence,The Continental,"ST PANCRAS INTERNATIONAL STATION EUSTON ROAD, LONDON, N1C 4QL",LA2003,Application Partially Approved,No,27/09/2007,,,15/10/2007,20/09/2007,2007-08-23,,,E05000143,St Pancras and Somers Town,530045.03,183091.73,-0.126577,51.531775,Nearest OS Open Map-Local Building,11/05/2017 07:37:30 PM,"(51.531775, -0.126577)",29484,http://opendatacommunities.org/id/london-borough-council/camden,1,Destination,originAPP\PREMISES-NEW\000558
5031,APP\PREMISES-NEW\000383,Premises - New Licence,Buttyboys,"17 ELM STREET, LONDON, WC1X 0BJ",LA2003,Application Rejected,No,,,,,16/08/2006,2006-07-19,01/08/2006,,E05000138,Holborn and Covent Garden,530904.97,182095.62,-0.11455699999999999,51.522625,Nearest OS Open Map-Local Building,11/05/2017 07:37:30 PM,"(51.522625, -0.114557)",29628,http://opendatacommunities.org/id/london-borough-council/camden,1,Destination,originAPP\PREMISES-NEW\000383
5056,APP\PREMISES-NEW\001457,Premises - New Licence,"Hatchards, Unit 1","ST PANCRAS INTERNATIONAL STATION EUSTON ROAD, LONDON, N1C 4QL",LA2003,Application Approved In Full,No,14/11/2014,,,,13/11/2014,2014-10-16,,,E05000143,St Pancras and Somers Town,530045.03,183091.73,-0.126577,51.531775,Nearest OS Open Map-Local Building,11/05/2017 07:37:30 PM,"(51.531775, -0.126577)",28689,http://opendatacommunities.org/id/london-borough-council/camden,1,Destination,originAPP\PREMISES-NEW\001457
5071,APP\PREMISES-NEW\000509,Premises - New Licence,Subway,"130 134 MECURE HOTEL SOUTHAMPTON ROW, LONDON, WC1B 5AF",LA2003,Application Partially Approved,Yes,21/06/2007,,,21/06/2007,28/05/2007,2007-04-30,,,E05000138,Holborn and Covent Garden,530280.54,181985.11,-0.12359300000000001,51.521776,Nearest OS Open Map-Local Building,11/05/2017 07:37:30 PM,"(51.521776, -0.123593)",29528,http://opendatacommunities.org/id/london-borough-council/camden,1,Destination,originAPP\PREMISES-NEW\000509
