,Application Reference,Application Type,Premises Name,Premises Address,Application Legislation,Application Status,Application Objections,Approved Date,Date Of Events,Expiry Date,Hearing Date,Last Date For Representations,Received Date,Refused Date,Cumulative Impact Policy Area Name,Ward Code,Ward Name,Easting,Northing,Longitude,Latitude,Spatial Accuracy,Last Uploaded,Location,Socrata ID,Organisation URI,path,Origin-Destination,PathId
7,APP\LATE-TEN\000132,Late Temporary Event Notice,Woody Grill,"1A CAMDEN ROAD, LONDON, NW1 9LG",LA2003,Application Approved,No,08/10/2012,,,,10/10/2012,2012-05-10,,Camden Town,E05000130,Camden Town with Primrose Hill,528955.86,183892.26,-0.141978,51.539219,Nearest OS Open Map-Local Building,11/05/2017 07:37:32 PM,"(51.539219, -0.141978)",34085,http://opendatacommunities.org/id/london-borough-council/camden,1,Destination,originAPP\LATE-TEN\000132
23,APP\LATE-TEN\000612,Late Temporary Event Notice,Miusan (Formerly Zensai),"16 INVERNESS STREET, LONDON, NW1 7HJ",LA2003,Application Rejected,No,,,,,06/12/2013,2013-03-12,06/12/2013,Camden Town,E05000130,Camden Town with Primrose Hill,528778.86,183979.04,-0.14449700000000001,51.540039,Nearest OS Open Map-Local Building,11/05/2017 07:37:32 PM,"(51.540039, -0.144497)",33645,http://opendatacommunities.org/id/london-borough-council/camden,1,Destination,originAPP\LATE-TEN\000612
28,APP\LATE-TEN\002127,Late Temporary Event Notice,Sir Colin Campbell,"264 266 KILBURN HIGH ROAD, LONDON, NW6 2BY",LA2003,Application Rejected,No,,,,,27/04/2017,2017-04-24,24/04/2017,,E05000140,Kilburn,524976.44,184257.2,-0.199197,51.543393,Nearest OS Open Map-Local Building,11/05/2017 07:37:31 PM,"(51.543393, -0.199197)",32226,http://opendatacommunities.org/id/london-borough-council/camden,1,Destination,originAPP\LATE-TEN\002127
118,APP\LATE-TEN\001632,Late Temporary Event Notice,Piano Bar Restaurant,"115 FINCHLEY ROAD, LONDON, NW3 6HY",LA2003,Application Approved,No,18/02/2016,,,,22/02/2016,2016-02-17,,,E05000144,Swiss Cottage,526598.65,184234.03,-0.175825,51.542823,Nearest OS Open Map-Local Building,11/05/2017 07:37:31 PM,"(51.542823, -0.175825)",32695,http://opendatacommunities.org/id/london-borough-council/camden,1,Destination,originAPP\LATE-TEN\001632
126,APP\LATE-TEN\000564,Late Temporary Event Notice,The Earl of Camden,"55 PARKWAY, LONDON, NW1 7PN",LA2003,Application Approved,No,20/11/2013,,,,25/11/2013,2013-11-20,,Camden Town,E05000130,Camden Town with Primrose Hill,528830.64,183707.33,-0.14385,51.537586,Nearest OS Open Map-Local Building,11/05/2017 07:37:32 PM,"(51.537586, -0.14385)",33691,http://opendatacommunities.org/id/london-borough-council/camden,1,Destination,originAPP\LATE-TEN\000564
139,APP\LATE-TEN\001869,Late Temporary Event Notice,Granary Square,"1 GRANARY BUILDING GRANARY SQUARE, LONDON, N1C 4AA",LA2003,Application Approved,No,21/09/2016,,,,26/09/2016,2016-09-21,,,E05000143,St Pancras and Somers Town,530179.14,183608.02,-0.124454,51.536384000000005,Nearest OS Open Map-Local Building,11/05/2017 07:37:31 PM,"(51.536384, -0.124454)",32466,http://opendatacommunities.org/id/london-borough-council/camden,1,Destination,originAPP\LATE-TEN\001869
144,APP\LATE-TEN\000817,Late Temporary Event Notice,Kings Cross Centre,"211 WESTMINSTER KINGSWAY COLLEGE KINGS CROSS CENTRE GRAY'S INN ROAD, LONDON, WC1X 8RA",LA2003,Application Approved,No,16/05/2014,,,,21/05/2014,2014-05-16,,,E05000141,King's Cross,530582.87,182546.76,-0.11903,51.526754,Nearest OS Open Map-Local Building,11/05/2017 07:37:32 PM,"(51.526754, -0.11903)",33451,http://opendatacommunities.org/id/london-borough-council/camden,1,Destination,originAPP\LATE-TEN\000817
149,APP\LATE-TEN\001223,Late Temporary Event Notice,Bloomsbury Ballroom,"37  63 VICTORIA HOUSE SOUTHAMPTON ROW, LONDON, WC1B 4DA",LA2003,Application Approved,No,27/04/2015,,,,29/04/2015,2015-04-24,,Seven Dials,E05000138,Holborn and Covent Garden,530393.5,181710.95,-0.12206700000000001,51.519286,Nearest OS Open Map-Local Building,11/05/2017 07:37:32 PM,"(51.519286, -0.122067)",33075,http://opendatacommunities.org/id/london-borough-council/camden,1,Destination,originAPP\LATE-TEN\001223
160,APP\LATE-TEN\000036,Late Temporary Event Notice,Kingsgate Workshops Trust Ltd,"110 116 KINGSGATE WORKSHOPS KINGSGATE ROAD, LONDON, NW6 2JG",LA2003,Application Approved,No,20/06/2012,,,,21/06/2012,2012-06-16,,,E05000140,Kilburn,525150.77,184354.16,-0.19665,51.544226,Nearest OS Open Map-Local Building,11/05/2017 07:37:32 PM,"(51.544226, -0.19665)",34179,http://opendatacommunities.org/id/london-borough-council/camden,1,Destination,originAPP\LATE-TEN\000036
170,APP\LATE-TEN\001803,Late Temporary Event Notice,FitzJohn's Primary School,"86A FITZJOHN'S PRIMARY SCHOOL FITZJOHN'S AVENUE, LONDON, NW3 6NP",LA2003,Application Approved,No,04/07/2016,,,,07/07/2016,2016-03-07,,,E05000135,Hampstead Town,526593.3,185464.71,-0.17545999999999998,51.553885,Nearest OS Open Map-Local Building,11/05/2017 07:37:31 PM,"(51.553885, -0.17546)",32531,http://opendatacommunities.org/id/london-borough-council/camden,1,Destination,originAPP\LATE-TEN\001803
189,APP\LATE-TEN\001731,Late Temporary Event Notice,Piano Bar Restaurant,"115 FINCHLEY ROAD, LONDON, NW3 6HY",LA2003,Application Rejected,No,04/05/2016,,,,06/05/2016,2016-03-05,03/05/2016,,E05000144,Swiss Cottage,526598.65,184234.03,-0.175825,51.542823,Nearest OS Open Map-Local Building,11/05/2017 07:37:31 PM,"(51.542823, -0.175825)",32599,http://opendatacommunities.org/id/london-borough-council/camden,1,Destination,originAPP\LATE-TEN\001731
198,APP\LATE-TEN\002106,Late Temporary Event Notice,British Film Institute,"21 STEPHEN STREET, LONDON, W1T 1LW",LA2003,Application Approved,No,12/04/2017,,,,17/04/2017,2017-12-04,,,E05000129,Bloomsbury,529658.98,181501.2,-0.132725,51.51757,Nearest OS Open Map-Local Building,11/05/2017 07:37:31 PM,"(51.51757, -0.132725)",32245,http://opendatacommunities.org/id/london-borough-council/camden,1,Destination,originAPP\LATE-TEN\002106
210,APP\LATE-TEN\001174,Late Temporary Event Notice,Enterprise,"38 RED LION STREET, LONDON, WC1R 4PN",LA2003,Application Approved,No,13/03/2015,,,,13/03/2015,2015-10-03,,,E05000138,Holborn and Covent Garden,530745.15,181817.95,-0.11696199999999998,51.520167,Nearest OS Open Map-Local Building,11/05/2017 07:37:32 PM,"(51.520167, -0.116962)",33123,http://opendatacommunities.org/id/london-borough-council/camden,1,Destination,originAPP\LATE-TEN\001174
213,APP\LATE-TEN\000860,Late Temporary Event Notice,Parliament Hill School,"PARLIAMENT HILL SCHOOL HIGHGATE ROAD, LONDON, NW5 1RL",LA2003,Application Approved,No,26/06/2014,,,,30/06/2014,2014-06-25,,,E05000137,Highgate,528345.71,185989.05,-0.150007,51.558201000000004,Nearest OS Open Map-Local Building,11/05/2017 07:37:32 PM,"(51.558201, -0.150007)",33411,http://opendatacommunities.org/id/london-borough-council/camden,1,Destination,originAPP\LATE-TEN\000860
226,APP\LATE-TEN\002118,Late Temporary Event Notice,Sway (Cocktail & hide),"61  65 GREAT QUEEN STREET, LONDON, WC2B 5BZ",LA2003,Application Approved,No,21/04/2017,,,,21/04/2017,2017-04-18,,Seven Dials,E05000138,Holborn and Covent Garden,530517.17,181284.16,-0.12044400000000001,51.515423,Nearest OS Open Map-Local Building,11/05/2017 07:37:31 PM,"(51.515423, -0.120444)",32233,http://opendatacommunities.org/id/london-borough-council/camden,1,Destination,originAPP\LATE-TEN\002118
255,APP\LATE-TEN\001682,Late Temporary Event Notice,Istanbul Meze Grill,"9 CAMDEN HIGH STREET, LONDON, NW1 7JE",LA2003,Application Approved,No,22/03/2016,,,,24/03/2016,2016-03-20,,Camden Town,E05000142,Regent's Park,529129.52,183417.31,-0.139649,51.534911,Nearest OS Open Map-Local Building,11/05/2017 07:37:31 PM,"(51.534911, -0.139649)",32646,http://opendatacommunities.org/id/london-borough-council/camden,1,Destination,originAPP\LATE-TEN\001682
256,APP\LATE-TEN\000921,Late Temporary Event Notice,Silk (formerly Anodos Night Spot Ltd),"7   9 PRATT STREET, LONDON, NW1 0AE",LA2003,Application Rejected,No,22/08/2014,,,,26/08/2014,2014-08-21,,Camden Town,E05000130,Camden Town with Primrose Hill,529027.28,183739.2,-0.141005,51.537827,Nearest OS Open Map-Local Building,11/05/2017 07:37:32 PM,"(51.537827, -0.141005)",33359,http://opendatacommunities.org/id/london-borough-council/camden,1,Destination,originAPP\LATE-TEN\000921
266,APP\LATE-TEN\001054,Late Temporary Event Notice,Tropicana Beach Club,"166 NEW LONDON THEATRE DRURY LANE, LONDON, WC2B 5PF",LA2003,Application Approved,No,03/12/2014,,,,05/12/2014,2014-02-12,,Seven Dials,E05000138,Holborn and Covent Garden,530390.33,181320.63,-0.12225699999999999,51.51578,Nearest OS Open Map-Local Building,11/05/2017 07:37:32 PM,"(51.51578, -0.122257)",33234,http://opendatacommunities.org/id/london-borough-council/camden,1,Destination,originAPP\LATE-TEN\001054
318,APP\LATE-TEN\001534,Late Temporary Event Notice,Hawley Arms,"2 CASTLEHAVEN ROAD, LONDON, NW1 8QU",LA2003,Application Approved,No,08/12/2015,,,,11/12/2015,2015-08-12,,Camden Town,E05000130,Camden Town with Primrose Hill,528717.94,184191.37,-0.145297,51.541961,Nearest OS Open Map-Local Building,11/05/2017 07:37:31 PM,"(51.541961, -0.145297)",32786,http://opendatacommunities.org/id/london-borough-council/camden,1,Destination,originAPP\LATE-TEN\001534
322,APP\LATE-TEN\000799,Late Temporary Event Notice,La Roma Bella,"62 GREAT RUSSELL STREET, LONDON, WC1B 3BG",LA2003,Application Approved,No,09/05/2014,,,,13/05/2014,2014-08-05,,Seven Dials,E05000138,Holborn and Covent Garden,530171.1,181600.2,-0.12531199999999998,51.518343,Nearest OS Open Map-Local Building,11/05/2017 07:37:32 PM,"(51.518343, -0.125312)",33469,http://opendatacommunities.org/id/london-borough-council/camden,1,Destination,originAPP\LATE-TEN\000799
353,APP\LATE-TEN\001118,Late Temporary Event Notice,Birkbeck College (Malet St),"UNIVERSITY OF LONDON BIRKBECK COLLEGE MALET STREET, LONDON, WC1E 7HX",LA2003,Application Approved,No,22/01/2015,,,,27/01/2015,2015-01-22,,,E05000129,Bloomsbury,529789.01,182025.36,-0.130659,51.522251000000004,Nearest OS Open Map-Local Building,11/05/2017 07:37:32 PM,"(51.522251, -0.130659)",33177,http://opendatacommunities.org/id/london-borough-council/camden,1,Destination,originAPP\LATE-TEN\001118
357,APP\LATE-TEN\001520,Late Temporary Event Notice,Ambassadors in Bloomsbury,"12 UPPER WOBURN PLACE, LONDON, WC1H 0HX",LA2003,Application Approved,No,04/12/2015,,,,03/12/2015,2015-11-30,,,E05000141,King's Cross,529850.85,182538.16,-0.129579,51.526845,Nearest OS Open Map-Local Building,11/05/2017 07:37:31 PM,"(51.526845, -0.129579)",32800,http://opendatacommunities.org/id/london-borough-council/camden,1,Destination,originAPP\LATE-TEN\001520
373,APP\LATE-TEN\001479,Late Temporary Event Notice,Cuban,"THE STABLES MARKET CHALK FARM ROAD, LONDON, NW1 8AH",LA2003,Application Rejected,No,,,,,26/11/2015,2015-11-23,23/11/2015,Camden Town,E05000130,Camden Town with Primrose Hill,528518.62,184219.15,-0.14816,51.542256,Nearest OS Open Map-Local Building,11/05/2017 07:37:31 PM,"(51.542256, -0.14816)",32839,http://opendatacommunities.org/id/london-borough-council/camden,1,Destination,originAPP\LATE-TEN\001479
375,APP\LATE-TEN\000535,Late Temporary Event Notice,Mia (formerly Benihana),"100 AVENUE ROAD, LONDON, NW3 3HF",LA2003,Application Approved,No,13/11/2013,,,,15/11/2013,2013-12-11,,,E05000144,Swiss Cottage,526712.49,184295.5,-0.17416199999999998,51.54335,Nearest OS Open Map-Local Building,11/05/2017 07:37:32 PM,"(51.54335, -0.174162)",33720,http://opendatacommunities.org/id/london-borough-council/camden,1,Destination,originAPP\LATE-TEN\000535
392,APP\LATE-TEN\001588,Late Temporary Event Notice,Pimpshuei,"59 MOUNT PLEASANT, LONDON, WC1X 0AY",LA2003,Application Approved,No,08/01/2016,,,,13/01/2016,2016-08-01,,,E05000138,Holborn and Covent Garden,531061.51,182106.29,-0.112298,51.522684999999996,Nearest OS Open Map-Local Building,11/05/2017 07:37:31 PM,"(51.522685, -0.112298)",32735,http://opendatacommunities.org/id/london-borough-council/camden,1,Destination,originAPP\LATE-TEN\001588
420,APP\LATE-TEN\001622,Late Temporary Event Notice,Istanbul Meze Grill,"9 CAMDEN HIGH STREET, LONDON, NW1 7JE",LA2003,Application Approved,No,08/02/2016,,,,11/02/2016,2016-08-02,,Camden Town,E05000142,Regent's Park,529129.52,183417.31,-0.139649,51.534911,Nearest OS Open Map-Local Building,11/05/2017 07:37:31 PM,"(51.534911, -0.139649)",32705,http://opendatacommunities.org/id/london-borough-council/camden,1,Destination,originAPP\LATE-TEN\001622
430,APP\LATE-TEN\000714,Late Temporary Event Notice,Haverstock School,"24 HAVERSTOCK SCHOOL HAVERSTOCK HILL, LONDON, NW3 2BQ",LA2003,Application Approved,No,14/02/2014,,,,18/02/2014,2014-02-13,,Camden Town,E05000136,Haverstock,528121.72,184523.75,-0.15376900000000002,51.545084,Nearest OS Open Map-Local Building,11/05/2017 07:37:32 PM,"(51.545084, -0.153769)",33549,http://opendatacommunities.org/id/london-borough-council/camden,1,Destination,originAPP\LATE-TEN\000714
431,APP\LATE-TEN\000566,Late Temporary Event Notice,Secrets (Eversholt St),"34  38 EVERSHOLT STREET, LONDON, NW1 1DA",LA2003,Application Approved,No,21/11/2013,,,,26/11/2013,2013-11-21,,,E05000143,St Pancras and Somers Town,529635.38,182806.0,-0.13258499999999998,51.529302,Nearest OS Open Map-Local Building,11/05/2017 07:37:32 PM,"(51.529302, -0.132585)",33689,http://opendatacommunities.org/id/london-borough-council/camden,1,Destination,originAPP\LATE-TEN\000566
504,APP\LATE-TEN\000626,Late Temporary Event Notice,Brown Sugar,"146 HIGH HOLBORN, LONDON, WC1V 6PH",LA2003,Application Approved,No,06/12/2013,,,,10/12/2013,2013-05-12,,Seven Dials,E05000138,Holborn and Covent Garden,530257.72,181441.14,-0.124123,51.516892999999996,Nearest OS Open Map-Local Building,11/05/2017 07:37:32 PM,"(51.516893, -0.124123)",33634,http://opendatacommunities.org/id/london-borough-council/camden,1,Destination,originAPP\LATE-TEN\000626
505,APP\LATE-TEN\000947,Late Temporary Event Notice,42 Beans,"69 CAMDEN HIGH STREET, LONDON, NW1 7JL",LA2003,Application Approved,No,18/09/2014,,,,22/09/2014,2014-09-17,,Camden Town,E05000142,Regent's Park,529032.06,183577.57,-0.140995,51.536374,Nearest OS Open Map-Local Building,11/05/2017 07:37:32 PM,"(51.536374, -0.140995)",33337,http://opendatacommunities.org/id/london-borough-council/camden,1,Destination,originAPP\LATE-TEN\000947
515,APP\LATE-TEN\000713,Late Temporary Event Notice,113 Restaurant & Bar,"111 113 HAMPSTEAD ROAD, LONDON, NW1 3EE",LA2003,Application Approved,No,12/02/2014,,,,12/02/2014,2014-07-02,,,E05000142,Regent's Park,529184.17,182645.2,-0.139145,51.52796,Nearest OS Open Map-Local Building,11/05/2017 07:37:32 PM,"(51.52796, -0.139145)",33550,http://opendatacommunities.org/id/london-borough-council/camden,1,Destination,originAPP\LATE-TEN\000713
538,APP\LATE-TEN\000853,Late Temporary Event Notice,Colonel Fawcett,"1 RANDOLPH STREET, LONDON, NW1 0SS",LA2003,Application Rejected,No,,,,,19/06/2014,2014-06-16,17/06/2014,,E05000131,Cantelowes,529363.05,184171.91,-0.136007,51.541639,Nearest OS Open Map-Local Building,11/05/2017 07:37:32 PM,"(51.541639, -0.136007)",33418,http://opendatacommunities.org/id/london-borough-council/camden,1,Destination,originAPP\LATE-TEN\000853
543,APP\LATE-TEN\001795,Late Temporary Event Notice,Middle Yard,"MIDDLE YARD CAMDEN LOCK PLACE, LONDON, NW1 8AF",LA2003,Application Approved,No,22/06/2016,,,,27/06/2016,2016-06-22,,Camden Town,E05000130,Camden Town with Primrose Hill,528630.79,184107.84,-0.146584,51.54123,Nearest OS Open Map-Local Building,11/05/2017 07:37:31 PM,"(51.54123, -0.146584)",32538,http://opendatacommunities.org/id/london-borough-council/camden,1,Destination,originAPP\LATE-TEN\001795
588,APP\LATE-TEN\001845,Late Temporary Event Notice,Ladies and Gentlemen,"PUBLIC CONVENIENCES HIGHGATE ROAD,",LA2003,Application Rejected,No,,,,,25/08/2016,2016-08-22,22/08/2016,,E05000137,Highgate,528217.41,186119.31,-0.151809,51.559401,Nearest OS Open Map-Local Building,11/05/2017 07:37:31 PM,"(51.559401, -0.151809)",32490,http://opendatacommunities.org/id/london-borough-council/camden,1,Destination,originAPP\LATE-TEN\001845
596,APP\LATE-TEN\000067,Late Temporary Event Notice,Istanbul Meze Grill,"9 CAMDEN HIGH STREET, LONDON, NW1 7JE",LA2003,Application Approved,No,23/07/2012,,,,25/07/2012,2012-07-20,,Camden Town,E05000142,Regent's Park,529129.52,183417.31,-0.139649,51.534911,Nearest OS Open Map-Local Building,11/05/2017 07:37:32 PM,"(51.534911, -0.139649)",34146,http://opendatacommunities.org/id/london-borough-council/camden,1,Destination,originAPP\LATE-TEN\000067
605,APP\LATE-TEN\001666,Late Temporary Event Notice,Istanbul Meze Grill,"9 CAMDEN HIGH STREET, LONDON, NW1 7JE",LA2003,Application Approved,No,14/03/2016,,,,17/03/2016,2016-03-13,,Camden Town,E05000142,Regent's Park,529129.52,183417.31,-0.139649,51.534911,Nearest OS Open Map-Local Building,11/05/2017 07:37:31 PM,"(51.534911, -0.139649)",32661,http://opendatacommunities.org/id/london-borough-council/camden,1,Destination,originAPP\LATE-TEN\001666
616,APP\LATE-TEN\001736,Late Temporary Event Notice,St Luke's Church,"CHURCH OF ST LUKE WITH ST PAUL OSENEY CRESCENT, LONDON, NW5 2BE",LA2003,Application Approved,No,09/05/2016,,,,11/05/2016,2016-06-05,,,E05000139,Kentish Town,529495.04,184929.65,-0.133826,51.548418,Nearest OS Open Map-Local Building,11/05/2017 07:37:31 PM,"(51.548418, -0.133826)",32594,http://opendatacommunities.org/id/london-borough-council/camden,1,Destination,originAPP\LATE-TEN\001736
685,APP\LATE-TEN\001354,Late Temporary Event Notice,Ainsworth Estate,"96 ROWLEY WAY, LONDON, NW8 0SN",LA2003,Application Approved,No,25/08/2015,,,,26/08/2015,2015-08-21,,,E05000140,Kilburn,526142.39,183952.18,-0.182502,51.540393,Nearest OS Open Map-Local Building,11/05/2017 07:37:32 PM,"(51.540393, -0.182502)",32953,http://opendatacommunities.org/id/london-borough-council/camden,1,Destination,originAPP\LATE-TEN\001354
691,APP\LATE-TEN\001908,Late Temporary Event Notice,The Wesley Formerly MIC Social Club,"81103 THE WESLEY HOTEL EUSTON HOUSE EUSTON STREET, LONDON, NW1 2EZ",LA2003,Application Approved,No,26/10/2016,,,,27/10/2016,2016-10-24,,,E05000142,Regent's Park,529420.67,182494.73,-0.135793,51.526554,Nearest OS Open Map-Local Building,11/05/2017 07:37:31 PM,"(51.526554, -0.135793)",32431,http://opendatacommunities.org/id/london-borough-council/camden,1,Destination,originAPP\LATE-TEN\001908
702,APP\LATE-TEN\000027,Late Temporary Event Notice,Adelaide Road Nature Reserve,"ADELAIDE ROAD NATURE RESERVE ADELAIDE ROAD,",LA2003,Application Approved,No,12/06/2012,,,,14/06/2012,2012-11-06,,,E05000128,Belsize,527612.32,184338.13,-0.161178,51.543531,Nearest OS Open Map-Local Building,11/05/2017 07:37:32 PM,"(51.543531, -0.161178)",34186,http://opendatacommunities.org/id/london-borough-council/camden,1,Destination,originAPP\LATE-TEN\000027
711,APP\LATE-TEN\001236,Late Temporary Event Notice,"Holdsworth Spirit & Company Ltd, Unit 53","WEST YARD CAMDEN LOCK PLACE, LONDON, NW1 8AF",LA2003,Application Approved,No,06/05/2015,,,,08/05/2015,2015-05-05,,Camden Town,E05000130,Camden Town with Primrose Hill,528630.79,184107.84,-0.146584,51.54123,Nearest OS Open Map-Local Building,11/05/2017 07:37:32 PM,"(51.54123, -0.146584)",33063,http://opendatacommunities.org/id/london-borough-council/camden,1,Destination,originAPP\LATE-TEN\001236
727,APP\LATE-TEN\000625,Late Temporary Event Notice,College Arms,"18 STORE STREET, LONDON, WC1E 7DH",LA2003,Application Approved,No,06/12/2013,,,,10/12/2013,2013-05-12,,,E05000129,Bloomsbury,529687.22,181815.23,-0.132202,51.520386,Nearest OS Open Map-Local Building,11/05/2017 07:37:32 PM,"(51.520386, -0.132202)",33635,http://opendatacommunities.org/id/london-borough-council/camden,1,Destination,originAPP\LATE-TEN\000625
772,APP\LATE-TEN\000515,Late Temporary Event Notice,Dog Eared Films,"25  28 SURETY HOUSE FIELD STREET, LONDON, WC1X 9DA",LA2003,Application Approved,No,01/11/2013,,,,05/11/2013,2013-10-31,,,E05000141,King's Cross,530536.13,182947.54,-0.119555,51.530366,Nearest OS Open Map-Local Building,11/05/2017 07:37:32 PM,"(51.530366, -0.119555)",33738,http://opendatacommunities.org/id/london-borough-council/camden,1,Destination,originAPP\LATE-TEN\000515
792,APP\LATE-TEN\000826,Late Temporary Event Notice,"caravan, Unit 2","1 GRANARY BUILDING GRANARY SQUARE, LONDON, N1C 4AA",LA2003,Application Approved,No,,,,,23/05/2014,2014-05-20,,,E05000143,St Pancras and Somers Town,530179.14,183608.02,-0.124454,51.536384000000005,Nearest OS Open Map-Local Building,11/05/2017 07:37:32 PM,"(51.536384, -0.124454)",33442,http://opendatacommunities.org/id/london-borough-council/camden,1,Destination,originAPP\LATE-TEN\000826
798,APP\LATE-TEN\001339,Late Temporary Event Notice,The Marathon,"87 CHALK FARM ROAD, LONDON, NW1 8AR",LA2003,Application Withdrawn,No,29/07/2015,,,,31/07/2015,2015-07-28,,Camden Town,E05000136,Haverstock,528257.51,184405.88,-0.151855,51.543994,Nearest OS Open Map-Local Building,11/05/2017 07:37:32 PM,"(51.543994, -0.151855)",32968,http://opendatacommunities.org/id/london-borough-council/camden,1,Destination,originAPP\LATE-TEN\001339
807,APP\LATE-TEN\002060,Late Temporary Event Notice,Gatehouse,"THE GATE HOUSE HIGHGATE WEST HILL, LONDON, N6 6DB",LA2003,Application Approved,No,21/02/2017,,,,24/02/2017,2017-02-21,,,E05000137,Highgate,528277.05,187460.59,-0.15045999999999998,51.571441,Nearest OS Open Map-Local Building,11/05/2017 07:37:31 PM,"(51.571441, -0.15046)",32289,http://opendatacommunities.org/id/london-borough-council/camden,1,Destination,originAPP\LATE-TEN\002060
811,APP\LATE-TEN\001882,Late Temporary Event Notice,Brecknock Convenience Store,"229 BRECKNOCK ROAD, LONDON, N19 5AA",LA2003,Application Approved,No,30/09/2016,,,,04/10/2016,2016-09-29,,,,,529197.69,185818.55,-0.137786,51.556475,Nearest OS Open Map-Local Building,11/05/2017 07:37:31 PM,"(51.556475, -0.137786)",32455,http://opendatacommunities.org/id/london-borough-council/camden,1,Destination,originAPP\LATE-TEN\001882
819,APP\LATE-TEN\000178,Late Temporary Event Notice,Cockpit Arts Holborn,"EAST BLOCK COCKPIT YARD, LONDON, WC1N 2NP",LA2003,Application Approved,No,22/11/2012,,,,26/11/2012,2012-11-21,,,E05000138,Holborn and Covent Garden,530809.44,181960.47,-0.11598299999999999,51.521433,Nearest OS Open Map-Local Building,11/05/2017 07:37:32 PM,"(51.521433, -0.115983)",34040,http://opendatacommunities.org/id/london-borough-council/camden,1,Destination,originAPP\LATE-TEN\000178
827,APP\LATE-TEN\000652,Late Temporary Event Notice,Bar Solo/Undersolo,"20  22 INVERNESS STREET, LONDON, NW1 7HJ",LA2003,Application Approved,No,,,,,18/12/2013,2013-12-13,16/12/2013,Camden Town,E05000130,Camden Town with Primrose Hill,528778.86,183979.04,-0.14449700000000001,51.540039,Nearest OS Open Map-Local Building,11/05/2017 07:37:32 PM,"(51.540039, -0.144497)",33610,http://opendatacommunities.org/id/london-borough-council/camden,1,Destination,originAPP\LATE-TEN\000652
841,APP\LATE-TEN\000604,Late Temporary Event Notice,Made in Brasil Boteco (formerly Coco Bamboo),"48 CHALK FARM ROAD, LONDON, NW1 8AJ",LA2003,Application Approved,No,03/12/2013,,,,06/12/2013,2013-03-12,,Camden Town,E05000136,Haverstock,528500.65,184316.98,-0.148383,51.54314,Nearest OS Open Map-Local Building,11/05/2017 07:37:32 PM,"(51.54314, -0.148383)",33653,http://opendatacommunities.org/id/london-borough-council/camden,1,Destination,originAPP\LATE-TEN\000604
870,APP\LATE-TEN\001747,Late Temporary Event Notice,Simmons,"7 CAMDEN HIGH STREET, LONDON, NW1 7JE",LA2003,Application Approved,No,17/05/2016,,,,20/05/2016,2016-05-17,,Camden Town,E05000142,Regent's Park,529129.52,183417.31,-0.139649,51.534911,Nearest OS Open Map-Local Building,11/05/2017 07:37:31 PM,"(51.534911, -0.139649)",32585,http://opendatacommunities.org/id/london-borough-council/camden,1,Destination,originAPP\LATE-TEN\001747
890,APP\LATE-TEN\000607,Late Temporary Event Notice,Spearmint Rhino,"161 TOTTENHAM COURT ROAD, LONDON, W1T 7NN",LA2003,Application Approved,No,03/12/2013,,,,04/12/2013,2013-11-29,,,E05000129,Bloomsbury,529383.14,182142.58,-0.136463,51.523398,Nearest OS Open Map-Local Building,11/05/2017 07:37:32 PM,"(51.523398, -0.136463)",33650,http://opendatacommunities.org/id/london-borough-council/camden,1,Destination,originAPP\LATE-TEN\000607
901,APP\LATE-TEN\000219,Late Temporary Event Notice,Birkbeck College (Malet St),"UNIVERSITY OF LONDON BIRKBECK COLLEGE MALET STREET, LONDON, WC1E 7HX",LA2003,Application Approved,No,07/12/2012,,,,10/12/2012,2012-05-12,,,E05000129,Bloomsbury,529789.01,182025.36,-0.130659,51.522251000000004,Nearest OS Open Map-Local Building,11/05/2017 07:37:32 PM,"(51.522251, -0.130659)",34003,http://opendatacommunities.org/id/london-borough-council/camden,1,Destination,originAPP\LATE-TEN\000219
903,APP\LATE-TEN\001318,Late Temporary Event Notice,Haverstock School,"24 HAVERSTOCK SCHOOL HAVERSTOCK HILL, LONDON, NW3 2BQ",LA2003,Application Approved,No,01/07/2015,,,,03/07/2015,2015-06-30,,Camden Town,E05000136,Haverstock,528121.72,184523.75,-0.15376900000000002,51.545084,Nearest OS Open Map-Local Building,11/05/2017 07:37:32 PM,"(51.545084, -0.153769)",32988,http://opendatacommunities.org/id/london-borough-council/camden,1,Destination,originAPP\LATE-TEN\001318
911,APP\LATE-TEN\000176,Late Temporary Event Notice,Aki Restaurant,"182 GRAY'S INN ROAD, LONDON, WC1X 8EW",LA2003,Application Approved,No,21/11/2012,,,,22/11/2012,2012-11-19,,,E05000138,Holborn and Covent Garden,530972.02,182143.64,-0.11357300000000001,51.523041,Nearest OS Open Map-Local Building,11/05/2017 07:37:32 PM,"(51.523041, -0.113573)",34042,http://opendatacommunities.org/id/london-borough-council/camden,1,Destination,originAPP\LATE-TEN\000176
927,APP\LATE-TEN\000570,Late Temporary Event Notice,Haverstock School,"24 HAVERSTOCK SCHOOL HAVERSTOCK HILL, LONDON, NW3 2BQ",LA2003,Application Approved,No,22/11/2013,,,,27/11/2013,2013-11-22,,Camden Town,E05000136,Haverstock,528121.72,184523.75,-0.15376900000000002,51.545084,Nearest OS Open Map-Local Building,11/05/2017 07:37:32 PM,"(51.545084, -0.153769)",33685,http://opendatacommunities.org/id/london-borough-council/camden,1,Destination,originAPP\LATE-TEN\000570
929,APP\LATE-TEN\001804,Late Temporary Event Notice,Screen on the Corner,"1 PLIMSOLL BUILDING HANDYSIDE STREET, LONDON, N1C 4BP",LA2003,Application Rejected - Incomplete Documentation,No,,,,,07/07/2016,2016-03-07,,,E05000143,St Pancras and Somers Town,529973.92,183724.36,-0.127369,51.537477,Nearest OS Open Map-Local Building,11/05/2017 07:37:31 PM,"(51.537477, -0.127369)",32530,http://opendatacommunities.org/id/london-borough-council/camden,1,Destination,originAPP\LATE-TEN\001804
946,APP\LATE-TEN\001218,Late Temporary Event Notice,Knowhere Special (Basement),"296 KENTISH TOWN ROAD, LONDON, NW5 2TG",LA2003,Application Approved,No,22/04/2015,,,,24/04/2015,2015-04-21,,,E05000139,Kentish Town,529038.33,185212.57,-0.140306,51.551065,Nearest OS Open Map-Local Building,11/05/2017 07:37:32 PM,"(51.551065, -0.140306)",33080,http://opendatacommunities.org/id/london-borough-council/camden,1,Destination,originAPP\LATE-TEN\001218
991,APP\LATE-TEN\000592,Late Temporary Event Notice,Sway (Club Room),"61  65 GREAT QUEEN STREET, LONDON, WC2B 5BZ",LA2003,Application Approved,No,29/11/2013,,,,29/11/2013,2013-11-26,,Seven Dials,E05000138,Holborn and Covent Garden,530517.17,181284.16,-0.12044400000000001,51.515423,Nearest OS Open Map-Local Building,11/05/2017 07:37:32 PM,"(51.515423, -0.120444)",33664,http://opendatacommunities.org/id/london-borough-council/camden,1,Destination,originAPP\LATE-TEN\000592
1006,APP\LATE-TEN\001206,Late Temporary Event Notice,Bar Vinyl,"6 INVERNESS STREET, LONDON, NW1 7HJ",LA2003,Application Approved,No,16/04/2015,,,,20/04/2015,2015-04-15,,Camden Town,E05000130,Camden Town with Primrose Hill,528778.86,183979.04,-0.14449700000000001,51.540039,Nearest OS Open Map-Local Building,11/05/2017 07:37:32 PM,"(51.540039, -0.144497)",33092,http://opendatacommunities.org/id/london-borough-council/camden,1,Destination,originAPP\LATE-TEN\001206
1054,APP\LATE-TEN\000476,Late Temporary Event Notice,Office at 8 Lincolns Inn Fields,"8 LINCOLN'S INN FIELDS, LONDON, WC2A 3BP",LA2003,Application Approved,No,03/10/2013,,,,07/10/2013,2013-02-10,,,E05000138,Holborn and Covent Garden,530738.26,181481.66,-0.11718599999999998,51.517146000000004,Nearest OS Open Map-Local Building,11/05/2017 07:37:32 PM,"(51.517146, -0.117186)",33770,http://opendatacommunities.org/id/london-borough-council/camden,1,Destination,originAPP\LATE-TEN\000476
1061,APP\LATE-TEN\000630,Late Temporary Event Notice,Camden Assembly,"49 CHALK FARM ROAD, LONDON, NW1 8AN",LA2003,Application Approved,No,06/12/2013,,,,11/12/2013,2013-06-12,,Camden Town,E05000130,Camden Town with Primrose Hill,528405.85,184285.95,-0.14976099999999998,51.542882,Nearest OS Open Map-Local Building,11/05/2017 07:37:32 PM,"(51.542882, -0.149761)",33630,http://opendatacommunities.org/id/london-borough-council/camden,1,Destination,originAPP\LATE-TEN\000630
1067,APP\LATE-TEN\001628,Late Temporary Event Notice,Lyttelton Arms,"1 CAMDEN HIGH STREET, LONDON, NW1 7JE",LA2003,Application Approved,No,11/02/2016,,,,16/02/2016,2016-11-02,,Camden Town,E05000142,Regent's Park,529129.52,183417.31,-0.139649,51.534911,Nearest OS Open Map-Local Building,11/05/2017 07:37:31 PM,"(51.534911, -0.139649)",32699,http://opendatacommunities.org/id/london-borough-council/camden,1,Destination,originAPP\LATE-TEN\001628
1074,APP\LATE-TEN\000155,Late Temporary Event Notice,Hospital Group,"24 ENDELL STREET, LONDON, WC2H 9AD",LA2003,Application Approved,No,05/11/2012,,,,05/11/2012,2012-10-31,,Seven Dials,E05000138,Holborn and Covent Garden,530261.72,181240.47,-0.12413900000000001,51.515089,Nearest OS Open Map-Local Building,11/05/2017 07:37:32 PM,"(51.515089, -0.124139)",34062,http://opendatacommunities.org/id/london-borough-council/camden,1,Destination,originAPP\LATE-TEN\000155
1124,APP\LATE-TEN\002107,Late Temporary Event Notice,Istanbul Meze Grill,"9 CAMDEN HIGH STREET, LONDON, NW1 7JE",LA2003,Application Approved,No,13/04/2017,,,,17/04/2017,2017-12-04,,Camden Town,E05000142,Regent's Park,529129.52,183417.31,-0.139649,51.534911,Nearest OS Open Map-Local Building,11/05/2017 07:37:31 PM,"(51.534911, -0.139649)",32244,http://opendatacommunities.org/id/london-borough-council/camden,1,Destination,originAPP\LATE-TEN\002107
1136,APP\LATE-TEN\001805,Late Temporary Event Notice,Middle Yard,"MIDDLE YARD CAMDEN LOCK PLACE, LONDON, NW1 8AF",LA2003,Application Approved,No,04/07/2016,,,,07/07/2016,2016-04-07,,Camden Town,E05000130,Camden Town with Primrose Hill,528630.79,184107.84,-0.146584,51.54123,Nearest OS Open Map-Local Building,11/05/2017 07:37:31 PM,"(51.54123, -0.146584)",32529,http://opendatacommunities.org/id/london-borough-council/camden,1,Destination,originAPP\LATE-TEN\001805
1152,APP\LATE-TEN\001649,Late Temporary Event Notice,GRANT MUSEUM OF ZOOLOGY,"21 ROCKEFELLER BUILDING UNIVERSITY STREET, LONDON, WC1E 6DE",LA2003,Application Approved,No,08/03/2016,,,,11/03/2016,2016-08-03,,,E05000129,Bloomsbury,529472.5,182220.56,-0.135147,51.524078,Nearest OS Open Map-Local Building,11/05/2017 07:37:31 PM,"(51.524078, -0.135147)",32678,http://opendatacommunities.org/id/london-borough-council/camden,1,Destination,originAPP\LATE-TEN\001649
1157,APP\LATE-TEN\000050,Late Temporary Event Notice,St Peters Italian Church,"136 ST PETERS ITALIAN CHURCH CLERKENWELL ROAD, LONDON, EC1R 5DL",LA2003,Application Approved,No,09/07/2012,,,,11/07/2012,2012-06-07,,,E05000138,Holborn and Covent Garden,531287.4,182086.91,-0.109051,51.522458,Nearest OS Open Map-Local Building,11/05/2017 07:37:32 PM,"(51.522458, -0.109051)",34165,http://opendatacommunities.org/id/london-borough-council/camden,1,Destination,originAPP\LATE-TEN\000050
1158,APP\LATE-TEN\000351,Late Temporary Event Notice,Made In Brasil,"12 INVERNESS STREET, LONDON, NW1 7HJ",LA2003,Application Rejected,No,30/04/2013,,,,02/05/2013,2013-04-29,,Camden Town,E05000130,Camden Town with Primrose Hill,528778.86,183979.04,-0.14449700000000001,51.540039,Nearest OS Open Map-Local Building,11/05/2017 07:37:32 PM,"(51.540039, -0.144497)",33874,http://opendatacommunities.org/id/london-borough-council/camden,1,Destination,originAPP\LATE-TEN\000351
1159,APP\LATE-TEN\001186,Late Temporary Event Notice,Torriano,"71  73 TORRIANO AVENUE, LONDON, NW5 2SG",LA2003,Application Approved,No,23/03/2015,,,,26/03/2015,2015-03-21,,,E05000139,Kentish Town,529548.11,185131.6,-0.132987,51.550221,Nearest OS Open Map-Local Building,11/05/2017 07:37:32 PM,"(51.550221, -0.132987)",33111,http://opendatacommunities.org/id/london-borough-council/camden,1,Destination,originAPP\LATE-TEN\001186
1180,APP\LATE-TEN\002014,Late Temporary Event Notice,Simply Fish,"4 INVERNESS STREET, LONDON, NW1 7HJ",LA2003,Application Approved,No,15/12/2016,,,,20/12/2016,2016-12-15,,Camden Town,E05000130,Camden Town with Primrose Hill,528778.86,183979.04,-0.14449700000000001,51.540039,Nearest OS Open Map-Local Building,11/05/2017 07:37:31 PM,"(51.540039, -0.144497)",32332,http://opendatacommunities.org/id/london-borough-council/camden,1,Destination,originAPP\LATE-TEN\002014
1188,APP\LATE-TEN\000277,Late Temporary Event Notice,Joe's Southern Table & Bar,"298 302 KENTISH TOWN ROAD, LONDON, NW5 2TG",LA2003,Application Approved,No,01/02/2013,,,,30/01/2013,2013-01-25,,,E05000139,Kentish Town,529038.33,185212.57,-0.140306,51.551065,Nearest OS Open Map-Local Building,11/05/2017 07:37:32 PM,"(51.551065, -0.140306)",33943,http://opendatacommunities.org/id/london-borough-council/camden,1,Destination,originAPP\LATE-TEN\000277
1206,APP\LATE-TEN\001821,Late Temporary Event Notice,Simply Fish,"4 INVERNESS STREET, LONDON, NW1 7HJ",LA2003,Application Approved,No,29/07/2016,,,,03/08/2016,2016-07-29,,Camden Town,E05000130,Camden Town with Primrose Hill,528778.86,183979.04,-0.14449700000000001,51.540039,Nearest OS Open Map-Local Building,11/05/2017 07:37:31 PM,"(51.540039, -0.144497)",32514,http://opendatacommunities.org/id/london-borough-council/camden,1,Destination,originAPP\LATE-TEN\001821
1237,APP\LATE-TEN\000109,Late Temporary Event Notice,Liberty Kebabish Restaurant,"56 CHETWYND ROAD, LONDON, NW5 1DJ",LA2003,Application Approved,No,11/09/2012,,,,12/09/2012,2012-07-09,,,E05000137,Highgate,528765.68,185937.09,-0.14397100000000002,51.557639,Nearest OS Open Map-Local Building,11/05/2017 07:37:32 PM,"(51.557639, -0.143971)",34105,http://opendatacommunities.org/id/london-borough-council/camden,1,Destination,originAPP\LATE-TEN\000109
1279,APP\LATE-TEN\000361,Late Temporary Event Notice,Keats House,"10 KEATS GROVE, LONDON, NW3 2RR",LA2003,Application Approved,No,15/05/2013,,,,20/05/2013,2013-05-15,,,E05000135,Hampstead Town,527107.65,185665.4,-0.167973,51.555572999999995,Nearest OS Open Map-Local Building,11/05/2017 07:37:32 PM,"(51.555573, -0.167973)",33866,http://opendatacommunities.org/id/london-borough-council/camden,1,Destination,originAPP\LATE-TEN\000361
1312,APP\LATE-TEN\000788,Late Temporary Event Notice,Hampstead Theatre,"51 HENLEY LODGE ETON AVENUE, LONDON, NW3 3EP",LA2003,Application Approved,No,01/05/2014,,,,30/04/2014,2014-04-25,,,E05000128,Belsize,527031.08,184429.38,-0.169523,51.544482,Nearest OS Open Map-Local Building,11/05/2017 07:37:32 PM,"(51.544482, -0.169523)",33480,http://opendatacommunities.org/id/london-borough-council/camden,1,Destination,originAPP\LATE-TEN\000788
1331,APP\LATE-TEN\001513,Late Temporary Event Notice,Emmanuel Church of England School,"152 158 EMMANUEL CE PRIMARY SCHOOL MILL LANE, LONDON, NW6 1TF",LA2003,Application Rejected,No,,,,,04/12/2015,2015-01-12,01/12/2015,,E05000145,West Hampstead,525270.35,185209.55,-0.194622,51.551887,Nearest OS Open Map-Local Building,11/05/2017 07:37:31 PM,"(51.551887, -0.194622)",32806,http://opendatacommunities.org/id/london-borough-council/camden,1,Destination,originAPP\LATE-TEN\001513
1361,APP\LATE-TEN\000545,Late Temporary Event Notice,Tropicana Beach Club,"166 NEW LONDON THEATRE DRURY LANE, LONDON, WC2B 5PF",LA2003,Application Approved,No,18/11/2013,,,,21/11/2013,2013-11-18,,Seven Dials,E05000138,Holborn and Covent Garden,530390.33,181320.63,-0.12225699999999999,51.51578,Nearest OS Open Map-Local Building,11/05/2017 07:37:32 PM,"(51.51578, -0.122257)",33710,http://opendatacommunities.org/id/london-borough-council/camden,1,Destination,originAPP\LATE-TEN\000545
1393,APP\LATE-TEN\001638,Late Temporary Event Notice,113 Restaurant & Bar,"111 113 HAMPSTEAD ROAD, LONDON, NW1 3EE",LA2003,Application Withdrawn,No,29/02/2016,,,,01/03/2016,2016-02-25,,,E05000142,Regent's Park,529184.17,182645.2,-0.139145,51.52796,Nearest OS Open Map-Local Building,11/05/2017 07:37:31 PM,"(51.52796, -0.139145)",32689,http://opendatacommunities.org/id/london-borough-council/camden,1,Destination,originAPP\LATE-TEN\001638
1401,APP\LATE-TEN\001842,Late Temporary Event Notice,BrewDog,"113 BAYHAM STREET, LONDON, NW1 0AG",LA2003,Application Approved,No,22/08/2016,,,,24/08/2016,2016-08-19,,Camden Town,E05000130,Camden Town with Primrose Hill,529010.42,183823.44,-0.141217,51.538588,Nearest OS Open Map-Local Building,11/05/2017 07:37:31 PM,"(51.538588, -0.141217)",32493,http://opendatacommunities.org/id/london-borough-council/camden,1,Destination,originAPP\LATE-TEN\001842
1406,APP\LATE-TEN\001446,Late Temporary Event Notice,Waterstones,"82 GOWER STREET, LONDON, WC1E 6EG",LA2003,Application Approved,No,06/11/2015,,,,11/11/2015,2015-06-11,,,E05000129,Bloomsbury,529691.62,182048.6,-0.132053,51.522482000000004,Nearest OS Open Map-Local Building,11/05/2017 07:37:31 PM,"(51.522482, -0.132053)",32869,http://opendatacommunities.org/id/london-borough-council/camden,1,Destination,originAPP\LATE-TEN\001446
1483,APP\LATE-TEN\000697,Late Temporary Event Notice,Bloc Bar (Formerly Record Club/The Stillery,"18 KENTISH TOWN ROAD, LONDON, NW1 9NX",LA2003,Application Rejected - Incomplete Documentation,No,,,,,24/01/2014,2014-01-21,,Camden Town,E05000130,Camden Town with Primrose Hill,528951.8,183997.31,-0.141998,51.540164000000004,Nearest OS Open Map-Local Building,11/05/2017 07:37:32 PM,"(51.540164, -0.141998)",33566,http://opendatacommunities.org/id/london-borough-council/camden,1,Destination,originAPP\LATE-TEN\000697
1485,APP\LATE-TEN\000669,Late Temporary Event Notice,Cafe Metro,"178 182 CAMDEN HIGH STREET, LONDON, NW1 8QP",LA2003,Application Rejected,No,23/12/2013,,,,26/12/2013,2013-12-23,,Camden Town,E05000130,Camden Town with Primrose Hill,528899.47,183943.05,-0.142772,51.539688,Nearest OS Open Map-Local Building,11/05/2017 07:37:32 PM,"(51.539688, -0.142772)",33593,http://opendatacommunities.org/id/london-borough-council/camden,1,Destination,originAPP\LATE-TEN\000669
1505,APP\LATE-TEN\000043,Late Temporary Event Notice,New Market Inn,"17 YORK WAY, LONDON, N7 9QG",LA2003,Application Approved,No,02/07/2012,,,,05/07/2012,2012-01-07,,,E05000131,Cantelowes,530004.99,184347.96,-0.126691,51.543074,Nearest OS Open Map-Local Building,11/05/2017 07:37:32 PM,"(51.543074, -0.126691)",34172,http://opendatacommunities.org/id/london-borough-council/camden,1,Origin,originAPP\LATE-TEN\000043
1526,APP\LATE-TEN\001875,Late Temporary Event Notice,St Michaels School,"88 ST MICHAELS PRIMARY SCHOOL CAMDEN STREET, LONDON, NW1 0JA",LA2003,Application Approved,No,26/09/2016,,,,28/09/2016,2016-09-23,,,E05000130,Camden Town with Primrose Hill,529203.78,183885.91,-0.138408,51.539105,Nearest OS Open Map-Local Building,11/05/2017 07:37:31 PM,"(51.539105, -0.138408)",32461,http://opendatacommunities.org/id/london-borough-council/camden,1,Destination,originAPP\LATE-TEN\001875
1552,APP\LATE-TEN\001077,Late Temporary Event Notice,Duke Of Hamilton,"23  25 NEW END, LONDON, NW3 1JD",LA2003,Application Rejected,No,,,,,12/12/2014,2014-09-12,10/12/2014,,E05000135,Hampstead Town,526441.14,186015.62,-0.177456,51.55887,Nearest OS Open Map-Local Building,11/05/2017 07:37:32 PM,"(51.55887, -0.177456)",33211,http://opendatacommunities.org/id/london-borough-council/camden,1,Destination,originAPP\LATE-TEN\001077
1564,APP\LATE-TEN\000777,Late Temporary Event Notice,Regents Place Plaza,"2   3 TRITON SQUARE, LONDON, NW1 3AN",LA2003,Application Approved,No,24/04/2014,,,,28/04/2014,2014-04-23,,,E05000142,Regent's Park,529140.93,182322.57,-0.13988599999999998,51.52507,Nearest OS Open Map-Local Building,11/05/2017 07:37:32 PM,"(51.52507, -0.139886)",33490,http://opendatacommunities.org/id/london-borough-council/camden,1,Destination,originAPP\LATE-TEN\000777
1626,APP\LATE-TEN\001433,Late Temporary Event Notice,B&M Seafood,"258 KENTISH TOWN ROAD, LONDON, NW5 2AA",LA2003,Application Approved,No,29/10/2015,,,,02/11/2015,2015-10-28,,,E05000139,Kentish Town,529028.15,185105.34,-0.140492,51.550104,Nearest OS Open Map-Local Building,11/05/2017 07:37:32 PM,"(51.550104, -0.140492)",32882,http://opendatacommunities.org/id/london-borough-council/camden,1,Destination,originAPP\LATE-TEN\001433
1634,APP\LATE-TEN\000740,Late Temporary Event Notice,Camden Collective,"159 161 CAMDEN HIGH STREET, LONDON, NW1 7JY",LA2003,Application Approved,No,12/03/2014,,,,14/03/2014,2014-11-03,,Camden Town,E05000130,Camden Town with Primrose Hill,528919.45,183783.2,-0.142543,51.538247,Nearest OS Open Map-Local Building,11/05/2017 07:37:32 PM,"(51.538247, -0.142543)",33524,http://opendatacommunities.org/id/london-borough-council/camden,1,Destination,originAPP\LATE-TEN\000740
1636,APP\LATE-TEN\001596,Late Temporary Event Notice,Fifty Five Bar and Lounge,"31 JAMESTOWN ROAD, LONDON, NW1 7DB",LA2003,Application Approved,No,21/01/2016,,,,22/01/2016,2016-01-19,,Camden Town,E05000130,Camden Town with Primrose Hill,528675.16,183977.2,-0.145992,51.540046000000004,Nearest OS Open Map-Local Building,11/05/2017 07:37:31 PM,"(51.540046, -0.145992)",32728,http://opendatacommunities.org/id/london-borough-council/camden,1,Destination,originAPP\LATE-TEN\001596
1639,APP\LATE-TEN\000310,Late Temporary Event Notice,Temptation Coffee Bar,"7 MURRAY STREET, LONDON, NW1 9RE",LA2003,Application Approved,No,05/03/2013,,,,07/03/2013,2013-04-03,,,E05000131,Cantelowes,529598.47,184363.41,-0.132544,51.543306,Nearest OS Open Map-Local Building,11/05/2017 07:37:32 PM,"(51.543306, -0.132544)",33913,http://opendatacommunities.org/id/london-borough-council/camden,1,Destination,originAPP\LATE-TEN\000310
1710,APP\LATE-TEN\000359,Late Temporary Event Notice,Rising Sun,"46 TOTTENHAM COURT ROAD, LONDON, W1T 2ED",LA2003,Application Rejected,No,,,,,17/05/2013,2013-05-14,14/05/2013,,E05000129,Bloomsbury,529579.24,181715.35,-0.133795,51.519513,Nearest OS Open Map-Local Building,11/05/2017 07:37:32 PM,"(51.519513, -0.133795)",33867,http://opendatacommunities.org/id/london-borough-council/camden,1,Destination,originAPP\LATE-TEN\000359
1740,APP\LATE-TEN\001104,Late Temporary Event Notice,Carpenters Arms,"6870 CARPENTERS ARMS WHITFIELD STREET, LONDON, W1T 4EY",LA2003,Application Approved,No,07/01/2015,,,,12/01/2015,2015-07-01,,,E05000129,Bloomsbury,529415.12,181954.86,-0.136071,51.521703,Nearest OS Open Map-Local Building,11/05/2017 07:37:32 PM,"(51.521703, -0.136071)",33189,http://opendatacommunities.org/id/london-borough-council/camden,1,Destination,originAPP\LATE-TEN\001104
1768,APP\LATE-TEN\001429,Late Temporary Event Notice,Round Falafel,"1A BELMONT STREET, LONDON, NW1 8HJ",LA2003,Application Approved,No,27/10/2015,,,,29/10/2015,2015-10-26,,Camden Town,E05000136,Haverstock,528257.51,184405.88,-0.151855,51.543994,Nearest OS Open Map-Local Building,11/05/2017 07:37:32 PM,"(51.543994, -0.151855)",32886,http://opendatacommunities.org/id/london-borough-council/camden,1,Destination,originAPP\LATE-TEN\001429
1791,APP\LATE-TEN\001839,Late Temporary Event Notice,St Pancras International,"ST PANCRAS INTERNATIONAL STATION EUSTON ROAD, LONDON, N1C 4QL",LA2003,Application Approved,No,18/08/2016,,,,23/08/2016,2016-08-18,,,E05000143,St Pancras and Somers Town,530045.03,183091.73,-0.126577,51.531775,Nearest OS Open Map-Local Building,11/05/2017 07:37:31 PM,"(51.531775, -0.126577)",32496,http://opendatacommunities.org/id/london-borough-council/camden,1,Destination,originAPP\LATE-TEN\001839
1806,APP\LATE-TEN\000279,Late Temporary Event Notice,40 Store Street,"40 STORE STREET, LONDON, WC1E 7DB",LA2003,Application Approved,No,04/02/2013,,,,05/02/2013,2013-01-31,,,E05000129,Bloomsbury,529854.65,181787.75,-0.129801,51.520101000000004,Nearest OS Open Map-Local Building,11/05/2017 07:37:32 PM,"(51.520101, -0.129801)",33941,http://opendatacommunities.org/id/london-borough-council/camden,1,Destination,originAPP\LATE-TEN\000279
1811,APP\LATE-TEN\000245,Late Temporary Event Notice,The Constitution,"42  44 ST PANCRAS WAY, LONDON, NW1 0QT",LA2003,Application Approved,No,18/12/2012,,,,21/12/2012,2012-12-18,,,E05000143,St Pancras and Somers Town,529408.84,184025.5,-0.135401,51.540313,Nearest OS Open Map-Local Building,11/05/2017 07:37:32 PM,"(51.540313, -0.135401)",33977,http://opendatacommunities.org/id/london-borough-council/camden,1,Destination,originAPP\LATE-TEN\000245
1845,APP\LATE-TEN\002055,Late Temporary Event Notice,O2 Centre,"255 THE O2 CENTRE FINCHLEY ROAD, LONDON, NW3 6LU",LA2003,Application Approved,No,16/02/2017,,,,21/02/2017,2017-02-16,,,E05000145,West Hampstead,526204.1,184766.66,-0.181321,51.547698,Nearest OS Open Map-Local Building,11/05/2017 07:37:31 PM,"(51.547698, -0.181321)",32294,http://opendatacommunities.org/id/london-borough-council/camden,1,Destination,originAPP\LATE-TEN\002055
1848,APP\LATE-TEN\002088,Late Temporary Event Notice,Flask Tavern,"77 HIGHGATE WEST HILL, LONDON, N6 6BU",LA2003,Application Approved,No,29/03/2017,,,,03/04/2017,2017-03-29,,,E05000137,Highgate,528242.16,187280.74,-0.151029,51.569833,Nearest OS Open Map-Local Building,11/05/2017 07:37:31 PM,"(51.569833, -0.151029)",32264,http://opendatacommunities.org/id/london-borough-council/camden,1,Destination,originAPP\LATE-TEN\002088
1849,APP\LATE-TEN\000037,Late Temporary Event Notice,The Crowndale,"61  65 CROWNDALE ROAD, LONDON, NW1 1TN",LA2003,Application Approved,No,21/06/2012,,,,25/06/2012,2012-06-20,,Camden Town,E05000142,Regent's Park,529270.44,183351.25,-0.13764300000000002,51.534285,Nearest OS Open Map-Local Building,11/05/2017 07:37:32 PM,"(51.534285, -0.137643)",34178,http://opendatacommunities.org/id/london-borough-council/camden,1,Destination,originAPP\LATE-TEN\000037
1857,APP\LATE-TEN\001604,Late Temporary Event Notice,Tertiary Education Services Ltd,"19 BEDFORD SQUARE, LONDON, WC1B 3HH",LA2003,Application Rejected,No,,,,,03/02/2016,2016-01-29,29/01/2016,,E05000129,Bloomsbury,529753.68,181714.66,-0.13128199999999998,51.519467,Nearest OS Open Map-Local Building,11/05/2017 07:37:31 PM,"(51.519467, -0.131282)",32720,http://opendatacommunities.org/id/london-borough-council/camden,1,Destination,originAPP\LATE-TEN\001604
1858,APP\LATE-TEN\002093,Late Temporary Event Notice,Cecil Sharp House,"2 CECIL SHARP HOUSE REGENT'S PARK ROAD, LONDON, NW1 7AY",LA2003,Application Approved,No,03/04/2017,,,,06/04/2017,2017-03-04,,,E05000130,Camden Town with Primrose Hill,528447.51,183761.16,-0.149351,51.538157,Nearest OS Open Map-Local Building,11/05/2017 07:37:31 PM,"(51.538157, -0.149351)",32259,http://opendatacommunities.org/id/london-borough-council/camden,1,Destination,originAPP\LATE-TEN\002093
1951,APP\LATE-TEN\000808,Late Temporary Event Notice,Sway,"61  65 GREAT QUEEN STREET, LONDON, WC2B 5BZ",LA2003,Application Approved,No,15/05/2014,,,,19/05/2014,2014-05-14,,Seven Dials,E05000138,Holborn and Covent Garden,530517.17,181284.16,-0.12044400000000001,51.515423,Nearest OS Open Map-Local Building,11/05/2017 07:37:32 PM,"(51.515423, -0.120444)",33460,http://opendatacommunities.org/id/london-borough-council/camden,1,Destination,originAPP\LATE-TEN\000808
1965,APP\LATE-TEN\001867,Late Temporary Event Notice,Brecknock Convenience Store,"229 BRECKNOCK ROAD, LONDON, N19 5AA",LA2003,Application Approved,No,21/09/2016,,,,23/09/2016,2016-09-20,,,,,529197.69,185818.55,-0.137786,51.556475,Nearest OS Open Map-Local Building,11/05/2017 07:37:31 PM,"(51.556475, -0.137786)",32468,http://opendatacommunities.org/id/london-borough-council/camden,1,Destination,originAPP\LATE-TEN\001867
1974,APP\LATE-TEN\002056,Late Temporary Event Notice,White Horse,"154 156 FLEET ROAD, LONDON, NW3 2QX",LA2003,Application Approved,No,16/02/2017,,,,21/02/2017,2017-02-16,,,E05000134,Gospel Oak,527311.32,185537.58,-0.16508299999999998,51.554378,Nearest OS Open Map-Local Building,11/05/2017 07:37:31 PM,"(51.554378, -0.165083)",32293,http://opendatacommunities.org/id/london-borough-council/camden,1,Destination,originAPP\LATE-TEN\002056
1986,APP\LATE-TEN\001198,Late Temporary Event Notice,Bounce,"121 HOLBORN, LONDON, EC1N 2TD",LA2003,Application Approved,No,07/04/2015,,,,09/04/2015,2015-05-04,,,E05000138,Holborn and Covent Garden,531335.61,181650.94,-0.108519,51.518529,Nearest OS Open Map-Local Building,11/05/2017 07:37:32 PM,"(51.518529, -0.108519)",33099,http://opendatacommunities.org/id/london-borough-council/camden,1,Destination,originAPP\LATE-TEN\001198
1988,APP\LATE-TEN\001715,Late Temporary Event Notice,Bloc Bar (Formerly Record Club/The Stillery,"18 KENTISH TOWN ROAD, LONDON, NW1 9NX",LA2003,Application Approved,No,20/04/2016,,,,25/04/2016,2016-04-20,,Camden Town,E05000130,Camden Town with Primrose Hill,528951.8,183997.31,-0.141998,51.540164000000004,Nearest OS Open Map-Local Building,11/05/2017 07:37:31 PM,"(51.540164, -0.141998)",32614,http://opendatacommunities.org/id/london-borough-council/camden,1,Destination,originAPP\LATE-TEN\001715
2023,APP\LATE-TEN\000939,Late Temporary Event Notice,Thomas Neal Centre,"35 THOMAS NEAL CENTRE EARLHAM STREET, LONDON, WC2H 9LD",LA2003,Application Rejected,No,,,,,18/09/2014,2014-09-15,16/09/2014,Seven Dials,E05000138,Holborn and Covent Garden,530134.56,181122.31,-0.12601400000000001,51.514056,Nearest OS Open Map-Local Building,11/05/2017 07:37:32 PM,"(51.514056, -0.126014)",33345,http://opendatacommunities.org/id/london-borough-council/camden,1,Destination,originAPP\LATE-TEN\000939
2035,APP\LATE-TEN\000199,Late Temporary Event Notice,Carpenters Arms,"6870 CARPENTERS ARMS WHITFIELD STREET, LONDON, W1T 4EY",LA2003,Application Approved,No,29/11/2012,,,,28/11/2012,2012-11-23,,,E05000129,Bloomsbury,529415.12,181954.86,-0.136071,51.521703,Nearest OS Open Map-Local Building,11/05/2017 07:37:32 PM,"(51.521703, -0.136071)",34020,http://opendatacommunities.org/id/london-borough-council/camden,1,Destination,originAPP\LATE-TEN\000199
2036,APP\LATE-TEN\001752,Late Temporary Event Notice,Made in Brasil Boteco (formerly Coco Bamboo),"48 CHALK FARM ROAD, LONDON, NW1 8AJ",LA2003,Application Approved,No,19/05/2016,,,,23/05/2016,2016-05-18,,Camden Town,E05000136,Haverstock,528500.65,184316.98,-0.148383,51.54314,Nearest OS Open Map-Local Building,11/05/2017 07:37:31 PM,"(51.54314, -0.148383)",32580,http://opendatacommunities.org/id/london-borough-council/camden,1,Destination,originAPP\LATE-TEN\001752
2038,APP\LATE-TEN\000183,Late Temporary Event Notice,Garufin,"25  27 THEOBALD'S ROAD, LONDON, WC1X 8SP",LA2003,Application Approved,No,23/11/2012,,,,27/11/2012,2012-11-22,,,E05000138,Holborn and Covent Garden,530692.5,181775.04,-0.117736,51.519793,Nearest OS Open Map-Local Building,11/05/2017 07:37:32 PM,"(51.519793, -0.117736)",34035,http://opendatacommunities.org/id/london-borough-council/camden,1,Destination,originAPP\LATE-TEN\000183
2076,APP\LATE-TEN\000731,Late Temporary Event Notice,Grafton Arms,"20 PRINCE OF WALES ROAD, LONDON, NW5 3LG",LA2003,Application Approved,No,05/03/2014,,,,06/03/2014,2014-03-03,,,E05000139,Kentish Town,528728.59,184759.16,-0.14493599999999998,51.547061,Nearest OS Open Map-Local Building,11/05/2017 07:37:32 PM,"(51.547061, -0.144936)",33532,http://opendatacommunities.org/id/london-borough-council/camden,1,Destination,originAPP\LATE-TEN\000731
2084,APP\LATE-TEN\001627,Late Temporary Event Notice,Andrews Restaurant,"160 GRAY'S INN ROAD, LONDON, WC1X 8ED",LA2003,Application Approved,No,11/02/2016,,,,16/02/2016,2016-11-02,,,E05000138,Holborn and Covent Garden,530989.95,182059.78,-0.113346,51.522283,Nearest OS Open Map-Local Building,11/05/2017 07:37:31 PM,"(51.522283, -0.113346)",32700,http://opendatacommunities.org/id/london-borough-council/camden,1,Destination,originAPP\LATE-TEN\001627
2088,APP\LATE-TEN\001936,Late Temporary Event Notice,Kings Cross Centre,"211 WESTMINSTER KINGSWAY COLLEGE KINGS CROSS CENTRE GRAY'S INN ROAD, LONDON, WC1X 8RA",LA2003,Application Approved,No,11/11/2016,,,,10/11/2016,2016-07-11,,,E05000141,King's Cross,530582.87,182546.76,-0.11903,51.526754,Nearest OS Open Map-Local Building,11/05/2017 07:37:31 PM,"(51.526754, -0.11903)",32406,http://opendatacommunities.org/id/london-borough-council/camden,1,Destination,originAPP\LATE-TEN\001936
2115,APP\LATE-TEN\001734,Late Temporary Event Notice,GRANT MUSEUM OF ZOOLOGY,"21 ROCKEFELLER BUILDING UNIVERSITY STREET, LONDON, WC1E 6DE",LA2003,Application Approved,No,05/05/2016,,,,10/05/2016,2016-05-05,,,E05000129,Bloomsbury,529472.5,182220.56,-0.135147,51.524078,Nearest OS Open Map-Local Building,11/05/2017 07:37:31 PM,"(51.524078, -0.135147)",32596,http://opendatacommunities.org/id/london-borough-council/camden,1,Destination,originAPP\LATE-TEN\001734
2138,APP\LATE-TEN\001353,Late Temporary Event Notice,Simmons,"7 CAMDEN HIGH STREET, LONDON, NW1 7JE",LA2003,Application Rejected,No,,,,,27/08/2015,2015-08-23,,Camden Town,E05000142,Regent's Park,529129.52,183417.31,-0.139649,51.534911,Nearest OS Open Map-Local Building,11/05/2017 07:37:32 PM,"(51.534911, -0.139649)",32954,http://opendatacommunities.org/id/london-borough-council/camden,1,Destination,originAPP\LATE-TEN\001353
2148,APP\LATE-TEN\001390,Late Temporary Event Notice,Hampstead Cricket Club,"HAMPSTEAD CRICKET CLUB LYMINGTON ROAD, LONDON, NW6 1HZ",LA2003,Application Rejected,No,,,,,30/09/2015,2015-09-25,28/09/2015,,E05000145,West Hampstead,525813.93,184962.22,-0.186875,51.549543,Nearest OS Open Map-Local Building,11/05/2017 07:37:32 PM,"(51.549543, -0.186875)",32923,http://opendatacommunities.org/id/london-borough-council/camden,1,Destination,originAPP\LATE-TEN\001390
2159,APP\LATE-TEN\002097,Late Temporary Event Notice,Stag,"67 FLEET ROAD, LONDON, NW3 2QU",LA2003,Application Approved,No,04/04/2017,,,,07/04/2017,2017-04-04,,,E05000134,Gospel Oak,527549.85,185427.77,-0.161684,51.553337,Nearest OS Open Map-Local Building,11/05/2017 07:37:31 PM,"(51.553337, -0.161684)",32255,http://opendatacommunities.org/id/london-borough-council/camden,1,Destination,originAPP\LATE-TEN\002097
2165,APP\LATE-TEN\000450,Late Temporary Event Notice,The Marathon,"87 CHALK FARM ROAD, LONDON, NW1 8AR",LA2003,Application Rejected,No,,,,,26/08/2013,2013-08-21,,Camden Town,E05000136,Haverstock,528257.51,184405.88,-0.151855,51.543994,Nearest OS Open Map-Local Building,11/05/2017 07:37:32 PM,"(51.543994, -0.151855)",33793,http://opendatacommunities.org/id/london-borough-council/camden,1,Destination,originAPP\LATE-TEN\000450
2190,APP\LATE-TEN\000772,Late Temporary Event Notice,New End Primary School,"NEW END PRIMARY SCHOOL STREATLEY PLACE, LONDON, NW3 1HU",LA2003,Application Approved,No,16/04/2014,,,,18/04/2014,2014-04-15,,,E05000135,Hampstead Town,526483.49,185912.76,-0.17688199999999998,51.557936,Nearest OS Open Map-Local Building,11/05/2017 07:37:32 PM,"(51.557936, -0.176882)",33494,http://opendatacommunities.org/id/london-borough-council/camden,1,Destination,originAPP\LATE-TEN\000772
2241,APP\LATE-TEN\001533,Late Temporary Event Notice,Odeon Cinema,"96 FINCHLEY ROAD, LONDON, NW3 5EL",LA2003,Application Approved,No,08/12/2015,,,,10/12/2015,2015-07-12,,,E05000144,Swiss Cottage,526683.56,184215.33,-0.17460799999999999,51.542636,Nearest OS Open Map-Local Building,11/05/2017 07:37:31 PM,"(51.542636, -0.174608)",32787,http://opendatacommunities.org/id/london-borough-council/camden,1,Destination,originAPP\LATE-TEN\001533
2245,APP\LATE-TEN\000997,Late Temporary Event Notice,Eleanor Primary School,"ELEANOR PALMER PRIMARY SCHOOL LUPTON STREET, LONDON, NW5 2JA",LA2003,Application Approved,No,05/11/2014,,,,07/11/2014,2014-04-11,,,E05000139,Kentish Town,529119.07,185634.55,-0.138987,51.554839,Nearest OS Open Map-Local Building,11/05/2017 07:37:32 PM,"(51.554839, -0.138987)",33290,http://opendatacommunities.org/id/london-borough-council/camden,1,Destination,originAPP\LATE-TEN\000997
2252,APP\LATE-TEN\000671,Late Temporary Event Notice,Elementree,"108 110 CRICKLEWOOD BROADWAY, LONDON, NW2 3EJ",LA2003,Application Approved,No,23/12/2013,,,,26/12/2013,2013-12-22,,,E05000132,Fortune Green,524010.52,185574.37,-0.212655,51.555443,Nearest OS Open Map-Local Building,11/05/2017 07:37:32 PM,"(51.555443, -0.212655)",33591,http://opendatacommunities.org/id/london-borough-council/camden,1,Destination,originAPP\LATE-TEN\000671
2271,APP\LATE-TEN\000455,Late Temporary Event Notice,Whitfield Street Football Pitch,"WHITFIELD GARDENS WHITFIELD STREET,",LA2003,Application Approved,No,28/08/2013,,,,30/08/2013,2013-08-27,,,E05000129,Bloomsbury,529492.26,181873.36,-0.13499,51.520953000000006,Nearest OS Open Map-Local Building,11/05/2017 07:37:32 PM,"(51.520953, -0.13499)",33788,http://opendatacommunities.org/id/london-borough-council/camden,1,Destination,originAPP\LATE-TEN\000455
2291,APP\LATE-TEN\001380,Late Temporary Event Notice,Deliveroo,"22 THE HEALS BUILDING TORRINGTON PLACE, LONDON, WC1E 7HJ",LA2003,Application Approved,No,23/09/2015,,,,21/09/2015,2015-09-16,,,E05000129,Bloomsbury,529563.14,181905.54,-0.133957,51.521226,Nearest OS Open Map-Local Building,11/05/2017 07:37:32 PM,"(51.521226, -0.133957)",32932,http://opendatacommunities.org/id/london-borough-council/camden,1,Destination,originAPP\LATE-TEN\001380
2301,APP\LATE-TEN\002009,Late Temporary Event Notice,All Bar One,"108 NEW OXFORD STREET, LONDON, WC1A 1HB",LA2003,Application Approved,No,14/12/2016,,,,19/12/2016,2016-12-14,,,E05000129,Bloomsbury,529948.7,181428.38,-0.128578,51.51685,Nearest OS Open Map-Local Building,11/05/2017 07:37:31 PM,"(51.51685, -0.128578)",32337,http://opendatacommunities.org/id/london-borough-council/camden,1,Destination,originAPP\LATE-TEN\002009
2317,APP\LATE-TEN\000390,Late Temporary Event Notice,Edinboro Castle,"57 MORNINGTON TERRACE, LONDON, NW1 7RU",LA2003,Application Approved,No,07/06/2013,,,,11/06/2013,2013-06-06,,Camden Town,E05000142,Regent's Park,528759.31,183538.72,-0.14494,51.536087,Nearest OS Open Map-Local Building,11/05/2017 07:37:32 PM,"(51.536087, -0.14494)",33842,http://opendatacommunities.org/id/london-borough-council/camden,1,Destination,originAPP\LATE-TEN\000390
2332,APP\LATE-TEN\000395,Late Temporary Event Notice,FitzJohn's Primary School,"86A FITZJOHN'S PRIMARY SCHOOL FITZJOHN'S AVENUE, LONDON, NW3 6NP",LA2003,Application Approved,No,12/06/2013,,,,13/06/2013,2013-10-06,,,E05000135,Hampstead Town,526593.3,185464.71,-0.17545999999999998,51.553885,Nearest OS Open Map-Local Building,11/05/2017 07:37:32 PM,"(51.553885, -0.17546)",33840,http://opendatacommunities.org/id/london-borough-council/camden,1,Destination,originAPP\LATE-TEN\000395
2343,APP\LATE-TEN\001977,Late Temporary Event Notice,Cafe & Grill,"19 KENTISH TOWN ROAD, LONDON, NW1 8NH",LA2003,Application Approved,No,30/11/2016,,,,02/12/2016,2016-11-29,,Camden Town,E05000130,Camden Town with Primrose Hill,528911.39,183997.27,-0.14257999999999998,51.540172999999996,Nearest OS Open Map-Local Building,11/05/2017 07:37:31 PM,"(51.540173, -0.14258)",32368,http://opendatacommunities.org/id/london-borough-council/camden,1,Destination,originAPP\LATE-TEN\001977
2351,APP\LATE-TEN\000920,Late Temporary Event Notice,West Yard,"WEST YARD CAMDEN LOCK PLACE, LONDON, NW1 8AF",LA2003,Application Approved,No,22/08/2014,,,,26/08/2014,2014-08-21,,Camden Town,E05000130,Camden Town with Primrose Hill,528630.79,184107.84,-0.146584,51.54123,Nearest OS Open Map-Local Building,11/05/2017 07:37:32 PM,"(51.54123, -0.146584)",33360,http://opendatacommunities.org/id/london-borough-council/camden,1,Destination,originAPP\LATE-TEN\000920
2363,APP\LATE-TEN\000452,Late Temporary Event Notice,London Irish Centre,"50  52 LONDON IRISH CENTRE CAMDEN SQUARE, LONDON, NW1 9XB",LA2003,Application Approved,No,27/08/2013,,,,30/08/2013,2013-08-27,,,E05000131,Cantelowes,529622.44,184427.6,-0.132175,51.543877,Nearest OS Open Map-Local Building,11/05/2017 07:37:32 PM,"(51.543877, -0.132175)",33791,http://opendatacommunities.org/id/london-borough-council/camden,1,Destination,originAPP\LATE-TEN\000452
2364,APP\LATE-TEN\000989,Late Temporary Event Notice,Round Falafel,"1A BELMONT STREET, LONDON, NW1 8HJ",LA2003,Application Approved,No,29/10/2014,,,,31/10/2014,2014-10-28,,Camden Town,E05000136,Haverstock,528257.51,184405.88,-0.151855,51.543994,Nearest OS Open Map-Local Building,11/05/2017 07:37:32 PM,"(51.543994, -0.151855)",33298,http://opendatacommunities.org/id/london-borough-council/camden,1,Destination,originAPP\LATE-TEN\000989
2385,APP\LATE-TEN\001637,Late Temporary Event Notice,SALT,"269 WEST END LANE, LONDON, NW6 1QS",LA2003,Application Approved,No,23/02/2016,,,,26/02/2016,2016-02-23,,,E05000145,West Hampstead,525457.68,185047.93,-0.19197899999999998,51.550391999999995,Nearest OS Open Map-Local Building,11/05/2017 07:37:31 PM,"(51.550392, -0.191979)",32690,http://opendatacommunities.org/id/london-borough-council/camden,1,Destination,originAPP\LATE-TEN\001637
2396,APP\LATE-TEN\000158,Late Temporary Event Notice,The Sparkle Bar & Lounge,"255 THE O2 CENTRE FINCHLEY ROAD, LONDON, NW3 6LU",LA2003,Application Rejected,No,08/11/2012,,,,13/11/2012,2012-08-11,,,E05000145,West Hampstead,526204.1,184766.66,-0.181321,51.547698,Nearest OS Open Map-Local Building,11/05/2017 07:37:32 PM,"(51.547698, -0.181321)",34059,http://opendatacommunities.org/id/london-borough-council/camden,1,Destination,originAPP\LATE-TEN\000158
2417,APP\LATE-TEN\001250,Late Temporary Event Notice,Colonel Fawcett,"1 RANDOLPH STREET, LONDON, NW1 0SS",LA2003,Application Approved,No,15/05/2015,,,,20/05/2015,2015-05-15,,,E05000131,Cantelowes,529363.05,184171.91,-0.136007,51.541639,Nearest OS Open Map-Local Building,11/05/2017 07:37:32 PM,"(51.541639, -0.136007)",33050,http://opendatacommunities.org/id/london-borough-council/camden,1,Destination,originAPP\LATE-TEN\001250
2429,APP\LATE-TEN\001172,Late Temporary Event Notice,Bloomsbury Ballroom,"37  63 VICTORIA HOUSE SOUTHAMPTON ROW, LONDON, WC1B 4DA",LA2003,Application Approved,No,11/03/2015,,,,16/03/2015,2015-11-03,,Seven Dials,E05000138,Holborn and Covent Garden,530393.5,181710.95,-0.12206700000000001,51.519286,Nearest OS Open Map-Local Building,11/05/2017 07:37:32 PM,"(51.519286, -0.122067)",33125,http://opendatacommunities.org/id/london-borough-council/camden,1,Destination,originAPP\LATE-TEN\001172
2468,APP\LATE-TEN\000650,Late Temporary Event Notice,Tropicana Beach Club,"166 NEW LONDON THEATRE DRURY LANE, LONDON, WC2B 5PF",LA2003,Application Approved,No,13/12/2013,,,,17/12/2013,2013-12-12,,Seven Dials,E05000138,Holborn and Covent Garden,530390.33,181320.63,-0.12225699999999999,51.51578,Nearest OS Open Map-Local Building,11/05/2017 07:37:32 PM,"(51.51578, -0.122257)",33612,http://opendatacommunities.org/id/london-borough-council/camden,1,Destination,originAPP\LATE-TEN\000650
2476,APP\LATE-TEN\001275,Late Temporary Event Notice,Haverstock School,"24 HAVERSTOCK SCHOOL HAVERSTOCK HILL, LONDON, NW3 2BQ",LA2003,Application Approved,No,04/06/2015,,,,08/06/2015,2015-03-06,,Camden Town,E05000136,Haverstock,528121.72,184523.75,-0.15376900000000002,51.545084,Nearest OS Open Map-Local Building,11/05/2017 07:37:32 PM,"(51.545084, -0.153769)",33028,http://opendatacommunities.org/id/london-borough-council/camden,1,Destination,originAPP\LATE-TEN\001275
2479,APP\LATE-TEN\001340,Late Temporary Event Notice,Outside Camden Town Tube Station,"193 CAMDEN HIGH STREET, LONDON, NW1 7PJ",LA2003,Application Approved,No,11/08/2015,,,,10/08/2015,2015-05-08,,Camden Town,E05000130,Camden Town with Primrose Hill,528836.98,183880.36,-0.14369500000000002,51.539139,Nearest OS Open Map-Local Building,11/05/2017 07:37:32 PM,"(51.539139, -0.143695)",32967,http://opendatacommunities.org/id/london-borough-council/camden,1,Destination,originAPP\LATE-TEN\001340
2483,APP\LATE-TEN\000444,Late Temporary Event Notice,Woody Grill,"1A CAMDEN ROAD, LONDON, NW1 9LG",LA2003,Application Approved,No,15/08/2013,,,,19/08/2013,2013-08-14,,Camden Town,E05000130,Camden Town with Primrose Hill,528955.86,183892.26,-0.141978,51.539219,Nearest OS Open Map-Local Building,11/05/2017 07:37:32 PM,"(51.539219, -0.141978)",33798,http://opendatacommunities.org/id/london-borough-council/camden,1,Destination,originAPP\LATE-TEN\000444
2489,APP\LATE-TEN\001283,Late Temporary Event Notice,Whitestone Pond and Heath Street,"WHITESTONE COTTAGE WHITESTONE LANE, LONDON, NW3 1EA",LA2003,Application Approved,No,16/06/2015,,,,17/06/2015,2015-12-06,,,E05000135,Hampstead Town,526342.52,186301.49,-0.178775,51.561461,Nearest OS Open Map-Local Building,11/05/2017 07:37:32 PM,"(51.561461, -0.178775)",33021,http://opendatacommunities.org/id/london-borough-council/camden,1,Destination,originAPP\LATE-TEN\001283
2519,APP\LATE-TEN\000594,Late Temporary Event Notice,London Irish Centre,"50  52 LONDON IRISH CENTRE CAMDEN SQUARE, LONDON, NW1 9XB",LA2003,Application Approved,No,02/12/2013,,,,04/12/2013,2013-11-29,,,E05000131,Cantelowes,529622.44,184427.6,-0.132175,51.543877,Nearest OS Open Map-Local Building,11/05/2017 07:37:32 PM,"(51.543877, -0.132175)",33662,http://opendatacommunities.org/id/london-borough-council/camden,1,Destination,originAPP\LATE-TEN\000594
2618,APP\LATE-TEN\002041,Late Temporary Event Notice,Bloomsbury Ballroom,"37  63 VICTORIA HOUSE SOUTHAMPTON ROW, LONDON, WC1B 4DA",LA2003,Application Approved,No,26/01/2017,,,,30/01/2017,2017-01-25,,Seven Dials,E05000138,Holborn and Covent Garden,530393.5,181710.95,-0.12206700000000001,51.519286,Nearest OS Open Map-Local Building,11/05/2017 07:37:31 PM,"(51.519286, -0.122067)",32307,http://opendatacommunities.org/id/london-borough-council/camden,1,Destination,originAPP\LATE-TEN\002041
2629,APP\LATE-TEN\000391,Late Temporary Event Notice,Harrison Arms,"28 HARRISON STREET, LONDON, WC1H 8JF",LA2003,Application Approved,No,07/06/2013,,,,12/06/2013,2013-07-06,,,E05000141,King's Cross,530504.34,182634.44,-0.120129,51.52756,Nearest OS Open Map-Local Building,11/05/2017 07:37:32 PM,"(51.52756, -0.120129)",33841,http://opendatacommunities.org/id/london-borough-council/camden,1,Destination,originAPP\LATE-TEN\000391
2632,APP\LATE-TEN\001631,Late Temporary Event Notice,The T.E. Dingwall Building (Formerly Lock 17/Highlight),"EAST YARD CAMDEN LOCK PLACE, LONDON, NW1 8AL",LA2003,Application Approved,No,16/02/2016,,,,18/02/2016,2016-02-15,,Camden Town,E05000130,Camden Town with Primrose Hill,528681.08,184131.14,-0.145851,51.541428,Nearest OS Open Map-Local Building,11/05/2017 07:37:31 PM,"(51.541428, -0.145851)",32696,http://opendatacommunities.org/id/london-borough-council/camden,1,Destination,originAPP\LATE-TEN\001631
2639,APP\LATE-TEN\001325,Late Temporary Event Notice,BrewDog,"113 BAYHAM STREET, LONDON, NW1 0AG",LA2003,Application Approved,No,10/07/2015,,,,14/07/2015,2015-09-07,,Camden Town,E05000130,Camden Town with Primrose Hill,529010.42,183823.44,-0.141217,51.538588,Nearest OS Open Map-Local Building,11/05/2017 07:37:32 PM,"(51.538588, -0.141217)",32981,http://opendatacommunities.org/id/london-borough-council/camden,1,Destination,originAPP\LATE-TEN\001325
2648,APP\LATE-TEN\000316,Late Temporary Event Notice,Assembly House,"292 294 KENTISH TOWN ROAD, LONDON, NW5 2TG",LA2003,Application Approved,No,,,,,13/03/2013,2013-08-03,,,E05000139,Kentish Town,529038.33,185212.57,-0.140306,51.551065,Nearest OS Open Map-Local Building,11/05/2017 07:37:32 PM,"(51.551065, -0.140306)",33907,http://opendatacommunities.org/id/london-borough-council/camden,1,Destination,originAPP\LATE-TEN\000316
2703,APP\LATE-TEN\000093,Late Temporary Event Notice,Assembly House,"292 294 KENTISH TOWN ROAD, LONDON, NW5 2TG",LA2003,Application Approved,No,17/08/2012,,,,21/08/2012,2012-08-16,,,E05000139,Kentish Town,529038.33,185212.57,-0.140306,51.551065,Nearest OS Open Map-Local Building,11/05/2017 07:37:32 PM,"(51.551065, -0.140306)",34121,http://opendatacommunities.org/id/london-borough-council/camden,1,Destination,originAPP\LATE-TEN\000093
2704,APP\LATE-TEN\001149,Late Temporary Event Notice,Haverstock School,"24 HAVERSTOCK SCHOOL HAVERSTOCK HILL, LONDON, NW3 2BQ",LA2003,Application Approved,No,19/02/2015,,,,24/02/2015,2015-02-19,,Camden Town,E05000136,Haverstock,528121.72,184523.75,-0.15376900000000002,51.545084,Nearest OS Open Map-Local Building,11/05/2017 07:37:32 PM,"(51.545084, -0.153769)",33148,http://opendatacommunities.org/id/london-borough-council/camden,1,Destination,originAPP\LATE-TEN\001149
2747,APP\LATE-TEN\001333,Late Temporary Event Notice,Miusan (Formerly Zensai),"16 INVERNESS STREET, LONDON, NW1 7HJ",LA2003,Application Approved,No,20/07/2015,,,,22/07/2015,2015-07-17,,Camden Town,E05000130,Camden Town with Primrose Hill,528778.86,183979.04,-0.14449700000000001,51.540039,Nearest OS Open Map-Local Building,11/05/2017 07:37:32 PM,"(51.540039, -0.144497)",32973,http://opendatacommunities.org/id/london-borough-council/camden,1,Destination,originAPP\LATE-TEN\001333
2749,APP\LATE-TEN\001598,Late Temporary Event Notice,Eleanor Primary School,"ELEANOR PALMER PRIMARY SCHOOL LUPTON STREET, LONDON, NW5 2JA",LA2003,Application Approved,No,26/01/2016,,,,29/01/2016,2016-01-26,,,E05000139,Kentish Town,529119.07,185634.55,-0.138987,51.554839,Nearest OS Open Map-Local Building,11/05/2017 07:37:31 PM,"(51.554839, -0.138987)",32726,http://opendatacommunities.org/id/london-borough-council/camden,1,Destination,originAPP\LATE-TEN\001598
2786,APP\LATE-TEN\000172,Late Temporary Event Notice,Jeremy Bentham Room,"UCL MAIN BUILDING GOWER STREET, LONDON, WC1E 6BT",LA2003,Application Approved,No,,,,,16/11/2012,2012-11-13,,,E05000129,Bloomsbury,529684.65,182357.16,-0.13204000000000002,51.525257,Nearest OS Open Map-Local Building,11/05/2017 07:37:32 PM,"(51.525257, -0.13204)",34046,http://opendatacommunities.org/id/london-borough-council/camden,1,Destination,originAPP\LATE-TEN\000172
2791,APP\LATE-TEN\001610,Late Temporary Event Notice,26 Grains,"2 NEAL'S YARD, LONDON, WC2H 9DP",LA2003,Application Approved,No,01/02/2016,,,,04/02/2016,2016-01-02,,Seven Dials,E05000138,Holborn and Covent Garden,530096.62,181164.76,-0.126545,51.514446,Nearest OS Open Map-Local Building,11/05/2017 07:37:31 PM,"(51.514446, -0.126545)",32714,http://opendatacommunities.org/id/london-borough-council/camden,1,Destination,originAPP\LATE-TEN\001610
2809,APP\LATE-TEN\000207,Late Temporary Event Notice,Woody Grill,"1A CAMDEN ROAD, LONDON, NW1 9LG",LA2003,Application Rejected,No,,,,,06/12/2012,2012-03-12,04/12/2012,Camden Town,E05000130,Camden Town with Primrose Hill,528955.86,183892.26,-0.141978,51.539219,Nearest OS Open Map-Local Building,11/05/2017 07:37:32 PM,"(51.539219, -0.141978)",34013,http://opendatacommunities.org/id/london-borough-council/camden,1,Destination,originAPP\LATE-TEN\000207
2844,APP\LATE-TEN\001988,Late Temporary Event Notice,110-112 Hampstead Road,"110 HAMPSTEAD ROAD, LONDON, NW1 2LJ",LA2003,Application Approved,No,06/12/2016,,,,06/12/2016,2016-01-12,,,E05000142,Regent's Park,529279.09,182758.03,-0.137736,51.528952000000004,Nearest OS Open Map-Local Building,11/05/2017 07:37:31 PM,"(51.528952, -0.137736)",32357,http://opendatacommunities.org/id/london-borough-council/camden,1,Destination,originAPP\LATE-TEN\001988
2857,APP\LATE-TEN\001578,Late Temporary Event Notice,St Pauls School,"ST PAULS PRIMARY SCHOOL ELSWORTHY ROAD, LONDON, NW3 3DS",LA2003,Application Approved,No,04/01/2016,,,,07/01/2016,2016-04-01,,,E05000144,Swiss Cottage,527512.72,184130.08,-0.162689,51.541684000000004,Nearest OS Open Map-Local Building,11/05/2017 07:37:31 PM,"(51.541684, -0.162689)",32744,http://opendatacommunities.org/id/london-borough-council/camden,1,Destination,originAPP\LATE-TEN\001578
2858,APP\LATE-TEN\000710,Late Temporary Event Notice,Bloc Bar (Formerly Record Club/The Stillery,"18 KENTISH TOWN ROAD, LONDON, NW1 9NX",LA2003,Application Approved,No,07/02/2014,,,,12/02/2014,2014-07-02,,Camden Town,E05000130,Camden Town with Primrose Hill,528951.8,183997.31,-0.141998,51.540164000000004,Nearest OS Open Map-Local Building,11/05/2017 07:37:32 PM,"(51.540164, -0.141998)",33553,http://opendatacommunities.org/id/london-borough-council/camden,1,Destination,originAPP\LATE-TEN\000710
2860,APP\LATE-TEN\000177,Late Temporary Event Notice,Northumberland Arms,"119 TOTTENHAM COURT ROAD, LONDON, W1T 5AW",LA2003,Application Approved,No,22/11/2012,,,,23/11/2012,2012-11-20,,,E05000129,Bloomsbury,529311.16,182112.36,-0.137511,51.523142,Nearest OS Open Map-Local Building,11/05/2017 07:37:32 PM,"(51.523142, -0.137511)",34041,http://opendatacommunities.org/id/london-borough-council/camden,1,Destination,originAPP\LATE-TEN\000177
2879,APP\LATE-TEN\000343,Late Temporary Event Notice,The Abbey Tavern,"124 KENTISH TOWN ROAD, LONDON, NW1 9QB",LA2003,Application Approved,No,24/04/2013,,,,25/04/2013,2013-04-22,,,E05000131,Cantelowes,529008.65,184633.75,-0.14094600000000002,51.54587,Nearest OS Open Map-Local Building,11/05/2017 07:37:32 PM,"(51.54587, -0.140946)",33882,http://opendatacommunities.org/id/london-borough-council/camden,1,Destination,originAPP\LATE-TEN\000343
2890,APP\LATE-TEN\000900,Late Temporary Event Notice,Stables Market,"THE STABLES MARKET CHALK FARM ROAD, LONDON, NW1 8AH",LA2003,Application Approved,No,07/08/2014,,,,11/08/2014,2014-06-08,,Camden Town,E05000130,Camden Town with Primrose Hill,528518.62,184219.15,-0.14816,51.542256,Nearest OS Open Map-Local Building,11/05/2017 07:37:32 PM,"(51.542256, -0.14816)",33377,http://opendatacommunities.org/id/london-borough-council/camden,1,Destination,originAPP\LATE-TEN\000900
2932,APP\LATE-TEN\000930,Late Temporary Event Notice,Jebena Restaurant (formerly Cafe Milan),"302 KILBURN HIGH ROAD, LONDON, NW6 2DB",LA2003,Application Approved,No,02/09/2014,,,,04/09/2014,2014-01-09,,,E05000140,Kilburn,524890.5,184341.9,-0.200406,51.544173,Nearest OS Open Map-Local Building,11/05/2017 07:37:32 PM,"(51.544173, -0.200406)",33352,http://opendatacommunities.org/id/london-borough-council/camden,1,Destination,originAPP\LATE-TEN\000930
2946,APP\LATE-TEN\001755,Late Temporary Event Notice,School of Oriental and African Studies Union,"10 SCHOOL OF ORIENTAL AND AFRICAN STUDIES THORNHAUGH STREET, LONDON, WC1H 0XG",LA2003,Application Approved,No,21/05/2016,,,,24/05/2016,2016-05-19,,,E05000129,Bloomsbury,529889.27,182044.99,-0.129207,51.522405,Nearest OS Open Map-Local Building,11/05/2017 07:37:31 PM,"(51.522405, -0.129207)",32577,http://opendatacommunities.org/id/london-borough-council/camden,1,Destination,originAPP\LATE-TEN\001755
2954,APP\LATE-TEN\001320,Late Temporary Event Notice,Jebena Restaurant (formerly Cafe Milan),"302 KILBURN HIGH ROAD, LONDON, NW6 2DB",LA2003,Application Approved,No,06/07/2015,,,,09/07/2015,2015-05-07,,,E05000140,Kilburn,524890.5,184341.9,-0.200406,51.544173,Nearest OS Open Map-Local Building,11/05/2017 07:37:32 PM,"(51.544173, -0.200406)",32986,http://opendatacommunities.org/id/london-borough-council/camden,1,Destination,originAPP\LATE-TEN\001320
2966,APP\LATE-TEN\000551,Late Temporary Event Notice,The Marathon,"87 CHALK FARM ROAD, LONDON, NW1 8AR",LA2003,Application Approved,No,19/11/2013,,,,21/11/2013,2013-11-18,,Camden Town,E05000136,Haverstock,528257.51,184405.88,-0.151855,51.543994,Nearest OS Open Map-Local Building,11/05/2017 07:37:32 PM,"(51.543994, -0.151855)",33704,http://opendatacommunities.org/id/london-borough-council/camden,1,Destination,originAPP\LATE-TEN\000551
2977,APP\LATE-TEN\001304,Late Temporary Event Notice,Sway (Cocktail & hide),"61  65 GREAT QUEEN STREET, LONDON, WC2B 5BZ",LA2003,Application Rejected,No,24/06/2015,,,,26/06/2015,2015-06-23,,Seven Dials,E05000138,Holborn and Covent Garden,530517.17,181284.16,-0.12044400000000001,51.515423,Nearest OS Open Map-Local Building,11/05/2017 07:37:32 PM,"(51.515423, -0.120444)",33001,http://opendatacommunities.org/id/london-borough-council/camden,1,Destination,originAPP\LATE-TEN\001304
2986,APP\LATE-TEN\001961,Late Temporary Event Notice,Mia,"135 FINCHLEY ROAD, LONDON, NW3 6JH",LA2003,Application Approved,No,22/11/2016,,,,23/11/2016,2016-11-18,,,E05000144,Swiss Cottage,526612.06,184280.06,-0.17561500000000002,51.543234000000005,Nearest OS Open Map-Local Building,11/05/2017 07:37:31 PM,"(51.543234, -0.175615)",32384,http://opendatacommunities.org/id/london-borough-council/camden,1,Destination,originAPP\LATE-TEN\001961
3015,APP\LATE-TEN\000481,Late Temporary Event Notice,Hawley Infant School,"HAWLEY INFANT AND NURSERY SCHOOL BUCK STREET, LONDON, NW1 8NJ",LA2003,Application Approved,No,04/10/2013,,,,09/10/2013,2013-04-10,,Camden Town,E05000130,Camden Town with Primrose Hill,528919.19,184026.39,-0.142457,51.540433,Nearest OS Open Map-Local Building,11/05/2017 07:37:32 PM,"(51.540433, -0.142457)",33764,http://opendatacommunities.org/id/london-borough-council/camden,1,Destination,originAPP\LATE-TEN\000481
3047,APP\LATE-TEN\000910,Late Temporary Event Notice,Stables Market,"THE STABLES MARKET CHALK FARM ROAD, LONDON, NW1 8AH",LA2003,Application Approved,No,13/08/2014,,,,15/08/2014,2014-12-08,,Camden Town,E05000130,Camden Town with Primrose Hill,528518.62,184219.15,-0.14816,51.542256,Nearest OS Open Map-Local Building,11/05/2017 07:37:32 PM,"(51.542256, -0.14816)",33368,http://opendatacommunities.org/id/london-borough-council/camden,1,Destination,originAPP\LATE-TEN\000910
3091,APP\LATE-TEN\001329,Late Temporary Event Notice,Pimpshuei,"59 MOUNT PLEASANT, LONDON, WC1X 0AY",LA2003,Application Approved,No,15/07/2015,,,,17/07/2015,2015-07-14,,,E05000138,Holborn and Covent Garden,531061.51,182106.29,-0.112298,51.522684999999996,Nearest OS Open Map-Local Building,11/05/2017 07:37:32 PM,"(51.522685, -0.112298)",32977,http://opendatacommunities.org/id/london-borough-council/camden,1,Destination,originAPP\LATE-TEN\001329
3099,APP\LATE-TEN\001157,Late Temporary Event Notice,Hampstead Cricket Club,"HAMPSTEAD CRICKET CLUB LYMINGTON ROAD, LONDON, NW6 1HZ",LA2003,Application Rejected,No,,,,,04/03/2015,2015-02-27,27/02/2015,,E05000145,West Hampstead,525813.93,184962.22,-0.186875,51.549543,Nearest OS Open Map-Local Building,11/05/2017 07:37:32 PM,"(51.549543, -0.186875)",33140,http://opendatacommunities.org/id/london-borough-council/camden,1,Destination,originAPP\LATE-TEN\001157
3108,APP\LATE-TEN\000308,Late Temporary Event Notice,Temptation Coffee Bar,"7 MURRAY STREET, LONDON, NW1 9RE",LA2003,Application Approved,No,01/03/2013,,,,05/03/2013,2013-02-28,,,E05000131,Cantelowes,529598.47,184363.41,-0.132544,51.543306,Nearest OS Open Map-Local Building,11/05/2017 07:37:32 PM,"(51.543306, -0.132544)",33915,http://opendatacommunities.org/id/london-borough-council/camden,1,Destination,originAPP\LATE-TEN\000308
3115,APP\LATE-TEN\001660,Late Temporary Event Notice,Bloc Bar (Formerly Record Club/The Stillery,"18 KENTISH TOWN ROAD, LONDON, NW1 9NX",LA2003,Application Approved,No,11/03/2016,,,,16/03/2016,2016-11-03,,Camden Town,E05000130,Camden Town with Primrose Hill,528951.8,183997.31,-0.141998,51.540164000000004,Nearest OS Open Map-Local Building,11/05/2017 07:37:31 PM,"(51.540164, -0.141998)",32667,http://opendatacommunities.org/id/london-borough-council/camden,1,Destination,originAPP\LATE-TEN\001660
3119,APP\LATE-TEN\000869,Late Temporary Event Notice,Playfair Capital,"8 WARNER YARD, LONDON, EC1R 5EY",LA2003,Application Approved,No,04/07/2014,,,,09/07/2014,2014-04-07,,,E05000138,Holborn and Covent Garden,531142.5,182144.54,-0.11111700000000001,51.52301,Nearest OS Open Map-Local Building,11/05/2017 07:37:32 PM,"(51.52301, -0.111117)",33402,http://opendatacommunities.org/id/london-borough-council/camden,1,Destination,originAPP\LATE-TEN\000869
3170,APP\LATE-TEN\001838,Late Temporary Event Notice,Stag,"67 FLEET ROAD, LONDON, NW3 2QU",LA2003,Application Approved,No,17/08/2016,,,,19/08/2016,2016-08-16,,,E05000134,Gospel Oak,527549.85,185427.77,-0.161684,51.553337,Nearest OS Open Map-Local Building,11/05/2017 07:37:31 PM,"(51.553337, -0.161684)",32497,http://opendatacommunities.org/id/london-borough-council/camden,1,Destination,originAPP\LATE-TEN\001838
3199,APP\LATE-TEN\001527,Late Temporary Event Notice,Two Brewers,"40 MONMOUTH STREET, LONDON, WC2H 9EP",LA2003,Application Approved,No,07/12/2015,,,,09/12/2015,2015-04-12,,Seven Dials,E05000138,Holborn and Covent Garden,530043.11,181029.51,-0.127366,51.513243,Nearest OS Open Map-Local Building,11/05/2017 07:37:31 PM,"(51.513243, -0.127366)",32793,http://opendatacommunities.org/id/london-borough-council/camden,1,Destination,originAPP\LATE-TEN\001527
3205,APP\LATE-TEN\000790,Late Temporary Event Notice,Lincoln Inn Fields - Barristers Chambers,"5760 LINCOLN'S INN FIELDS, LONDON, WC2A 3LJ",LA2003,Application Approved,No,02/05/2014,,,,07/05/2014,2014-02-05,,,E05000138,Holborn and Covent Garden,530636.89,181331.4,-0.118702,51.515819,Nearest OS Open Map-Local Building,11/05/2017 07:37:32 PM,"(51.515819, -0.118702)",33478,http://opendatacommunities.org/id/london-borough-council/camden,1,Destination,originAPP\LATE-TEN\000790
3238,APP\LATE-TEN\000759,Late Temporary Event Notice,Munchtime (previously Cafe Plaka),"315 GRAY'S INN ROAD, LONDON, WC1X 8PX",LA2003,Application Approved,No,07/04/2014,,,,10/04/2014,2014-06-04,,,E05000141,King's Cross,530388.77,182929.58,-0.12168499999999999,51.530239,Nearest OS Open Map-Local Building,11/05/2017 07:37:32 PM,"(51.530239, -0.121685)",33506,http://opendatacommunities.org/id/london-borough-council/camden,1,Destination,originAPP\LATE-TEN\000759
3265,APP\LATE-TEN\000950,Late Temporary Event Notice,Birkbeck College (Malet St),"UNIVERSITY OF LONDON BIRKBECK COLLEGE MALET STREET, LONDON, WC1E 7HX",LA2003,Application Approved,No,19/09/2014,,,,23/09/2014,2014-09-18,,,E05000129,Bloomsbury,529789.01,182025.36,-0.130659,51.522251000000004,Nearest OS Open Map-Local Building,11/05/2017 07:37:32 PM,"(51.522251, -0.130659)",33334,http://opendatacommunities.org/id/london-borough-council/camden,1,Destination,originAPP\LATE-TEN\000950
3300,APP\LATE-TEN\001226,Late Temporary Event Notice,Miusan (Formerly Zensai),"16 INVERNESS STREET, LONDON, NW1 7HJ",LA2003,Application Approved,No,27/04/2015,,,,30/04/2015,2015-04-26,,Camden Town,E05000130,Camden Town with Primrose Hill,528778.86,183979.04,-0.14449700000000001,51.540039,Nearest OS Open Map-Local Building,11/05/2017 07:37:32 PM,"(51.540039, -0.144497)",33072,http://opendatacommunities.org/id/london-borough-council/camden,1,Destination,originAPP\LATE-TEN\001226
3304,APP\LATE-TEN\001098,Late Temporary Event Notice,Elementree,"108 110 CRICKLEWOOD BROADWAY, LONDON, NW2 3EJ",LA2003,Application Approved,No,23/12/2014,,,,26/12/2014,2014-12-23,,,E05000132,Fortune Green,524010.52,185574.37,-0.212655,51.555443,Nearest OS Open Map-Local Building,11/05/2017 07:37:32 PM,"(51.555443, -0.212655)",33194,http://opendatacommunities.org/id/london-borough-council/camden,1,Destination,originAPP\LATE-TEN\001098
3355,APP\LATE-TEN\000949,Late Temporary Event Notice,Junction of Tottenham Court Road and Oxford Street (Pavement behind tube entrance),"PITCH OUTSIDE DOMINION THEATRE TOTTENHAM COURT ROAD,",LA2003,Application Approved,No,18/09/2014,,,,23/09/2014,2014-09-18,,,E05000129,Bloomsbury,529857.44,181436.66,-0.12989,51.516945,Nearest OS Open Map-Local Building,11/05/2017 07:37:32 PM,"(51.516945, -0.12989)",33335,http://opendatacommunities.org/id/london-borough-council/camden,1,Destination,originAPP\LATE-TEN\000949
3387,APP\LATE-TEN\001997,Late Temporary Event Notice,BrewDog,"113 BAYHAM STREET, LONDON, NW1 0AG",LA2003,Application Approved,No,07/12/2016,,,,12/12/2016,2016-07-12,,Camden Town,E05000130,Camden Town with Primrose Hill,529010.42,183823.44,-0.141217,51.538588,Nearest OS Open Map-Local Building,11/05/2017 07:37:31 PM,"(51.538588, -0.141217)",32349,http://opendatacommunities.org/id/london-borough-council/camden,1,Destination,originAPP\LATE-TEN\001997
3444,APP\LATE-TEN\001012,Late Temporary Event Notice,Istanbul Meze Grill,"9 CAMDEN HIGH STREET, LONDON, NW1 7JE",LA2003,Application Approved,No,14/11/2014,,,,18/11/2014,2014-11-13,,Camden Town,E05000142,Regent's Park,529129.52,183417.31,-0.139649,51.534911,Nearest OS Open Map-Local Building,11/05/2017 07:37:32 PM,"(51.534911, -0.139649)",33275,http://opendatacommunities.org/id/london-borough-council/camden,1,Destination,originAPP\LATE-TEN\001012
3467,APP\LATE-TEN\001128,Late Temporary Event Notice,GRANT MUSEUM OF ZOOLOGY,"21 ROCKEFELLER BUILDING UNIVERSITY STREET, LONDON, WC1E 6DE",LA2003,Application Approved,No,04/02/2015,,,,09/02/2015,2015-04-02,,,E05000129,Bloomsbury,529472.5,182220.56,-0.135147,51.524078,Nearest OS Open Map-Local Building,11/05/2017 07:37:32 PM,"(51.524078, -0.135147)",33167,http://opendatacommunities.org/id/london-borough-council/camden,1,Destination,originAPP\LATE-TEN\001128
3502,APP\LATE-TEN\001163,Late Temporary Event Notice,Flight Club,"55  59 ALBION HOUSE NEW OXFORD STREET, LONDON, WC1A 1BS",LA2003,Application Approved,No,05/03/2015,,,,10/03/2015,2015-05-03,,Seven Dials,E05000138,Holborn and Covent Garden,530049.4,181415.57,-0.127133,51.516711,Nearest OS Open Map-Local Building,11/05/2017 07:37:32 PM,"(51.516711, -0.127133)",33134,http://opendatacommunities.org/id/london-borough-council/camden,1,Destination,originAPP\LATE-TEN\001163
3503,APP\LATE-TEN\001457,Late Temporary Event Notice,Vue Cinema,"255 THE O2 CENTRE FINCHLEY ROAD, LONDON, NW3 6LU",LA2003,Application Approved,No,11/11/2015,,,,13/11/2015,2015-10-11,,,E05000145,West Hampstead,526204.1,184766.66,-0.181321,51.547698,Nearest OS Open Map-Local Building,11/05/2017 07:37:31 PM,"(51.547698, -0.181321)",32860,http://opendatacommunities.org/id/london-borough-council/camden,1,Destination,originAPP\LATE-TEN\001457
3511,APP\LATE-TEN\001449,Late Temporary Event Notice,Round Falafel,"1A BELMONT STREET, LONDON, NW1 8HJ",LA2003,Application Approved,No,08/11/2015,,,,11/11/2015,2015-06-11,,Camden Town,E05000136,Haverstock,528257.51,184405.88,-0.151855,51.543994,Nearest OS Open Map-Local Building,11/05/2017 07:37:31 PM,"(51.543994, -0.151855)",32867,http://opendatacommunities.org/id/london-borough-council/camden,1,Destination,originAPP\LATE-TEN\001449
3538,APP\LATE-TEN\000374,Late Temporary Event Notice,Kentish Town Health Centre,"2 KENTISH TOWN HEALTH CENTRE BARTHOLOMEW ROAD, LONDON, NW5 2BX",LA2003,Application Approved,No,23/05/2013,,,,24/05/2013,2013-05-21,,,E05000131,Cantelowes,529075.49,184685.03,-0.139963,51.546316,Nearest OS Open Map-Local Building,11/05/2017 07:37:32 PM,"(51.546316, -0.139963)",33855,http://opendatacommunities.org/id/london-borough-council/camden,1,Destination,originAPP\LATE-TEN\000374
3542,APP\LATE-TEN\001408,Late Temporary Event Notice,Fung Sun Kitchen,"80 CHALK FARM ROAD, LONDON, NW1 8AR",LA2003,Application Approved,No,13/10/2015,,,,15/10/2015,2015-12-10,,Camden Town,E05000136,Haverstock,528257.51,184405.88,-0.151855,51.543994,Nearest OS Open Map-Local Building,11/05/2017 07:37:32 PM,"(51.543994, -0.151855)",32906,http://opendatacommunities.org/id/london-borough-council/camden,1,Destination,originAPP\LATE-TEN\001408
3559,APP\LATE-TEN\001851,Late Temporary Event Notice,Mango Room,"10  12 KENTISH TOWN ROAD, LONDON, NW1 9NX",LA2003,Application Rejected,No,,,,,07/09/2016,2016-02-09,,Camden Town,E05000130,Camden Town with Primrose Hill,528899.47,183943.05,-0.142772,51.539688,Nearest OS Open Map-Local Building,11/05/2017 07:37:31 PM,"(51.539688, -0.142772)",32484,http://opendatacommunities.org/id/london-borough-council/camden,1,Destination,originAPP\LATE-TEN\001851
3607,APP\LATE-TEN\000968,Late Temporary Event Notice,London Irish Centre,"50  52 LONDON IRISH CENTRE CAMDEN SQUARE, LONDON, NW1 9XB",LA2003,Application Approved,No,10/10/2014,,,,15/10/2014,2014-10-10,,,E05000131,Cantelowes,529622.44,184427.6,-0.132175,51.543877,Nearest OS Open Map-Local Building,11/05/2017 07:37:32 PM,"(51.543877, -0.132175)",33318,http://opendatacommunities.org/id/london-borough-council/camden,1,Destination,originAPP\LATE-TEN\000968
3621,APP\LATE-TEN\001195,Late Temporary Event Notice,Haverstock School,"24 HAVERSTOCK SCHOOL HAVERSTOCK HILL, LONDON, NW3 2BQ",LA2003,Application Approved,No,31/03/2015,,,,03/04/2015,2015-03-31,,Camden Town,E05000136,Haverstock,528121.72,184523.75,-0.15376900000000002,51.545084,Nearest OS Open Map-Local Building,11/05/2017 07:37:32 PM,"(51.545084, -0.153769)",33102,http://opendatacommunities.org/id/london-borough-council/camden,1,Destination,originAPP\LATE-TEN\001195
3622,APP\LATE-TEN\000970,Late Temporary Event Notice,Boopshi's,"31 WINDMILL STREET, LONDON, W1T 2JN",LA2003,Application Approved,No,14/10/2014,,,,16/10/2014,2014-10-13,,,E05000129,Bloomsbury,529579.24,181715.35,-0.133795,51.519513,Nearest OS Open Map-Local Building,11/05/2017 07:37:32 PM,"(51.519513, -0.133795)",33316,http://opendatacommunities.org/id/london-borough-council/camden,1,Destination,originAPP\LATE-TEN\000970
3686,APP\LATE-TEN\001256,Late Temporary Event Notice,School of Oriental and African Studies Union,"10 SCHOOL OF ORIENTAL AND AFRICAN STUDIES THORNHAUGH STREET, LONDON, WC1H 0XG",LA2003,Application Approved,No,20/05/2015,,,,22/05/2015,2015-05-19,,,E05000129,Bloomsbury,529889.27,182044.99,-0.129207,51.522405,Nearest OS Open Map-Local Building,11/05/2017 07:37:32 PM,"(51.522405, -0.129207)",33044,http://opendatacommunities.org/id/london-borough-council/camden,1,Destination,originAPP\LATE-TEN\001256
3688,APP\LATE-TEN\000057,Late Temporary Event Notice,Istanbul Meze Grill,"9 CAMDEN HIGH STREET, LONDON, NW1 7JE",LA2003,Application Rejected,No,17/07/2012,,,,19/07/2012,2012-07-15,,Camden Town,E05000142,Regent's Park,529129.52,183417.31,-0.139649,51.534911,Nearest OS Open Map-Local Building,11/05/2017 07:37:32 PM,"(51.534911, -0.139649)",34157,http://opendatacommunities.org/id/london-borough-council/camden,1,Destination,originAPP\LATE-TEN\000057
3697,APP\LATE-TEN\001917,Late Temporary Event Notice,Hampstead Parochial  C of E Primary School,"HAMPSTEAD PAROCHIAL SCHOOL HOLLY BUSH VALE, LONDON, NW3 6TX",LA2003,Application Approved,No,28/10/2016,,,,14/10/2016,2016-11-10,,,E05000133,Frognal and Fitzjohns,526300.65,185728.58,-0.179584,51.556321999999994,Nearest OS Open Map-Local Building,11/05/2017 07:37:31 PM,"(51.556322, -0.179584)",32423,http://opendatacommunities.org/id/london-borough-council/camden,1,Destination,originAPP\LATE-TEN\001917
3722,APP\LATE-TEN\001478,Late Temporary Event Notice,Round Falafel,"1A BELMONT STREET, LONDON, NW1 8HJ",LA2003,Application Approved,No,23/11/2015,,,,26/11/2015,2015-11-22,,Camden Town,E05000136,Haverstock,528257.51,184405.88,-0.151855,51.543994,Nearest OS Open Map-Local Building,11/05/2017 07:37:31 PM,"(51.543994, -0.151855)",32840,http://opendatacommunities.org/id/london-borough-council/camden,1,Destination,originAPP\LATE-TEN\001478
3732,APP\LATE-TEN\000039,Late Temporary Event Notice,Waterlow Park,"WATERLOW PARK HIGHGATE HILL,",LA2003,Application Approved,No,22/06/2012,,,,22/06/2012,2012-06-19,,,E05000137,Highgate,528586.1,187071.83,-0.146145,51.567877,Nearest OS Open Map-Local Building,11/05/2017 07:37:32 PM,"(51.567877, -0.146145)",34176,http://opendatacommunities.org/id/london-borough-council/camden,1,Destination,originAPP\LATE-TEN\000039
3747,APP\LATE-TEN\001951,Late Temporary Event Notice,Victoria House,"37  63 VICTORIA HOUSE SOUTHAMPTON ROW, LONDON, WC1B 4DA",LA2003,Application Approved,No,17/11/2016,,,,21/11/2016,2016-11-16,,Seven Dials,E05000138,Holborn and Covent Garden,530393.5,181710.95,-0.12206700000000001,51.519286,Nearest OS Open Map-Local Building,11/05/2017 07:37:31 PM,"(51.519286, -0.122067)",32393,http://opendatacommunities.org/id/london-borough-council/camden,1,Destination,originAPP\LATE-TEN\001951
3777,APP\LATE-TEN\000886,Late Temporary Event Notice,University Of London,"UNIVERSITY OF LONDON SENATE HOUSE MALET STREET, LONDON, WC1E 7HU",LA2003,Application Approved,No,23/07/2014,,,,25/07/2014,2014-07-22,,,E05000129,Bloomsbury,529946.1,181891.2,-0.128445,51.521009,Nearest OS Open Map-Local Building,11/05/2017 07:37:32 PM,"(51.521009, -0.128445)",33388,http://opendatacommunities.org/id/london-borough-council/camden,1,Destination,originAPP\LATE-TEN\000886
3778,APP\LATE-TEN\002078,Late Temporary Event Notice,Eleanor Primary School,"ELEANOR PALMER PRIMARY SCHOOL LUPTON STREET, LONDON, NW5 2JA",LA2003,Application Rejected,No,,,,,20/03/2017,2017-03-15,16/03/2017,,E05000139,Kentish Town,529119.07,185634.55,-0.138987,51.554839,Nearest OS Open Map-Local Building,11/05/2017 07:37:31 PM,"(51.554839, -0.138987)",32273,http://opendatacommunities.org/id/london-borough-council/camden,1,Destination,originAPP\LATE-TEN\002078
3780,APP\LATE-TEN\000258,Late Temporary Event Notice,Sway (Club Room),"61  65 GREAT QUEEN STREET, LONDON, WC2B 5BZ",LA2003,Application Approved,No,08/01/2013,,,,10/01/2013,2013-07-01,,Seven Dials,E05000138,Holborn and Covent Garden,530517.17,181284.16,-0.12044400000000001,51.515423,Nearest OS Open Map-Local Building,11/05/2017 07:37:32 PM,"(51.515423, -0.120444)",33961,http://opendatacommunities.org/id/london-borough-council/camden,1,Destination,originAPP\LATE-TEN\000258
3817,APP\LATE-TEN\001257,Late Temporary Event Notice,Haverstock School,"24 HAVERSTOCK SCHOOL HAVERSTOCK HILL, LONDON, NW3 2BQ",LA2003,Application Approved,No,20/05/2015,,,,22/05/2015,2015-05-19,,Camden Town,E05000136,Haverstock,528121.72,184523.75,-0.15376900000000002,51.545084,Nearest OS Open Map-Local Building,11/05/2017 07:37:32 PM,"(51.545084, -0.153769)",33043,http://opendatacommunities.org/id/london-borough-council/camden,1,Destination,originAPP\LATE-TEN\001257
3827,APP\LATE-TEN\002007,Late Temporary Event Notice,Euro Food & Wines,"3  16 WOBURN PLACE, LONDON, WC1H 0LS",LA2003,Application Rejected,No,14/12/2016,,,,16/12/2016,2016-12-13,,,E05000129,Bloomsbury,530113.54,182174.09,-0.12592899999999999,51.523513,Nearest OS Open Map-Local Building,11/05/2017 07:37:31 PM,"(51.523513, -0.125929)",32339,http://opendatacommunities.org/id/london-borough-council/camden,1,Destination,originAPP\LATE-TEN\002007
3828,APP\LATE-TEN\001491,Late Temporary Event Notice,Adventure Bar (previously Detroit),"35 THOMAS NEAL CENTRE EARLHAM STREET, LONDON, WC2H 9LD",LA2003,Application Approved,No,25/11/2015,,,,30/11/2015,2015-11-25,,Seven Dials,E05000138,Holborn and Covent Garden,530134.56,181122.31,-0.12601400000000001,51.514056,Nearest OS Open Map-Local Building,11/05/2017 07:37:31 PM,"(51.514056, -0.126014)",32827,http://opendatacommunities.org/id/london-borough-council/camden,1,Destination,originAPP\LATE-TEN\001491
3847,APP\LATE-TEN\000212,Late Temporary Event Notice,The orange dot gallery,"54 TAVISTOCK PLACE, LONDON, WC1H 9RG",LA2003,Application Approved,No,04/12/2012,,,,03/12/2012,2012-11-28,,,E05000129,Bloomsbury,530167.12,182389.54,-0.125078,51.525437,Nearest OS Open Map-Local Building,11/05/2017 07:37:32 PM,"(51.525437, -0.125078)",34009,http://opendatacommunities.org/id/london-borough-council/camden,1,Destination,originAPP\LATE-TEN\000212
3850,APP\LATE-TEN\001783,Late Temporary Event Notice,St Katharines Precinct,"4 REGENT'S PARK ROAD, LONDON, NW1 7TX",LA2003,Application Approved,No,15/06/2016,,,,20/06/2016,2016-06-15,,,E05000130,Camden Town with Primrose Hill,528447.51,183761.16,-0.149351,51.538157,Nearest OS Open Map-Local Building,11/05/2017 07:37:31 PM,"(51.538157, -0.149351)",32550,http://opendatacommunities.org/id/london-borough-council/camden,1,Destination,originAPP\LATE-TEN\001783
3869,APP\LATE-TEN\000820,Late Temporary Event Notice,1a Camden Road,"1A CAMDEN ROAD, LONDON, NW1 9LG",LA2003,Application Approved,No,19/05/2014,,,,22/05/2014,2014-05-18,,Camden Town,E05000130,Camden Town with Primrose Hill,528955.86,183892.26,-0.141978,51.539219,Nearest OS Open Map-Local Building,11/05/2017 07:37:32 PM,"(51.539219, -0.141978)",33448,http://opendatacommunities.org/id/london-borough-council/camden,1,Destination,originAPP\LATE-TEN\000820
3874,APP\LATE-TEN\001493,Late Temporary Event Notice,Seven Dials Club Ltd,"42 EARLHAM STREET, LONDON, WC2H 9LA",LA2003,Application Approved,No,26/11/2015,,,,30/11/2015,2015-11-25,,Seven Dials,E05000138,Holborn and Covent Garden,530128.41,181078.87,-0.126119,51.513667,Nearest OS Open Map-Local Building,11/05/2017 07:37:31 PM,"(51.513667, -0.126119)",32825,http://opendatacommunities.org/id/london-borough-council/camden,1,Destination,originAPP\LATE-TEN\001493
3905,APP\LATE-TEN\001018,Late Temporary Event Notice,Brown Sugar,"146 HIGH HOLBORN, LONDON, WC1V 6PH",LA2003,Application Approved,No,18/11/2014,,,,20/11/2014,2014-11-17,,Seven Dials,E05000138,Holborn and Covent Garden,530257.72,181441.14,-0.124123,51.516892999999996,Nearest OS Open Map-Local Building,11/05/2017 07:37:32 PM,"(51.516893, -0.124123)",33269,http://opendatacommunities.org/id/london-borough-council/camden,1,Destination,originAPP\LATE-TEN\001018
3937,APP\LATE-TEN\000985,Late Temporary Event Notice,BrewDog,"113 BAYHAM STREET, LONDON, NW1 0AG",LA2003,Application Rejected,No,,,,,29/10/2014,2014-10-24,27/10/2014,Camden Town,E05000130,Camden Town with Primrose Hill,529010.42,183823.44,-0.141217,51.538588,Nearest OS Open Map-Local Building,11/05/2017 07:37:32 PM,"(51.538588, -0.141217)",33302,http://opendatacommunities.org/id/london-borough-council/camden,1,Destination,originAPP\LATE-TEN\000985
3947,APP\LATE-TEN\001686,Late Temporary Event Notice,Dabbous,"39 WHITFIELD STREET, LONDON, W1T 2SF",LA2003,Application Approved,No,23/03/2016,,,,25/03/2016,2016-03-22,,,E05000129,Bloomsbury,529517.29,181805.45,-0.134654,51.520337,Nearest OS Open Map-Local Building,11/05/2017 07:37:31 PM,"(51.520337, -0.134654)",32642,http://opendatacommunities.org/id/london-borough-council/camden,1,Destination,originAPP\LATE-TEN\001686
3949,APP\LATE-TEN\000994,Late Temporary Event Notice,Made in Brasil Boteco (formerly Coco Bamboo),"48 CHALK FARM ROAD, LONDON, NW1 8AJ",LA2003,Application Approved,No,03/11/2014,,,,05/11/2014,2014-10-31,,Camden Town,E05000136,Haverstock,528500.65,184316.98,-0.148383,51.54314,Nearest OS Open Map-Local Building,11/05/2017 07:37:32 PM,"(51.54314, -0.148383)",33293,http://opendatacommunities.org/id/london-borough-council/camden,1,Destination,originAPP\LATE-TEN\000994
3962,APP\LATE-TEN\001941,Late Temporary Event Notice,Mango Room,"10  12 KENTISH TOWN ROAD, LONDON, NW1 9NX",LA2003,Application Approved,No,14/11/2016,,,,15/11/2016,2016-10-11,,Camden Town,E05000130,Camden Town with Primrose Hill,528899.47,183943.05,-0.142772,51.539688,Nearest OS Open Map-Local Building,11/05/2017 07:37:31 PM,"(51.539688, -0.142772)",32401,http://opendatacommunities.org/id/london-borough-council/camden,1,Destination,originAPP\LATE-TEN\001941
3976,APP\LATE-TEN\001774,Late Temporary Event Notice,Haverstock School,"24 HAVERSTOCK SCHOOL HAVERSTOCK HILL, LONDON, NW3 2BQ",LA2003,Application Approved,No,05/06/2016,,,,08/06/2016,2016-03-06,,Camden Town,E05000136,Haverstock,528121.72,184523.75,-0.15376900000000002,51.545084,Nearest OS Open Map-Local Building,11/05/2017 07:37:31 PM,"(51.545084, -0.153769)",32559,http://opendatacommunities.org/id/london-borough-council/camden,1,Destination,originAPP\LATE-TEN\001774
4022,APP\LATE-TEN\002138,Late Temporary Event Notice,Centro 3,"20  23 CENTRO HOUSE MANDELA STREET, LONDON, NW1 0DU",LA2003,Application Approved,No,03/05/2017,,,,04/05/2017,2017-04-29,,,E05000143,St Pancras and Somers Town,529303.03,183737.55,-0.137032,51.537749,Nearest OS Open Map-Local Building,11/05/2017 07:37:31 PM,"(51.537749, -0.137032)",32216,http://opendatacommunities.org/id/london-borough-council/camden,1,Destination,originAPP\LATE-TEN\002138
4024,APP\LATE-TEN\001827,Late Temporary Event Notice,The T.E. Dingwall Building (Formerly Lock 17/Highlight),"EAST YARD CAMDEN LOCK PLACE, LONDON, NW1 8AL",LA2003,Application Rejected,No,08/08/2016,,,,11/08/2016,2016-08-08,08/08/2016,Camden Town,E05000130,Camden Town with Primrose Hill,528681.08,184131.14,-0.145851,51.541428,Nearest OS Open Map-Local Building,11/05/2017 07:37:31 PM,"(51.541428, -0.145851)",32508,http://opendatacommunities.org/id/london-borough-council/camden,1,Destination,originAPP\LATE-TEN\001827
