,Application Reference,Application Type,Premises Name,Premises Address,Application Legislation,Application Status,Application Objections,Approved Date,Date Of Events,Expiry Date,Hearing Date,Last Date For Representations,Received Date,Refused Date,Cumulative Impact Policy Area Name,Ward Code,Ward Name,Easting,Northing,Longitude,Latitude,Spatial Accuracy,Last Uploaded,Location,Socrata ID,Organisation URI,path,Origin-Destination,PathId
388,APP\PREMISES-LICOPY\0057,Premises - Copy of Licence,Senor Ceviche (formerly known as The Barnyard),"18 CHARLOTTE STREET, LONDON, W1T 2LZ",LA2003,Application Approved In Full,No,,,,,,2013-06-08,,,E05000129,Bloomsbury,529528.04,181652.4,-0.134555,51.518959,Nearest OS Open Map-Local Building,11/05/2017 07:37:30 PM,"(51.518959, -0.134555)",30604,http://opendatacommunities.org/id/london-borough-council/camden,1,Destination,originAPP\PREMISES-LICOPY\0057
556,APP\PREMISES-LICOPY\0159,Premises - Copy of Licence,Sakleys - Ground Floor,"69 CHARLOTTE STREET, LONDON, W1T 4PJ",LA2003,Application Approved In Full,No,,,,,,2016-08-03,,,E05000129,Bloomsbury,529392.85,181727.74,-0.136475,51.519667,Nearest OS Open Map-Local Building,11/05/2017 07:37:30 PM,"(51.519667, -0.136475)",30506,http://opendatacommunities.org/id/london-borough-council/camden,1,Destination,originAPP\PREMISES-LICOPY\0159
698,APP\PREMISES-LICOPY\0139,Premises - Copy of Licence,London Cocktail Club,"224 SHAFTESBURY AVENUE, LONDON, WC2H 8EB",LA2003,Application Approved In Full,No,,,,,,2015-08-17,,Seven Dials,E05000138,Holborn and Covent Garden,530133.52,181364.62,-0.12594,51.516234000000004,Nearest OS Open Map-Local Building,11/05/2017 07:37:30 PM,"(51.516234, -0.12594)",30522,http://opendatacommunities.org/id/london-borough-council/camden,1,Destination,originAPP\PREMISES-LICOPY\0139
1163,APP\PREMISES-LICOPY\0058,Premises - Copy of Licence,Sam's Supermarket,"78 ST PAUL'S CRESCENT, LONDON, NW1 9XZ",LA2003,Application Approved In Full,No,,,,,,2013-08-08,,,E05000131,Cantelowes,529835.71,184222.88,-0.129177,51.541989,Nearest OS Open Map-Local Building,11/05/2017 07:37:30 PM,"(51.541989, -0.129177)",30603,http://opendatacommunities.org/id/london-borough-council/camden,1,Destination,originAPP\PREMISES-LICOPY\0058
1271,APP\PREMISES-LICOPY\0176,Premises - Copy of Licence,KFC,"242 HAVERSTOCK HILL, LONDON, NW3 2AE",LA2003,Application Approved In Full,No,,,,,,2016-07-28,,,E05000135,Hampstead Town,527194.33,185295.67,-0.166857,51.55223,Nearest OS Open Map-Local Building,11/05/2017 07:37:30 PM,"(51.55223, -0.166857)",30489,http://opendatacommunities.org/id/london-borough-council/camden,1,Destination,originAPP\PREMISES-LICOPY\0176
1407,APP\PREMISES-LICOPY\0098,Premises - Copy of Licence,The Hope Pub,"15 TOTTENHAM STREET, LONDON, W1T 2AJ",LA2003,Application Approved In Full,No,,,,,,2014-04-11,,,E05000129,Bloomsbury,529439.48,181788.23,-0.13578099999999999,51.5202,Nearest OS Open Map-Local Building,11/05/2017 07:37:30 PM,"(51.5202, -0.135781)",30563,http://opendatacommunities.org/id/london-borough-council/camden,1,Destination,originAPP\PREMISES-LICOPY\0098
1424,APP\PREMISES-LICOPY\0080,Premises - Copy of Licence,Sushi Bar Ramea,"19 PERCY STREET, LONDON, W1T 1DY",LA2003,Application Approved In Full,No,,,,,,2014-03-17,,,E05000129,Bloomsbury,529729.97,181585.26,-0.131671,51.51831,Nearest OS Open Map-Local Building,11/05/2017 07:37:30 PM,"(51.51831, -0.131671)",30581,http://opendatacommunities.org/id/london-borough-council/camden,1,Destination,originAPP\PREMISES-LICOPY\0080
1476,APP\PREMISES-LICOPY\0012,Premises - Copy of Licence,Grand Union (Camden),"102 106 CAMDEN ROAD, LONDON, NW1 9EA",LA2003,Application Approved In Full,No,,,,,,2012-07-23,,,E05000131,Cantelowes,529236.01,184161.88,-0.13784200000000002,51.541578,Nearest OS Open Map-Local Building,11/05/2017 07:37:30 PM,"(51.541578, -0.137842)",30645,http://opendatacommunities.org/id/london-borough-council/camden,1,Destination,originAPP\PREMISES-LICOPY\0012
1672,APP\PREMISES-LICOPY\0146,Premises - Copy of Licence,Royal Free Hospital,"ROYAL FREE HOSPITAL POND STREET, LONDON, NW3 2QG",LA2003,Application Approved In Full,No,,,,,,2015-10-21,,,E05000135,Hampstead Town,527291.99,185402.83,-0.16541,51.553171,Nearest OS Open Map-Local Building,11/05/2017 07:37:30 PM,"(51.553171, -0.16541)",30515,http://opendatacommunities.org/id/london-borough-council/camden,1,Destination,originAPP\PREMISES-LICOPY\0146
2328,APP\PREMISES-LICOPY\0185,Premises - Copy of Licence,The Hampstead Butcher and Providore,"244 WEST END LANE, LONDON, NW6 1LG",LA2003,Application Approved In Full,No,,,,,,2016-11-25,,,E05000145,West Hampstead,525497.88,185134.14,-0.191369,51.551158,Nearest OS Open Map-Local Building,11/05/2017 07:37:30 PM,"(51.551158, -0.191369)",30480,http://opendatacommunities.org/id/london-borough-council/camden,1,Destination,originAPP\PREMISES-LICOPY\0185
2414,APP\PREMISES-LICOPY\0195,Premises - Copy of Licence,Mon Plaisir,"19  21 MONMOUTH STREET, LONDON, WC2H 9DD",LA2003,Application Approved In Full,No,,,,,,2017-02-22,,Seven Dials,E05000138,Holborn and Covent Garden,530096.62,181164.76,-0.126545,51.514446,Nearest OS Open Map-Local Building,11/05/2017 07:37:30 PM,"(51.514446, -0.126545)",30470,http://opendatacommunities.org/id/london-borough-council/camden,1,Destination,originAPP\PREMISES-LICOPY\0195
2477,APP\PREMISES-LICOPY\0061,Premises - Copy of Licence,Cashino,"130 KILBURN HIGH ROAD, LONDON, NW6 4JD",LA2003,Application Approved In Full,No,,,,,,2013-05-09,,,E05000140,Kilburn,525292.97,183915.38,-0.19475699999999999,51.540251,Nearest OS Open Map-Local Building,11/05/2017 07:37:30 PM,"(51.540251, -0.194757)",30600,http://opendatacommunities.org/id/london-borough-council/camden,1,Destination,originAPP\PREMISES-LICOPY\0061
2524,APP\PREMISES-LICOPY\0128,Premises - Copy of Licence,Lanka,"71 REGENT'S PARK ROAD, LONDON, NW1 8UY",LA2003,Application Approved In Full,No,,,,,,2015-12-06,,,E05000130,Camden Town with Primrose Hill,527858.54,184093.05,-0.157718,51.541273,Nearest OS Open Map-Local Building,11/05/2017 07:37:30 PM,"(51.541273, -0.157718)",30533,http://opendatacommunities.org/id/london-borough-council/camden,1,Destination,originAPP\PREMISES-LICOPY\0128
2776,APP\PREMISES-LICOPY\0077,Premises - Copy of Licence,Holborn Whippet (FormerlyFathers Study),"25  27 SICILIAN AVENUE, LONDON, WC1A 2QH",LA2003,Application Approved In Full,No,,,,,,2013-11-12,,Seven Dials,E05000138,Holborn and Covent Garden,530449.24,181640.04,-0.12129000000000001,51.518636,Nearest OS Open Map-Local Building,11/05/2017 07:37:30 PM,"(51.518636, -0.12129)",30584,http://opendatacommunities.org/id/london-borough-council/camden,1,Destination,originAPP\PREMISES-LICOPY\0077
2849,APP\PREMISES-LICOPY\0108,Premises - Copy of Licence,Post Office,"91 REGENT'S PARK ROAD, LONDON, NW1 8UT",LA2003,Application Approved In Full,No,,,,,,2015-02-13,,,E05000130,Camden Town with Primrose Hill,527887.61,184177.69,-0.157269,51.542027000000004,Nearest OS Open Map-Local Building,11/05/2017 07:37:30 PM,"(51.542027, -0.157269)",30553,http://opendatacommunities.org/id/london-borough-council/camden,1,Destination,originAPP\PREMISES-LICOPY\0108
2871,APP\PREMISES-LICOPY\0097,Premises - Copy of Licence,"Leon,  101 Tottenham Court Road","101 TOTTENHAM COURT ROAD, LONDON, W1T 4TT",LA2003,Application Approved In Full,No,,,,,,2014-06-10,,,E05000129,Bloomsbury,529359.73,182034.29,-0.13683900000000002,51.52243,Nearest OS Open Map-Local Building,11/05/2017 07:37:30 PM,"(51.52243, -0.136839)",30564,http://opendatacommunities.org/id/london-borough-council/camden,1,Destination,originAPP\PREMISES-LICOPY\0097
3400,APP\PREMISES-LICOPY\0130,Premises - Copy of Licence,Bengali Workers Association,"1 SURMA COMMUNITY CENTRE ROBERT STREET, LONDON, NW1 3JU",LA2003,Application Approved In Full,No,,,,,,2015-06-23,,,E05000142,Regent's Park,529203.34,182685.42,-0.138854,51.528317,Nearest OS Open Map-Local Building,11/05/2017 07:37:30 PM,"(51.528317, -0.138854)",30531,http://opendatacommunities.org/id/london-borough-council/camden,1,Destination,originAPP\PREMISES-LICOPY\0130
3555,APP\PREMISES-LICOPY\0102,Premises - Copy of Licence,Black Cap,"171 CAMDEN HIGH STREET, LONDON, NW1 7JY",LA2003,Application Approved In Full,No,,,,,,2014-11-12,,Camden Town,E05000130,Camden Town with Primrose Hill,528919.45,183783.2,-0.142543,51.538247,Nearest OS Open Map-Local Building,11/05/2017 07:37:30 PM,"(51.538247, -0.142543)",30559,http://opendatacommunities.org/id/london-borough-council/camden,1,Destination,originAPP\PREMISES-LICOPY\0102
4396,APP\PREMISES-LICOPY\0133,Premises - Copy of Licence,Hercules Pillars,"18 GREAT QUEEN STREET, LONDON, WC2B 5DG",LA2003,Application Approved In Full,No,,,,,,2015-12-05,,Seven Dials,E05000138,Holborn and Covent Garden,530459.49,181314.37,-0.12126300000000001,51.515707,Nearest OS Open Map-Local Building,11/05/2017 07:37:30 PM,"(51.515707, -0.121263)",30528,http://opendatacommunities.org/id/london-borough-council/camden,1,Destination,originAPP\PREMISES-LICOPY\0133
4540,APP\PREMISES-LICOPY\0014,Premises - Copy of Licence,Sheephaven Bay,"2 MORNINGTON STREET, LONDON, NW1 7QD",LA2003,Application Approved In Full,No,,,,,,2012-07-30,,Camden Town,E05000142,Regent's Park,528987.31,183448.01,-0.14168699999999998,51.53522,Nearest OS Open Map-Local Building,11/05/2017 07:37:30 PM,"(51.53522, -0.141687)",30643,http://opendatacommunities.org/id/london-borough-council/camden,1,Destination,originAPP\PREMISES-LICOPY\0014
4651,APP\PREMISES-LICOPY\0010,Premises - Copy of Licence,Rosslyn Arms,"48 ROSSLYN HILL, LONDON, NW3 1NH",LA2003,Application Approved In Full,No,,,,,,2012-12-07,,,E05000135,Hampstead Town,526772.89,185599.21,-0.172822,51.555053,Nearest OS Open Map-Local Building,11/05/2017 07:37:30 PM,"(51.555053, -0.172822)",30647,http://opendatacommunities.org/id/london-borough-council/camden,1,Destination,originAPP\PREMISES-LICOPY\0010
4759,APP\PREMISES-LICOPY\0068,Premises - Copy of Licence,28 Church Row,"28 CHURCH ROW, LONDON, NW3 6UP",LA2003,Application Approved In Full,No,,,,,,2013-08-11,,,E05000133,Frognal and Fitzjohns,526327.97,185619.81,-0.179229,51.555338,Nearest OS Open Map-Local Building,11/05/2017 07:37:30 PM,"(51.555338, -0.179229)",30593,http://opendatacommunities.org/id/london-borough-council/camden,1,Destination,originAPP\PREMISES-LICOPY\0068
4940,APP\PREMISES-LICOPY\0028,Premises - Copy of Licence,Strada,"6 GREAT QUEEN STREET, LONDON, WC2B 5DG",LA2003,Application Approved In Full,No,,,,,,2012-11-23,,Seven Dials,E05000138,Holborn and Covent Garden,530459.49,181314.37,-0.12126300000000001,51.515707,Nearest OS Open Map-Local Building,11/05/2017 07:37:30 PM,"(51.515707, -0.121263)",30629,http://opendatacommunities.org/id/london-borough-council/camden,1,Destination,originAPP\PREMISES-LICOPY\0028
4977,APP\PREMISES-LICOPY\0056,Premises - Copy of Licence,Be At One,"55 CAMDEN HIGH STREET, LONDON, NW1 7JH",LA2003,Application Approved In Full,No,,,,,,2013-03-07,,Camden Town,E05000142,Regent's Park,529083.06,183480.97,-0.140296,51.535494,Nearest OS Open Map-Local Building,11/05/2017 07:37:30 PM,"(51.535494, -0.140296)",30605,http://opendatacommunities.org/id/london-borough-council/camden,1,Destination,originAPP\PREMISES-LICOPY\0056
5346,APP\PREMISES-LICOPY\0078,Premises - Copy of Licence,Reverend JW Simpson,"32  34 GOODGE STREET, LONDON, W1T 2QJ",LA2003,Application Approved In Full,No,,,,,,2014-01-13,,,E05000129,Bloomsbury,529468.36,181750.5,-0.135379,51.519855,Nearest OS Open Map-Local Building,11/05/2017 07:37:30 PM,"(51.519855, -0.135379)",30583,http://opendatacommunities.org/id/london-borough-council/camden,1,Destination,originAPP\PREMISES-LICOPY\0078
5684,APP\PREMISES-LICOPY\0073,Premises - Copy of Licence,Kiera (formerly Nunu Cafe and Brasserie),"134 CHARING CROSS ROAD, LONDON, WC2H 0LA",LA2003,Application Approved In Full,No,,,,,,2013-11-29,,Seven Dials,E05000138,Holborn and Covent Garden,529890.6,181279.62,-0.12947,51.515526,Nearest OS Open Map-Local Building,11/05/2017 07:37:30 PM,"(51.515526, -0.12947)",30588,http://opendatacommunities.org/id/london-borough-council/camden,1,Destination,originAPP\PREMISES-LICOPY\0073
5702,APP\PREMISES-LICOPY\0169,Premises - Copy of Licence,Cobden Arms,"28  30 CAMDEN HIGH STREET, LONDON, NW1 0JH",LA2003,Application Approved In Full,No,,,,,,2016-04-29,,Camden Town,E05000142,Regent's Park,529197.39,183454.25,-0.138658,51.535228000000004,Nearest OS Open Map-Local Building,11/05/2017 07:37:30 PM,"(51.535228, -0.138658)",30496,http://opendatacommunities.org/id/london-borough-council/camden,1,Destination,originAPP\PREMISES-LICOPY\0169
5761,APP\PREMISES-LICOPY\0018,Premises - Copy of Licence,Flesh and Buns (previously Kitchen Italia),"41 EARLHAM STREET, LONDON, WC2H 9LX",LA2003,Application Approved In Full,No,,,,,,2012-08-17,,Seven Dials,E05000138,Holborn and Covent Garden,530134.56,181122.31,-0.12601400000000001,51.514056,Nearest OS Open Map-Local Building,11/05/2017 07:37:30 PM,"(51.514056, -0.126014)",30639,http://opendatacommunities.org/id/london-borough-council/camden,1,Destination,originAPP\PREMISES-LICOPY\0018
5844,APP\PREMISES-LICOPY\0021,Premises - Copy of Licence,Sunrise,"204 SHAFTESBURY AVENUE, LONDON, WC2H 8JL",LA2003,Application Approved In Full,No,,,,,,2012-08-20,,Seven Dials,E05000138,Holborn and Covent Garden,530128.31,181232.06,-0.126064,51.515044,Nearest OS Open Map-Local Building,11/05/2017 07:37:30 PM,"(51.515044, -0.126064)",30636,http://opendatacommunities.org/id/london-borough-council/camden,1,Destination,originAPP\PREMISES-LICOPY\0021
5853,APP\PREMISES-LICOPY\0149,Premises - Copy of Licence,The Horseshoe,"28 THE HORSESHOE HEATH STREET, LONDON, NW3 6TE",LA2003,Application Approved In Full,No,,,,,,2015-11-30,,,E05000135,Hampstead Town,526385.31,185716.08,-0.178368,51.55619,Nearest OS Open Map-Local Building,11/05/2017 07:37:30 PM,"(51.55619, -0.178368)",30513,http://opendatacommunities.org/id/london-borough-council/camden,1,Destination,originAPP\PREMISES-LICOPY\0149
5951,APP\PREMISES-LICOPY\0122,Premises - Copy of Licence,Premier - Kaasco,"146 CAMDEN HIGH STREET, LONDON, NW1 0NE",LA2003,Application Approved In Full,No,,,,,,2015-03-30,,Camden Town,E05000130,Camden Town with Primrose Hill,528966.15,183826.35,-0.141854,51.538624,Nearest OS Open Map-Local Building,11/05/2017 07:37:30 PM,"(51.538624, -0.141854)",30539,http://opendatacommunities.org/id/london-borough-council/camden,1,Destination,originAPP\PREMISES-LICOPY\0122
6418,APP\PREMISES-LICOPY\0209,Premises - Copy of Licence,Tikus Off Licence,"84 CASTLEHAVEN ROAD, LONDON, NW1 8PL",LA2003,Application Approved In Full,No,,,,,,2017-04-28,,,E05000130,Camden Town with Primrose Hill,528823.19,184528.77,-0.143657,51.544969,Nearest OS Open Map-Local Building,11/05/2017 07:37:30 PM,"(51.544969, -0.143657)",30457,http://opendatacommunities.org/id/london-borough-council/camden,1,Destination,originAPP\PREMISES-LICOPY\0209
6574,APP\PREMISES-LICOPY\0052,Premises - Copy of Licence,The Green Room (formerly Sushi Kou),"82 FORTUNE GREEN ROAD, LONDON, NW6 1DS",LA2003,Application Approved In Full,No,,,,,,2013-06-13,,,E05000132,Fortune Green,525132.11,185510.2,-0.196508,51.554619,Nearest OS Open Map-Local Building,11/05/2017 07:37:30 PM,"(51.554619, -0.196508)",30608,http://opendatacommunities.org/id/london-borough-council/camden,1,Destination,originAPP\PREMISES-LICOPY\0052
6649,APP\PREMISES-LICOPY\0177,Premises - Copy of Licence,Ravi Shankar Bhelpoori House,"133 135 DRUMMOND STREET, LONDON, NW1 2HL",LA2003,Application Approved In Full,No,,,,,,2016-01-08,,,E05000142,Regent's Park,529371.86,182534.27,-0.136481,51.526920000000004,Nearest OS Open Map-Local Building,11/05/2017 07:37:30 PM,"(51.52692, -0.136481)",30488,http://opendatacommunities.org/id/london-borough-council/camden,1,Destination,originAPP\PREMISES-LICOPY\0177
6793,APP\PREMISES-LICOPY\0120,Premises - Copy of Licence,Hampstead Food & Drinks,"200 WEST END LANE, LONDON, NW6 1SG",LA2003,Application Approved In Full,No,,,,,,2015-03-17,,,E05000145,West Hampstead,525520.26,184974.34,-0.191104,51.549717,Nearest OS Open Map-Local Building,11/05/2017 07:37:30 PM,"(51.549717, -0.191104)",30541,http://opendatacommunities.org/id/london-borough-council/camden,1,Destination,originAPP\PREMISES-LICOPY\0120
6831,APP\PREMISES-LICOPY\0033,Premises - Copy of Licence,Prince Of Wales Supermarket,"19 PRINCE OF WALES ROAD, LONDON, NW5 3LH",LA2003,Application Approved In Full,No,,,,,,2012-12-19,,,E05000139,Kentish Town,528758.13,184678.31,-0.14454,51.546328,Nearest OS Open Map-Local Building,11/05/2017 07:37:30 PM,"(51.546328, -0.14454)",30625,http://opendatacommunities.org/id/london-borough-council/camden,1,Destination,originAPP\PREMISES-LICOPY\0033
7034,APP\PREMISES-LICOPY\0060,Premises - Copy of Licence,JW3,"341351 JEWISH COMMUNITY CENTRE FINCHLEY ROAD, LONDON, NW3 6ET",LA2003,Application Approved In Full,No,,,,,,2013-04-09,,,E05000145,West Hampstead,525954.49,185128.2,-0.184789,51.551003,Nearest OS Open Map-Local Building,11/05/2017 07:37:30 PM,"(51.551003, -0.184789)",30601,http://opendatacommunities.org/id/london-borough-council/camden,1,Destination,originAPP\PREMISES-LICOPY\0060
7373,APP\PREMISES-LICOPY\0024,Premises - Copy of Licence,Foodlink,"119 FINCHLEY ROAD, LONDON, NW3 6HY",LA2003,Application Approved In Full,No,,,,,,2012-11-09,,,E05000144,Swiss Cottage,526612.06,184280.06,-0.17561500000000002,51.543234000000005,Nearest OS Open Map-Local Building,11/05/2017 07:37:30 PM,"(51.543234, -0.175615)",30633,http://opendatacommunities.org/id/london-borough-council/camden,1,Destination,originAPP\PREMISES-LICOPY\0024
7608,APP\PREMISES-LICOPY\0141,Premises - Copy of Licence,Made in Brasil Boteco (formerly Coco Bamboo),"48 CHALK FARM ROAD, LONDON, NW1 8AJ",LA2003,Application Approved In Full,No,,,,,,2015-07-10,,Camden Town,E05000136,Haverstock,528500.65,184316.98,-0.148383,51.54314,Nearest OS Open Map-Local Building,11/05/2017 07:37:30 PM,"(51.54314, -0.148383)",30520,http://opendatacommunities.org/id/london-borough-council/camden,1,Destination,originAPP\PREMISES-LICOPY\0141
7788,APP\PREMISES-LICOPY\0161,Premises - Copy of Licence,New Market Inn,"17 YORK WAY, LONDON, N7 9QG",LA2003,Application Approved In Full,No,,,,,,2016-07-03,,,E05000131,Cantelowes,530004.99,184347.96,-0.126691,51.543074,Nearest OS Open Map-Local Building,11/05/2017 07:37:30 PM,"(51.543074, -0.126691)",30504,http://opendatacommunities.org/id/london-borough-council/camden,1,Destination,originAPP\PREMISES-LICOPY\0161
7823,APP\PREMISES-LICOPY\0175,Premises - Copy of Licence,Covent Garden Health Spa,"29 ENDELL STREET, LONDON, WC2H 9BA",LA2003,Application Approved In Full,No,,,,,,2016-11-07,,Seven Dials,E05000138,Holborn and Covent Garden,530211.81,181163.2,-0.12488599999999998,51.514406,Nearest OS Open Map-Local Building,11/05/2017 07:37:30 PM,"(51.514406, -0.124886)",30490,http://opendatacommunities.org/id/london-borough-council/camden,1,Destination,originAPP\PREMISES-LICOPY\0175
7851,APP\PREMISES-LICOPY\0038,Premises - Copy of Licence,Camden Assembly,"49 CHALK FARM ROAD, LONDON, NW1 8AN",LA2003,Application Approved In Full,No,,,,,,2013-06-02,,Camden Town,E05000130,Camden Town with Primrose Hill,528405.85,184285.95,-0.14976099999999998,51.542882,Nearest OS Open Map-Local Building,11/05/2017 07:37:30 PM,"(51.542882, -0.149761)",30620,http://opendatacommunities.org/id/london-borough-council/camden,1,Destination,originAPP\PREMISES-LICOPY\0038
8045,APP\PREMISES-LICOPY\0111,Premises - Copy of Licence,The Offy and General Store,"25 TOLMERS SQUARE, LONDON, NW1 2PE",LA2003,Application Approved In Full,No,,,,,,2015-02-18,,,E05000142,Regent's Park,529272.69,182476.31,-0.137931,51.526422,Nearest OS Open Map-Local Building,11/05/2017 07:37:30 PM,"(51.526422, -0.137931)",30550,http://opendatacommunities.org/id/london-borough-council/camden,1,Destination,originAPP\PREMISES-LICOPY\0111
8140,APP\PREMISES-LICOPY\0206,Premises - Copy of Licence,Brasserie Blanc,"8 CHARLOTTE STREET, LONDON, W1T 2LS",LA2003,Application Approved In Full,No,,,,,,2017-03-04,,,,,529490.27,181592.82,-0.135121,51.518432000000004,Nearest OS Open Map-Local Building,11/05/2017 07:37:30 PM,"(51.518432, -0.135121)",30460,http://opendatacommunities.org/id/london-borough-council/camden,1,Destination,originAPP\PREMISES-LICOPY\0206
8174,APP\PREMISES-LICOPY\0160,Premises - Copy of Licence,Bengal Spice Restaurant,"245 WEST END LANE, LONDON, NW6 1XN",LA2003,Application Approved In Full,No,,,,,,2016-03-03,,,E05000145,West Hampstead,525520.26,184974.34,-0.191104,51.549717,Nearest OS Open Map-Local Building,11/05/2017 07:37:30 PM,"(51.549717, -0.191104)",30505,http://opendatacommunities.org/id/london-borough-council/camden,1,Destination,originAPP\PREMISES-LICOPY\0160
8277,APP\PREMISES-LICOPY\0200,Premises - Copy of Licence,Kimchee,"2 PANCRAS SQUARE, LONDON, N1C 4AG",LA2003,Application Approved In Full,No,,,,,,2017-03-13,,,E05000143,St Pancras and Somers Town,530144.56,183288.16,-0.12507100000000002,51.533518,Nearest OS Open Map-Local Building,11/05/2017 07:37:30 PM,"(51.533518, -0.125071)",30466,http://opendatacommunities.org/id/london-borough-council/camden,1,Destination,originAPP\PREMISES-LICOPY\0200
8319,APP\PREMISES-LICOPY\0134,Premises - Copy of Licence,Strada,"6 GREAT QUEEN STREET, LONDON, WC2B 5DG",LA2003,Application Approved In Full,No,,,,,,2015-07-22,,Seven Dials,E05000138,Holborn and Covent Garden,530459.49,181314.37,-0.12126300000000001,51.515707,Nearest OS Open Map-Local Building,11/05/2017 07:37:30 PM,"(51.515707, -0.121263)",30527,http://opendatacommunities.org/id/london-borough-council/camden,1,Destination,originAPP\PREMISES-LICOPY\0134
8878,APP\PREMISES-LICOPY\0101,Premises - Copy of Licence,NWC (formerly Legacy),"135 FINCHLEY ROAD, LONDON, NW3 6JH",LA2003,Application Approved In Full,No,,,,,,2014-09-12,,,E05000144,Swiss Cottage,526612.06,184280.06,-0.17561500000000002,51.543234000000005,Nearest OS Open Map-Local Building,11/05/2017 07:37:30 PM,"(51.543234, -0.175615)",30560,http://opendatacommunities.org/id/london-borough-council/camden,1,Destination,originAPP\PREMISES-LICOPY\0101
8921,APP\PREMISES-LICOPY\0044,Premises - Copy of Licence,Compagnie des Vins Surnaturel,"8  10 NEAL'S YARD, LONDON, WC2H 9DP",LA2003,Application Approved In Full,No,,,,,,2013-04-19,,Seven Dials,E05000138,Holborn and Covent Garden,530096.62,181164.76,-0.126545,51.514446,Nearest OS Open Map-Local Building,11/05/2017 07:37:30 PM,"(51.514446, -0.126545)",30614,http://opendatacommunities.org/id/london-borough-council/camden,1,Destination,originAPP\PREMISES-LICOPY\0044
8939,APP\PREMISES-LICOPY\0167,Premises - Copy of Licence,The Bull Steak Expert Limited,"54 RED LION STREET, LONDON, WC1R 4PD",LA2003,Application Approved In Full,No,,,,,,2016-04-26,,,E05000138,Holborn and Covent Garden,530721.76,181731.7,-0.11733099999999999,51.519397,Nearest OS Open Map-Local Building,11/05/2017 07:37:30 PM,"(51.519397, -0.117331)",30498,http://opendatacommunities.org/id/london-borough-council/camden,1,Destination,originAPP\PREMISES-LICOPY\0167
8990,APP\PREMISES-LICOPY\0208,Premises - Copy of Licence,The T.E. Dingwall Building (Formerly Lock 17/Highlight),"EAST YARD CAMDEN LOCK PLACE, LONDON, NW1 8AL",LA2003,Application Approved In Full,No,,,,,,2017-03-24,,Camden Town,E05000130,Camden Town with Primrose Hill,528681.08,184131.14,-0.145851,51.541428,Nearest OS Open Map-Local Building,11/05/2017 07:37:30 PM,"(51.541428, -0.145851)",30458,http://opendatacommunities.org/id/london-borough-council/camden,1,Destination,originAPP\PREMISES-LICOPY\0208
9036,APP\PREMISES-LICOPY\0121,Premises - Copy of Licence,Joys Cards and News,"3 BACK HILL, LONDON, EC1R 5EN",LA2003,Application Approved In Full,No,,,,,,2015-03-18,,,E05000138,Holborn and Covent Garden,531225.62,182076.7,-0.109945,51.522381,Nearest OS Open Map-Local Building,11/05/2017 07:37:30 PM,"(51.522381, -0.109945)",30540,http://opendatacommunities.org/id/london-borough-council/camden,1,Destination,originAPP\PREMISES-LICOPY\0121
9288,APP\PREMISES-LICOPY\0123,Premises - Copy of Licence,Valencia Cafe,"74 MARCHMONT STREET, LONDON, WC1N 1AB",LA2003,Application Approved In Full,No,,,,,,2015-04-23,,,E05000129,Bloomsbury,530167.12,182389.54,-0.125078,51.525437,Nearest OS Open Map-Local Building,11/05/2017 07:37:30 PM,"(51.525437, -0.125078)",30538,http://opendatacommunities.org/id/london-borough-council/camden,1,Destination,originAPP\PREMISES-LICOPY\0123
9394,APP\PREMISES-LICOPY\0072,Premises - Copy of Licence,The Crowndale,"61  65 CROWNDALE ROAD, LONDON, NW1 1TN",LA2003,Application Approved In Full,No,,,,,,2013-09-12,,Camden Town,E05000142,Regent's Park,529270.44,183351.25,-0.13764300000000002,51.534285,Nearest OS Open Map-Local Building,11/05/2017 07:37:30 PM,"(51.534285, -0.137643)",30589,http://opendatacommunities.org/id/london-borough-council/camden,1,Destination,originAPP\PREMISES-LICOPY\0072
9427,APP\PREMISES-LICOPY\0168,Premises - Copy of Licence,Village Stores,"62 LAWFORD ROAD, LONDON, NW5 2LN",LA2003,Application Approved In Full,No,,,,,,2016-04-28,,,E05000131,Cantelowes,529360.33,184675.33,-0.13586199999999998,51.546164000000005,Nearest OS Open Map-Local Building,11/05/2017 07:37:30 PM,"(51.546164, -0.135862)",30497,http://opendatacommunities.org/id/london-borough-council/camden,1,Destination,originAPP\PREMISES-LICOPY\0168
9545,APP\PREMISES-LICOPY\0188,Premises - Copy of Licence,Rosa's Thai Cafe,"26 EARLHAM STREET, LONDON, WC2H 9LN",LA2003,Application Approved In Full,No,,,,,,2016-12-21,,Seven Dials,E05000138,Holborn and Covent Garden,530045.49,181068.86,-0.127317,51.513596,Nearest OS Open Map-Local Building,11/05/2017 07:37:30 PM,"(51.513596, -0.127317)",30477,http://opendatacommunities.org/id/london-borough-council/camden,1,Destination,originAPP\PREMISES-LICOPY\0188
9683,APP\PREMISES-LICOPY\0030,Premises - Copy of Licence,Joe's Southern Table & Bar,"298 302 KENTISH TOWN ROAD, LONDON, NW5 2TG",LA2003,Application Approved In Full,No,,,,,,2012-11-26,,,E05000139,Kentish Town,529038.33,185212.57,-0.140306,51.551065,Nearest OS Open Map-Local Building,11/05/2017 07:37:30 PM,"(51.551065, -0.140306)",30628,http://opendatacommunities.org/id/london-borough-council/camden,1,Destination,originAPP\PREMISES-LICOPY\0030
9699,APP\PREMISES-LICOPY\0156,Premises - Copy of Licence,Market,"43 PARKWAY, LONDON, NW1 7PN",LA2003,Application Approved In Full,No,,,,,,2016-10-02,,Camden Town,E05000130,Camden Town with Primrose Hill,528728.91,183764.09,-0.145295,51.538119,Nearest OS Open Map-Local Building,11/05/2017 07:37:30 PM,"(51.538119, -0.145295)",30509,http://opendatacommunities.org/id/london-borough-council/camden,1,Destination,originAPP\PREMISES-LICOPY\0156
10480,APP\PREMISES-LICOPY\0205,Premises - Copy of Licence,La Rossella (previously Pasta Habit),"103 HIGHGATE ROAD, LONDON, NW5 1TR",LA2003,Application Approved In Full,No,,,,,,2017-03-31,,,E05000137,Highgate,528668.25,185666.66,-0.145474,51.55523,Nearest OS Open Map-Local Building,11/05/2017 07:37:30 PM,"(51.55523, -0.145474)",30461,http://opendatacommunities.org/id/london-borough-council/camden,1,Destination,originAPP\PREMISES-LICOPY\0205
10525,APP\PREMISES-LICOPY\0037,Premises - Copy of Licence,Crowndale Off Licence,"8 CROWNDALE ROAD, LONDON, NW1 1TT",LA2003,Application Approved In Full,No,,,,,,2012-12-19,,,E05000143,St Pancras and Somers Town,529517.74,183505.9,-0.134023,51.535618,Nearest OS Open Map-Local Building,11/05/2017 07:37:30 PM,"(51.535618, -0.134023)",30621,http://opendatacommunities.org/id/london-borough-council/camden,1,Destination,originAPP\PREMISES-LICOPY\0037
10749,APP\PREMISES-LICOPY\0113,Premises - Copy of Licence,Wildwood Kitchen (Cafe Pasta),"184 SHAFTESBURY AVENUE, LONDON, WC2H 8JB",LA2003,Application Approved In Full,No,,,,,,2015-02-23,,Seven Dials,E05000138,Holborn and Covent Garden,530027.65,181220.39,-0.12751800000000002,51.514962,Nearest OS Open Map-Local Building,11/05/2017 07:37:30 PM,"(51.514962, -0.127518)",30548,http://opendatacommunities.org/id/london-borough-council/camden,1,Destination,originAPP\PREMISES-LICOPY\0113
10832,APP\PREMISES-LICOPY\0144,Premises - Copy of Licence,The Ninth,"22 CHARLOTTE STREET, LONDON, W1T 2NB",LA2003,Application Approved In Full,No,,,,,,2015-09-25,,,E05000129,Bloomsbury,529528.04,181652.4,-0.134555,51.518959,Nearest OS Open Map-Local Building,11/05/2017 07:37:30 PM,"(51.518959, -0.134555)",30517,http://opendatacommunities.org/id/london-borough-council/camden,1,Destination,originAPP\PREMISES-LICOPY\0144
11136,APP\PREMISES-LICOPY\0183,Premises - Copy of Licence,Swiss Cottage Hotel,"4 ADAMSON ROAD, LONDON, NW3 3HP",LA2003,Application Approved In Full,No,,,,,,2016-03-11,,,E05000128,Belsize,526812.44,184424.26,-0.172675,51.544484999999995,Nearest OS Open Map-Local Building,11/05/2017 07:37:30 PM,"(51.544485, -0.172675)",30482,http://opendatacommunities.org/id/london-borough-council/camden,1,Destination,originAPP\PREMISES-LICOPY\0183
11256,APP\PREMISES-LICOPY\0095,Premises - Copy of Licence,Bea's of Bloomsbury,"44 THEOBALD'S ROAD, LONDON, WC1X 8NW",LA2003,Application Approved In Full,No,,,,,,2014-09-16,,,E05000138,Holborn and Covent Garden,530809.44,181960.47,-0.11598299999999999,51.521433,Nearest OS Open Map-Local Building,11/05/2017 07:37:30 PM,"(51.521433, -0.115983)",30566,http://opendatacommunities.org/id/london-borough-council/camden,1,Destination,originAPP\PREMISES-LICOPY\0095
11281,APP\PREMISES-LICOPY\0064,Premises - Copy of Licence,Marks & Spencer Simply Food (1) Unit 23,"ST PANCRAS INTERNATIONAL STATION EUSTON ROAD, LONDON, N1C 4QL",LA2003,Application Approved In Full,No,,,,,,2013-10-14,,,E05000143,St Pancras and Somers Town,530045.03,183091.73,-0.126577,51.531775,Nearest OS Open Map-Local Building,11/05/2017 07:37:30 PM,"(51.531775, -0.126577)",30597,http://opendatacommunities.org/id/london-borough-council/camden,1,Destination,originAPP\PREMISES-LICOPY\0064
11381,APP\PREMISES-LICOPY\0019,Premises - Copy of Licence,Sunrise,"204 SHAFTESBURY AVENUE, LONDON, WC2H 8JL",LA2003,Application Approved In Full,No,,,,,,2012-08-20,,Seven Dials,E05000138,Holborn and Covent Garden,530128.31,181232.06,-0.126064,51.515044,Nearest OS Open Map-Local Building,11/05/2017 07:37:30 PM,"(51.515044, -0.126064)",30638,http://opendatacommunities.org/id/london-borough-council/camden,1,Destination,originAPP\PREMISES-LICOPY\0019
11575,APP\PREMISES-LICOPY\0071,Premises - Copy of Licence,Sir Richard Steele,"97 HAVERSTOCK HILL, LONDON, NW3 4RL",LA2003,Application Approved In Full,No,,,,,,2013-04-12,,,E05000128,Belsize,527774.46,184692.48,-0.15871300000000002,51.546679,Nearest OS Open Map-Local Building,11/05/2017 07:37:30 PM,"(51.546679, -0.158713)",30590,http://opendatacommunities.org/id/london-borough-council/camden,1,Destination,originAPP\PREMISES-LICOPY\0071
11623,APP\PREMISES-LICOPY\0104,Premises - Copy of Licence,Supersave Food & Wine,"2 CRICKLEWOOD BROADWAY, LONDON, NW2 3HD",LA2003,Application Approved In Full,No,,,,,,2014-12-16,,,E05000132,Fortune Green,524227.18,185261.68,-0.209642,51.552585,Nearest OS Open Map-Local Building,11/05/2017 07:37:30 PM,"(51.552585, -0.209642)",30557,http://opendatacommunities.org/id/london-borough-council/camden,1,Destination,originAPP\PREMISES-LICOPY\0104
11660,APP\PREMISES-LICOPY\0049,Premises - Copy of Licence,East Lodge,"188 EAST LODGE EUSTON ROAD, LONDON, NW1 2EF",LA2003,Application Approved In Full,No,,,,,,2013-05-15,,,E05000142,Regent's Park,529668.79,182565.04,-0.132192,51.527128999999995,Nearest OS Open Map-Local Building,11/05/2017 07:37:30 PM,"(51.527129, -0.132192)",30610,http://opendatacommunities.org/id/london-borough-council/camden,1,Destination,originAPP\PREMISES-LICOPY\0049
11824,APP\PREMISES-LICOPY\0093,Premises - Copy of Licence,Be At One,"55 CAMDEN HIGH STREET, LONDON, NW1 7JH",LA2003,Application Approved In Full,No,,,,,,2014-09-15,,Camden Town,E05000142,Regent's Park,529083.06,183480.97,-0.140296,51.535494,Nearest OS Open Map-Local Building,11/05/2017 07:37:30 PM,"(51.535494, -0.140296)",30568,http://opendatacommunities.org/id/london-borough-council/camden,1,Destination,originAPP\PREMISES-LICOPY\0093
11909,APP\PREMISES-LICOPY\0192,Premises - Copy of Licence,La du du,"152 HASKELL HOUSE WEST END LANE, LONDON, NW6 1SD",LA2003,Application Approved In Full,No,,,,,,2017-09-02,,,E05000145,West Hampstead,525557.5,184767.78,-0.190641,51.547853,Nearest OS Open Map-Local Building,11/05/2017 07:37:30 PM,"(51.547853, -0.190641)",30473,http://opendatacommunities.org/id/london-borough-council/camden,1,Destination,originAPP\PREMISES-LICOPY\0192
12152,APP\PREMISES-LICOPY\0002,Premises - Copy of Licence,Priory Tavern,"250 BELSIZE ROAD, LONDON, NW6 4BT",LA2003,Application Approved In Full,No,,,,,,2012-01-19,,,E05000140,Kilburn,525558.04,183736.11,-0.191,51.538581,Nearest OS Open Map-Local Building,11/05/2017 07:37:30 PM,"(51.538581, -0.191)",30655,http://opendatacommunities.org/id/london-borough-council/camden,1,Destination,originAPP\PREMISES-LICOPY\0002
12321,APP\PREMISES-LICOPY\0094,Premises - Copy of Licence,Ideal Stores,"65  69 WERRINGTON STREET, LONDON, NW1 1QP",LA2003,Application Approved In Full,No,,,,,,2014-05-09,,,E05000143,St Pancras and Somers Town,529526.98,183156.56,-0.134018,51.532477,Nearest OS Open Map-Local Building,11/05/2017 07:37:30 PM,"(51.532477, -0.134018)",30567,http://opendatacommunities.org/id/london-borough-council/camden,1,Destination,originAPP\PREMISES-LICOPY\0094
12416,APP\PREMISES-LICOPY\0103,Premises - Copy of Licence,West 9 Food & Wine,"124 WEST END LANE, LONDON, NW6 1SA",LA2003,Application Approved In Full,No,,,,,,2014-12-15,,,E05000145,West Hampstead,525550.25,184701.7,-0.190768,51.547259999999994,Nearest OS Open Map-Local Building,11/05/2017 07:37:30 PM,"(51.54726, -0.190768)",30558,http://opendatacommunities.org/id/london-borough-council/camden,1,Destination,originAPP\PREMISES-LICOPY\0103
12522,APP\PREMISES-LICOPY\0004,Premises - Copy of Licence,Unwins,"84 MARCHMONT STREET, LONDON, WC1N 1AG",LA2003,Application Approved In Full,No,,,,,,2012-02-15,,,E05000141,King's Cross,530182.15,182481.24,-0.124827,51.526258,Nearest OS Open Map-Local Building,11/05/2017 07:37:30 PM,"(51.526258, -0.124827)",30653,http://opendatacommunities.org/id/london-borough-council/camden,1,Destination,originAPP\PREMISES-LICOPY\0004
12633,APP\PREMISES-LICOPY\0022,Premises - Copy of Licence,GEORGE P.H.,"8 GREAT QUEEN STREET, LONDON, WC2B 5DH",LA2003,Application Approved In Full,No,,,,,,2012-11-09,,Seven Dials,E05000138,Holborn and Covent Garden,530459.49,181314.37,-0.12126300000000001,51.515707,Nearest OS Open Map-Local Building,11/05/2017 07:37:30 PM,"(51.515707, -0.121263)",30635,http://opendatacommunities.org/id/london-borough-council/camden,1,Destination,originAPP\PREMISES-LICOPY\0022
12770,APP\PREMISES-LICOPY\0086,Premises - Copy of Licence,The Junction Tavern,"101 FORTESS ROAD, LONDON, NW5 1AG",LA2003,Application Approved In Full,No,,,,,,2014-07-30,,,E05000139,Kentish Town,529040.0,185653.71,-0.14012,51.555029,Nearest OS Open Map-Local Building,11/05/2017 07:37:30 PM,"(51.555029, -0.14012)",30575,http://opendatacommunities.org/id/london-borough-council/camden,1,Destination,originAPP\PREMISES-LICOPY\0086
12917,APP\PREMISES-LICOPY\0042,Premises - Copy of Licence,Bubbledogs &,"70 CHARLOTTE STREET, LONDON, W1T 4QG",LA2003,Application Approved In Full,No,,,,,,2013-05-04,,,E05000129,Bloomsbury,529405.96,181839.98,-0.136245,51.520672999999995,Nearest OS Open Map-Local Building,11/05/2017 07:37:30 PM,"(51.520673, -0.136245)",30616,http://opendatacommunities.org/id/london-borough-council/camden,1,Destination,originAPP\PREMISES-LICOPY\0042
13053,APP\PREMISES-LICOPY\0179,Premises - Copy of Licence,Ladies and Gentlemen,"PUBLIC CONVENIENCES HIGHGATE ROAD,",LA2003,Application Approved In Full,No,,,,,,2016-06-23,,,E05000137,Highgate,528217.41,186119.31,-0.151809,51.559401,Nearest OS Open Map-Local Building,11/05/2017 07:37:30 PM,"(51.559401, -0.151809)",30486,http://opendatacommunities.org/id/london-borough-council/camden,1,Destination,originAPP\PREMISES-LICOPY\0179
13101,APP\PREMISES-LICOPY\0099,Premises - Copy of Licence,Union Bar and Grill,"11 TRITON STREET, LONDON, NW1 3BF",LA2003,Application Approved In Full,No,,,,,,2014-06-11,,,E05000142,Regent's Park,528961.96,182330.29,-0.14246099999999998,51.525180999999996,Nearest OS Open Map-Local Building,11/05/2017 07:37:30 PM,"(51.525181, -0.142461)",30562,http://opendatacommunities.org/id/london-borough-council/camden,1,Destination,originAPP\PREMISES-LICOPY\0099
13121,APP\PREMISES-LICOPY\0062,Premises - Copy of Licence,White Horse,"154 156 FLEET ROAD, LONDON, NW3 2QX",LA2003,Application Approved In Full,No,,,,,,2013-09-09,,,E05000134,Gospel Oak,527311.32,185537.58,-0.16508299999999998,51.554378,Nearest OS Open Map-Local Building,11/05/2017 07:37:30 PM,"(51.554378, -0.165083)",30599,http://opendatacommunities.org/id/london-borough-council/camden,1,Destination,originAPP\PREMISES-LICOPY\0062
13150,APP\PREMISES-LICOPY\0020,Premises - Copy of Licence,Diamond Supermarket,"87 HAVERSTOCK HILL, LONDON, NW3 4RL",LA2003,Application Approved In Full,No,,,,,,2012-08-23,,,E05000128,Belsize,527774.46,184692.48,-0.15871300000000002,51.546679,Nearest OS Open Map-Local Building,11/05/2017 07:37:30 PM,"(51.546679, -0.158713)",30637,http://opendatacommunities.org/id/london-borough-council/camden,1,Destination,originAPP\PREMISES-LICOPY\0020
13872,APP\PREMISES-LICOPY\0182,Premises - Copy of Licence,Hache Burger Connoisseurs Ltd,"24 INVERNESS STREET, LONDON, NW1 7HJ",LA2003,Application Approved In Full,No,,,,,,2016-09-21,,Camden Town,E05000130,Camden Town with Primrose Hill,528778.86,183979.04,-0.14449700000000001,51.540039,Nearest OS Open Map-Local Building,11/05/2017 07:37:30 PM,"(51.540039, -0.144497)",30483,http://opendatacommunities.org/id/london-borough-council/camden,1,Destination,originAPP\PREMISES-LICOPY\0182
14685,APP\PREMISES-LICOPY\0189,Premises - Copy of Licence,Rosslyn Delicatessen,"56 ROSSLYN HILL, LONDON, NW3 1ND",LA2003,Application Approved In Full,No,,,,,,2017-01-13,,,E05000135,Hampstead Town,526730.59,185621.08,-0.173424,51.555259,Nearest OS Open Map-Local Building,11/05/2017 07:37:30 PM,"(51.555259, -0.173424)",30476,http://opendatacommunities.org/id/london-borough-council/camden,1,Destination,originAPP\PREMISES-LICOPY\0189
14863,APP\PREMISES-LICOPY\0191,Premises - Copy of Licence,Malden Food & Wine,"10 MALDEN ROAD, LONDON, NW5 3HR",LA2003,Application Approved In Full,No,,,,,,2017-06-02,,,E05000136,Haverstock,528302.9,184639.18,-0.151116,51.546079999999996,Nearest OS Open Map-Local Building,11/05/2017 07:37:30 PM,"(51.54608, -0.151116)",30474,http://opendatacommunities.org/id/london-borough-council/camden,1,Destination,originAPP\PREMISES-LICOPY\0191
14925,APP\PREMISES-LICOPY\0067,Premises - Copy of Licence,Super Choice,"151 QUEEN'S CRESCENT, LONDON, NW5 4ED",LA2003,Application Rejected,No,,,,,,2013-06-11,,,E05000134,Gospel Oak,528193.34,185071.4,-0.15253699999999998,51.549989000000004,Nearest OS Open Map-Local Building,11/05/2017 07:37:30 PM,"(51.549989, -0.152537)",30594,http://opendatacommunities.org/id/london-borough-council/camden,1,Destination,originAPP\PREMISES-LICOPY\0067
15272,APP\PREMISES-LICOPY\0164,Premises - Copy of Licence,Love & Liquor,"34 KILBURN HIGH ROAD, LONDON, NW6 5UA",LA2003,Application Approved In Full,No,,,,,,2016-04-18,,,E05000140,Kilburn,525533.39,183527.2,-0.19143,51.536709,Nearest OS Open Map-Local Building,11/05/2017 07:37:30 PM,"(51.536709, -0.19143)",30501,http://opendatacommunities.org/id/london-borough-council/camden,1,Destination,originAPP\PREMISES-LICOPY\0164
15436,APP\PREMISES-LICOPY\0162,Premises - Copy of Licence,Royal Exchange,"57 HARTLAND ROAD, LONDON, NW1 8DB",LA2003,Application Approved In Full,No,,,,,,2016-03-15,,Camden Town,E05000130,Camden Town with Primrose Hill,528675.34,184401.5,-0.145834,51.543859000000005,Nearest OS Open Map-Local Building,11/05/2017 07:37:30 PM,"(51.543859, -0.145834)",30503,http://opendatacommunities.org/id/london-borough-council/camden,1,Destination,originAPP\PREMISES-LICOPY\0162
15458,APP\PREMISES-LICOPY\0180,Premises - Copy of Licence,Academy Town House Hotel Ltd,"17  25 GOWER STREET, LONDON, WC1E 6HG",LA2003,Application Approved In Full,No,,,,,,2016-02-08,,,E05000129,Bloomsbury,529754.16,181856.1,-0.131223,51.520738,Nearest OS Open Map-Local Building,11/05/2017 07:37:30 PM,"(51.520738, -0.131223)",30485,http://opendatacommunities.org/id/london-borough-council/camden,1,Destination,originAPP\PREMISES-LICOPY\0180
15730,APP\PREMISES-LICOPY\0076,Premises - Copy of Licence,East Lodge,"188 EAST LODGE EUSTON ROAD, LONDON, NW1 2EF",LA2003,Application Approved In Full,No,,,,,,2013-11-12,,,E05000142,Regent's Park,529668.79,182565.04,-0.132192,51.527128999999995,Nearest OS Open Map-Local Building,11/05/2017 07:37:30 PM,"(51.527129, -0.132192)",30585,http://opendatacommunities.org/id/london-borough-council/camden,1,Destination,originAPP\PREMISES-LICOPY\0076
15841,APP\PREMISES-LICOPY\0006,Premises - Copy of Licence,Smugglers Tavern,"28 WARREN STREET, LONDON, W1T 5ND",LA2003,Application Approved In Full,No,,,,,,2012-05-23,,,E05000129,Bloomsbury,529087.01,182151.41,-0.140725,51.523545,Nearest OS Open Map-Local Building,11/05/2017 07:37:30 PM,"(51.523545, -0.140725)",30651,http://opendatacommunities.org/id/london-borough-council/camden,1,Destination,originAPP\PREMISES-LICOPY\0006
16286,APP\PREMISES-LICOPY\0151,Premises - Copy of Licence,Camden Assembly,"49 CHALK FARM ROAD, LONDON, NW1 8AN",LA2003,Application Approved,No,,,,,,2015-10-12,10/12/2015,Camden Town,E05000130,Camden Town with Primrose Hill,528405.85,184285.95,-0.14976099999999998,51.542882,Nearest OS Open Map-Local Building,11/05/2017 07:37:30 PM,"(51.542882, -0.149761)",30512,http://opendatacommunities.org/id/london-borough-council/camden,1,Destination,originAPP\PREMISES-LICOPY\0151
16390,APP\PREMISES-LICOPY\0202,Premises - Copy of Licence,White Horse,"154 156 FLEET ROAD, LONDON, NW3 2QX",LA2003,Application Approved In Full,No,,,,,,2017-03-21,,,E05000134,Gospel Oak,527311.32,185537.58,-0.16508299999999998,51.554378,Nearest OS Open Map-Local Building,11/05/2017 07:37:30 PM,"(51.554378, -0.165083)",30464,http://opendatacommunities.org/id/london-borough-council/camden,1,Destination,originAPP\PREMISES-LICOPY\0202
16473,APP\PREMISES-LICOPY\0027,Premises - Copy of Licence,White Horse,"154 156 FLEET ROAD, LONDON, NW3 2QX",LA2003,Application Approved In Full,No,,,,,,2012-11-23,,,E05000134,Gospel Oak,527311.32,185537.58,-0.16508299999999998,51.554378,Nearest OS Open Map-Local Building,11/05/2017 07:37:30 PM,"(51.554378, -0.165083)",30630,http://opendatacommunities.org/id/london-borough-council/camden,1,Destination,originAPP\PREMISES-LICOPY\0027
16527,APP\PREMISES-LICOPY\0197,Premises - Copy of Licence,Hason Raja,"84 SOUTHAMPTON ROW, LONDON, WC1B 4BB",LA2003,Application Approved In Full,No,,,,,,2017-02-03,,,E05000138,Holborn and Covent Garden,530397.56,181815.73,-0.12197000000000001,51.520227,Nearest OS Open Map-Local Building,11/05/2017 07:37:30 PM,"(51.520227, -0.12197)",30469,http://opendatacommunities.org/id/london-borough-council/camden,1,Destination,originAPP\PREMISES-LICOPY\0197
16861,APP\PREMISES-LICOPY\0035,Premises - Copy of Licence,Benito's Hat,"KINGS CROSS RAILWAY STATION EUSTON ROAD, LONDON, N1 9AP",LA2003,Application Approved In Full,No,,,,,,2012-12-13,,,E05000143,St Pancras and Somers Town,530247.52,183117.31,-0.12365,51.531959,Nearest OS Open Map-Local Building,11/05/2017 07:37:30 PM,"(51.531959, -0.12365)",30623,http://opendatacommunities.org/id/london-borough-council/camden,1,Destination,originAPP\PREMISES-LICOPY\0035
16905,APP\PREMISES-LICOPY\0069,Premises - Copy of Licence,White Horse,"154 156 FLEET ROAD, LONDON, NW3 2QX",LA2003,Application Approved In Full,No,,,,,,2013-11-20,,,E05000134,Gospel Oak,527311.32,185537.58,-0.16508299999999998,51.554378,Nearest OS Open Map-Local Building,11/05/2017 07:37:30 PM,"(51.554378, -0.165083)",30592,http://opendatacommunities.org/id/london-borough-council/camden,1,Destination,originAPP\PREMISES-LICOPY\0069
17142,APP\PREMISES-LICOPY\0050,Premises - Copy of Licence,Holborn Whippet (FormerlyFathers Study),"25  27 SICILIAN AVENUE, LONDON, WC1A 2QH",LA2003,Application Approved In Full,No,,,,,,2013-05-15,,Seven Dials,E05000138,Holborn and Covent Garden,530449.24,181640.04,-0.12129000000000001,51.518636,Nearest OS Open Map-Local Building,11/05/2017 07:37:30 PM,"(51.518636, -0.12129)",30609,http://opendatacommunities.org/id/london-borough-council/camden,1,Destination,originAPP\PREMISES-LICOPY\0050
17187,APP\PREMISES-LICOPY\0201,Premises - Copy of Licence,Chilango,"12 LEATHER LANE, LONDON, EC1N 7SS",LA2003,Application Approved In Full,No,,,,,,2017-03-15,,,E05000138,Holborn and Covent Garden,531335.61,181650.94,-0.108519,51.518529,Nearest OS Open Map-Local Building,11/05/2017 07:37:30 PM,"(51.518529, -0.108519)",30465,http://opendatacommunities.org/id/london-borough-council/camden,1,Destination,originAPP\PREMISES-LICOPY\0201
17742,APP\PREMISES-LICOPY\0116,Premises - Copy of Licence,Sevilla Mia,"22 HANWAY STREET, LONDON, W1T 1UQ",LA2003,Application Approved In Full,No,,,,,,2015-05-03,,,E05000129,Bloomsbury,529709.49,181430.3,-0.132023,51.516921999999994,Nearest OS Open Map-Local Building,11/05/2017 07:37:30 PM,"(51.516922, -0.132023)",30545,http://opendatacommunities.org/id/london-borough-council/camden,1,Destination,originAPP\PREMISES-LICOPY\0116
17782,APP\PREMISES-LICOPY\0003,Premises - Copy of Licence,Lilly Langtree,"121 ABBEY ROAD, LONDON, NW6 4SL",LA2003,Application Approved In Full,No,,,,,,2012-03-23,,,E05000140,Kilburn,525740.21,183879.85,-0.188324,51.539832000000004,Nearest OS Open Map-Local Building,11/05/2017 07:37:30 PM,"(51.539832, -0.188324)",30654,http://opendatacommunities.org/id/london-borough-council/camden,1,Destination,originAPP\PREMISES-LICOPY\0003
17799,APP\PREMISES-LICOPY\0158,Premises - Copy of Licence,HanKang,"16 HANWAY STREET, LONDON, W1T 1UE",LA2003,Application Approved In Full,No,,,,,,2016-02-22,,,E05000129,Bloomsbury,529709.49,181430.3,-0.132023,51.516921999999994,Nearest OS Open Map-Local Building,11/05/2017 07:37:30 PM,"(51.516922, -0.132023)",30507,http://opendatacommunities.org/id/london-borough-council/camden,1,Destination,originAPP\PREMISES-LICOPY\0158
17857,APP\PREMISES-LICOPY\0178,Premises - Copy of Licence,Wrapchic,"48 GOODGE STREET, LONDON, W1T 4LX",LA2003,Application Approved In Full,No,,,,,,2016-07-13,,,E05000129,Bloomsbury,529392.85,181727.74,-0.136475,51.519667,Nearest OS Open Map-Local Building,11/05/2017 07:37:30 PM,"(51.519667, -0.136475)",30487,http://opendatacommunities.org/id/london-borough-council/camden,1,Destination,originAPP\PREMISES-LICOPY\0178
18115,APP\PREMISES-LICOPY\0140,Premises - Copy of Licence,McDonalds,"4 HARBEN PARADE FINCHLEY ROAD, LONDON, NW3 6JP",LA2003,Application Approved In Full,No,,,,,,2015-09-22,,,E05000144,Swiss Cottage,526552.75,184414.61,-0.176422,51.544457,Nearest OS Open Map-Local Building,11/05/2017 07:37:30 PM,"(51.544457, -0.176422)",30521,http://opendatacommunities.org/id/london-borough-council/camden,1,Destination,originAPP\PREMISES-LICOPY\0140
18321,APP\PREMISES-LICOPY\0048,Premises - Copy of Licence,West Lodge,"190 WEST LODGE EUSTON ROAD, LONDON, NW1 2EF",LA2003,Application Approved In Full,No,,,,,,2013-05-15,,,E05000142,Regent's Park,529640.31,182548.17,-0.132609,51.526984000000006,Nearest OS Open Map-Local Building,11/05/2017 07:37:30 PM,"(51.526984, -0.132609)",30611,http://opendatacommunities.org/id/london-borough-council/camden,1,Destination,originAPP\PREMISES-LICOPY\0048
18504,APP\PREMISES-LICOPY\0186,Premises - Copy of Licence,MERE,"74 CHARLOTTE STREET, LONDON, W1T 4QH",LA2003,Application Approved In Full,No,,,,,,2016-09-12,,,E05000129,Bloomsbury,529405.96,181839.98,-0.136245,51.520672999999995,Nearest OS Open Map-Local Building,11/05/2017 07:37:30 PM,"(51.520673, -0.136245)",30479,http://opendatacommunities.org/id/london-borough-council/camden,1,Destination,originAPP\PREMISES-LICOPY\0186
18789,APP\PREMISES-LICOPY\0210,Premises - Copy of Licence,Bali Bali Restaurant,"150 SHAFTESBURY AVENUE, LONDON, WC2H 8HL",LA2003,Application Approved In Full,No,,,,,,2017-05-05,,Seven Dials,E05000138,Holborn and Covent Garden,530005.14,181097.16,-0.127887,51.51386,Nearest OS Open Map-Local Building,11/05/2017 07:37:30 PM,"(51.51386, -0.127887)",30456,http://opendatacommunities.org/id/london-borough-council/camden,1,Destination,originAPP\PREMISES-LICOPY\0210
18860,APP\PREMISES-LICOPY\0165,Premises - Copy of Licence,Knowhere Special (Basement),"296 KENTISH TOWN ROAD, LONDON, NW5 2TG",LA2003,Application Approved In Full,No,,,,,,2016-04-18,,,E05000139,Kentish Town,529038.33,185212.57,-0.140306,51.551065,Nearest OS Open Map-Local Building,11/05/2017 07:37:30 PM,"(51.551065, -0.140306)",30500,http://opendatacommunities.org/id/london-borough-council/camden,1,Destination,originAPP\PREMISES-LICOPY\0165
18878,APP\PREMISES-LICOPY\0088,Premises - Copy of Licence,China House Restaurant,"51 MARCHMONT STREET, LONDON, WC1N 1AP",LA2003,Application Approved In Full,No,,,,,,2014-07-28,,,E05000129,Bloomsbury,530133.36,182333.34,-0.125585,51.52494,Nearest OS Open Map-Local Building,11/05/2017 07:37:30 PM,"(51.52494, -0.125585)",30573,http://opendatacommunities.org/id/london-borough-council/camden,1,Destination,originAPP\PREMISES-LICOPY\0088
19004,APP\PREMISES-LICOPY\0090,Premises - Copy of Licence,Cookes Amusements,"40 KILBURN HIGH ROAD, LONDON, NW6 5UA",LA2003,Application Approved In Full,No,,,,,,2014-05-09,,,E05000140,Kilburn,525481.83,183581.34,-0.192154,51.537207,Nearest OS Open Map-Local Building,11/05/2017 07:37:30 PM,"(51.537207, -0.192154)",30571,http://opendatacommunities.org/id/london-borough-council/camden,1,Destination,originAPP\PREMISES-LICOPY\0090
19385,APP\PREMISES-LICOPY\0153,Premises - Copy of Licence,Camden Town Brewery,"UNITS 55-59 WILKIN STREET MEWS, LONDON, NW5 3NN",LA2003,Application Approved In Full,No,,,,,,2015-11-30,,,E05000136,Haverstock,528564.33,184797.19,-0.14729,51.547441,Nearest OS Open Map-Local Building,11/05/2017 07:37:30 PM,"(51.547441, -0.14729)",30511,http://opendatacommunities.org/id/london-borough-council/camden,1,Destination,originAPP\PREMISES-LICOPY\0153
19968,APP\PREMISES-LICOPY\0166,Premises - Copy of Licence,Mamma Mia Cafe,"296 KENTISH TOWN ROAD, LONDON, NW5 2TG",LA2003,Application Approved In Full,No,,,,,,2016-04-18,,,E05000139,Kentish Town,529038.33,185212.57,-0.140306,51.551065,Nearest OS Open Map-Local Building,11/05/2017 07:37:30 PM,"(51.551065, -0.140306)",30499,http://opendatacommunities.org/id/london-borough-council/camden,1,Destination,originAPP\PREMISES-LICOPY\0166
20323,APP\PREMISES-LICOPY\0066,Premises - Copy of Licence,Cote,"32 PARKWAY, LONDON, NW1 7AH",LA2003,Application Approved In Full,No,,,,,,2013-10-21,,Camden Town,E05000130,Camden Town with Primrose Hill,528728.91,183764.09,-0.145295,51.538119,Nearest OS Open Map-Local Building,11/05/2017 07:37:30 PM,"(51.538119, -0.145295)",30595,http://opendatacommunities.org/id/london-borough-council/camden,1,Destination,originAPP\PREMISES-LICOPY\0066
20535,APP\PREMISES-LICOPY\0110,Premises - Copy of Licence,ARBINA,"110 WHITFIELD STREET, LONDON, W1T 5ED",LA2003,Application Approved In Full,No,,,,,,2015-02-16,,,E05000129,Bloomsbury,529311.16,182112.36,-0.137511,51.523142,Nearest OS Open Map-Local Building,11/05/2017 07:37:30 PM,"(51.523142, -0.137511)",30551,http://opendatacommunities.org/id/london-borough-council/camden,1,Destination,originAPP\PREMISES-LICOPY\0110
20612,APP\PREMISES-LICOPY\0084,Premises - Copy of Licence,Pasta Plus Restaurant,"62 EVERSHOLT STREET, LONDON, NW1 1DA",LA2003,Application Approved In Full,No,,,,,,2014-06-13,,,E05000143,St Pancras and Somers Town,529636.93,182832.57,-0.132553,51.529540000000004,Nearest OS Open Map-Local Building,11/05/2017 07:37:30 PM,"(51.52954, -0.132553)",30577,http://opendatacommunities.org/id/london-borough-council/camden,1,Destination,originAPP\PREMISES-LICOPY\0084
20878,APP\PREMISES-LICOPY\0184,Premises - Copy of Licence,Lazy Hunter,"117 KENTISH TOWN ROAD, LONDON, NW1 8PB",LA2003,Application Approved In Full,No,,,,,,2016-10-18,,,E05000130,Camden Town with Primrose Hill,528954.03,184464.42,-0.141795,51.544361,Nearest OS Open Map-Local Building,11/05/2017 07:37:30 PM,"(51.544361, -0.141795)",30481,http://opendatacommunities.org/id/london-borough-council/camden,1,Destination,originAPP\PREMISES-LICOPY\0184
21031,APP\PREMISES-LICOPY\0036,Premises - Copy of Licence,Benito's Hat,"56 GOODGE STREET, LONDON, W1T 4NB",LA2003,Application Approved In Full,No,,,,,,2012-12-13,,,E05000129,Bloomsbury,529354.63,181691.5,-0.13703900000000002,51.51935,Nearest OS Open Map-Local Building,11/05/2017 07:37:30 PM,"(51.51935, -0.137039)",30622,http://opendatacommunities.org/id/london-borough-council/camden,1,Destination,originAPP\PREMISES-LICOPY\0036
21074,APP\PREMISES-LICOPY\0046,Premises - Copy of Licence,The Blues Kitchen,"111 113 CAMDEN HIGH STREET, LONDON, NW1 7JN",LA2003,Application Approved In Full,No,,,,,,2013-05-14,,Camden Town,E05000142,Regent's Park,528998.56,183612.04,-0.141465,51.536691,Nearest OS Open Map-Local Building,11/05/2017 07:37:30 PM,"(51.536691, -0.141465)",30613,http://opendatacommunities.org/id/london-borough-council/camden,1,Destination,originAPP\PREMISES-LICOPY\0046
21321,APP\PREMISES-LICOPY\0181,Premises - Copy of Licence,Budget Beers,"104 QUEEN'S CRESCENT, LONDON, NW5 4DU",LA2003,Application Approved In Full,No,,,,,,2016-08-31,,,E05000136,Haverstock,528342.17,185112.83,-0.150377,51.550328,Nearest OS Open Map-Local Building,11/05/2017 07:37:30 PM,"(51.550328, -0.150377)",30484,http://opendatacommunities.org/id/london-borough-council/camden,1,Destination,originAPP\PREMISES-LICOPY\0181
21530,APP\PREMISES-LICOPY\0053,Premises - Copy of Licence,The Jewish Museum,"129 131 ALBERT STREET, LONDON, NW1 7NB",LA2003,Application Approved In Full,No,,,,,,2013-06-21,,Camden Town,E05000130,Camden Town with Primrose Hill,528751.95,183639.94,-0.145009,51.536998,Nearest OS Open Map-Local Building,11/05/2017 07:37:30 PM,"(51.536998, -0.145009)",30607,http://opendatacommunities.org/id/london-borough-council/camden,1,Destination,originAPP\PREMISES-LICOPY\0053
21684,APP\PREMISES-LICOPY\0070,Premises - Copy of Licence,Flight Club,"55  59 ALBION HOUSE NEW OXFORD STREET, LONDON, WC1A 1BS",LA2003,Application Approved In Full,No,,,,,,2013-11-20,,Seven Dials,E05000138,Holborn and Covent Garden,530049.4,181415.57,-0.127133,51.516711,Nearest OS Open Map-Local Building,11/05/2017 07:37:30 PM,"(51.516711, -0.127133)",30591,http://opendatacommunities.org/id/london-borough-council/camden,1,Destination,originAPP\PREMISES-LICOPY\0070
22293,APP\PREMISES-LICOPY\0011,Premises - Copy of Licence,Alice House,"283 285 WEST END LANE, LONDON, NW6 1RD",LA2003,Application Approved In Full,No,,,,,,2012-07-13,,,E05000145,West Hampstead,525451.24,185138.82,-0.19204000000000002,51.551211,Nearest OS Open Map-Local Building,11/05/2017 07:37:30 PM,"(51.551211, -0.19204)",30646,http://opendatacommunities.org/id/london-borough-council/camden,1,Destination,originAPP\PREMISES-LICOPY\0011
22345,APP\PREMISES-LICOPY\0100,Premises - Copy of Licence,London Welsh Centre Ltd (formerly London Welsh Association Ltd),"157 163 GRAY'S INN ROAD, LONDON, WC1X 8UE",LA2003,Application Approved In Full,No,,,,,,2014-11-19,,,E05000141,King's Cross,530706.54,182373.68,-0.11731199999999999,51.52517,Nearest OS Open Map-Local Building,11/05/2017 07:37:30 PM,"(51.52517, -0.117312)",30561,http://opendatacommunities.org/id/london-borough-council/camden,1,Destination,originAPP\PREMISES-LICOPY\0100
22436,APP\PREMISES-LICOPY\0081,Premises - Copy of Licence,Pizza Hut,"38 CAMDEN HIGH STREET, LONDON, NW1 0JH",LA2003,Application Approved In Full,No,,,,,,2014-01-04,,Camden Town,E05000142,Regent's Park,529209.38,183490.42,-0.138472,51.53555,Nearest OS Open Map-Local Building,11/05/2017 07:37:30 PM,"(51.53555, -0.138472)",30580,http://opendatacommunities.org/id/london-borough-council/camden,1,Destination,originAPP\PREMISES-LICOPY\0081
22485,APP\PREMISES-LICOPY\0207,Premises - Copy of Licence,Cambridge Theatre,"CAMBRIDGE THEATRE EARLHAM STREET, LONDON, WC2H 9HU",LA2003,Application Approved In Full,No,,,,,,2017-06-04,,Seven Dials,E05000138,Holborn and Covent Garden,530128.41,181078.87,-0.126119,51.513667,Nearest OS Open Map-Local Building,11/05/2017 07:37:30 PM,"(51.513667, -0.126119)",30459,http://opendatacommunities.org/id/london-borough-council/camden,1,Destination,originAPP\PREMISES-LICOPY\0207
22620,APP\PREMISES-LICOPY\0171,Premises - Copy of Licence,Green Note,"106 PARKWAY, LONDON, NW1 7AN",LA2003,Application Approved In Full,No,,,,,,2016-05-16,,Camden Town,E05000130,Camden Town with Primrose Hill,528701.03,183723.65,-0.14571199999999998,51.537762,Nearest OS Open Map-Local Building,11/05/2017 07:37:30 PM,"(51.537762, -0.145712)",30494,http://opendatacommunities.org/id/london-borough-council/camden,1,Destination,originAPP\PREMISES-LICOPY\0171
22789,APP\PREMISES-LICOPY\0124,Premises - Copy of Licence,The Water Rats,"328 GRAY'S INN ROAD, LONDON, WC1X 8BZ",LA2003,Application Approved In Full,No,,,,,,2015-04-27,,,E05000141,King's Cross,530580.32,182814.88,-0.118967,51.529164,Nearest OS Open Map-Local Building,11/05/2017 07:37:30 PM,"(51.529164, -0.118967)",30537,http://opendatacommunities.org/id/london-borough-council/camden,1,Destination,originAPP\PREMISES-LICOPY\0124
23009,APP\PREMISES-LICOPY\0143,Premises - Copy of Licence,Pesantissimo,"57 REGENT'S PARK ROAD, LONDON, NW1 8XD",LA2003,Application Approved In Full,No,,,,,,2015-12-10,,,E05000130,Camden Town with Primrose Hill,527831.92,184041.77,-0.158121,51.540818,Nearest OS Open Map-Local Building,11/05/2017 07:37:30 PM,"(51.540818, -0.158121)",30518,http://opendatacommunities.org/id/london-borough-council/camden,1,Destination,originAPP\PREMISES-LICOPY\0143
23252,APP\PREMISES-LICOPY\0085,Premises - Copy of Licence,Euston Square Hotel,"152 156 NORTH GOWER STREET, LONDON, NW1 2LU",LA2003,Application Approved In Full,No,,,,,,2014-09-07,,,E05000142,Regent's Park,529420.67,182494.73,-0.135793,51.526554,Nearest OS Open Map-Local Building,11/05/2017 07:37:30 PM,"(51.526554, -0.135793)",30576,http://opendatacommunities.org/id/london-borough-council/camden,1,Destination,originAPP\PREMISES-LICOPY\0085
24028,APP\PREMISES-LICOPY\0163,Premises - Copy of Licence,Mela,"152154 SHAFTESBURY AVENUE, LONDON, WC2H 8HL",LA2003,Application Approved In Full,No,,,,,,2016-04-13,,Seven Dials,E05000138,Holborn and Covent Garden,530005.14,181097.16,-0.127887,51.51386,Nearest OS Open Map-Local Building,11/05/2017 07:37:30 PM,"(51.51386, -0.127887)",30502,http://opendatacommunities.org/id/london-borough-council/camden,1,Destination,originAPP\PREMISES-LICOPY\0163
24034,APP\PREMISES-LICOPY\0031,Premises - Copy of Licence,Sapori Italiani,"167 HAVERSTOCK HILL, LONDON, NW3 4QT",LA2003,Application Approved In Full,No,,,,,,2012-12-14,,,E05000128,Belsize,527379.59,185023.84,-0.16428399999999999,51.549746,Nearest OS Open Map-Local Building,11/05/2017 07:37:30 PM,"(51.549746, -0.164284)",30627,http://opendatacommunities.org/id/london-borough-council/camden,1,Destination,originAPP\PREMISES-LICOPY\0031
24484,APP\PREMISES-LICOPY\0105,Premises - Copy of Licence,THE PRINCIPAL LONDON,"1   8 HOTEL RUSSELL RUSSELL SQUARE, LONDON, WC1B 5BE",LA2003,Application Approved In Full,No,,,,,,2015-05-01,,,E05000129,Bloomsbury,530177.89,182083.06,-0.12503599999999998,51.52268,Nearest OS Open Map-Local Building,11/05/2017 07:37:30 PM,"(51.52268, -0.125036)",30556,http://opendatacommunities.org/id/london-borough-council/camden,1,Destination,originAPP\PREMISES-LICOPY\0105
24978,APP\PREMISES-LICOPY\0091,Premises - Copy of Licence,Canton Element,"48 RED LION STREET, LONDON, WC1R 4PF",LA2003,Application Approved In Full,No,,,,,,2014-09-09,,,E05000138,Holborn and Covent Garden,530692.5,181775.04,-0.117736,51.519793,Nearest OS Open Map-Local Building,11/05/2017 07:37:30 PM,"(51.519793, -0.117736)",30570,http://opendatacommunities.org/id/london-borough-council/camden,1,Destination,originAPP\PREMISES-LICOPY\0091
24986,APP\PREMISES-LICOPY\0089,Premises - Copy of Licence,Woburn Tandoori Restaurant,"16 WOBURN WALK, LONDON, WC1H 0JL",LA2003,Application Approved In Full,No,,,,,,2014-10-08,,,E05000141,King's Cross,529850.85,182538.16,-0.129579,51.526845,Nearest OS Open Map-Local Building,11/05/2017 07:37:30 PM,"(51.526845, -0.129579)",30572,http://opendatacommunities.org/id/london-borough-council/camden,1,Destination,originAPP\PREMISES-LICOPY\0089
25083,APP\PREMISES-LICOPY\0136,Premises - Copy of Licence,Highgate Literary and Scientific Institution,"11 SOUTH GROVE, LONDON, N6 6BS",LA2003,Application Approved In Full,No,,,,,,2015-07-28,,,E05000137,Highgate,528396.39,187314.9,-0.148792,51.570105,Nearest OS Open Map-Local Building,11/05/2017 07:37:30 PM,"(51.570105, -0.148792)",30525,http://opendatacommunities.org/id/london-borough-council/camden,1,Destination,originAPP\PREMISES-LICOPY\0136
25237,APP\PREMISES-LICOPY\0112,Premises - Copy of Licence,Mestizo Restaurant (formerly Costcut Express Food and Wine),"99 101 HAMPSTEAD ROAD, LONDON, NW1 3EL",LA2003,Application Approved In Full,No,,,,,,2015-02-13,,,E05000142,Regent's Park,529200.61,182590.46,-0.138928,51.527464,Nearest OS Open Map-Local Building,11/05/2017 07:37:30 PM,"(51.527464, -0.138928)",30549,http://opendatacommunities.org/id/london-borough-council/camden,1,Destination,originAPP\PREMISES-LICOPY\0112
25350,APP\PREMISES-LICOPY\0131,Premises - Copy of Licence,Guglee Restaurant,"NEW COLLEGE PARADE FINCHLEY ROAD, LONDON, NW3 5EP",LA2003,Application Approved In Full,No,,,,,,2015-02-06,,,E05000133,Frognal and Fitzjohns,526541.88,184536.28,-0.176535,51.545552,Nearest OS Open Map-Local Building,11/05/2017 07:37:30 PM,"(51.545552, -0.176535)",30530,http://opendatacommunities.org/id/london-borough-council/camden,1,Destination,originAPP\PREMISES-LICOPY\0131
25360,APP\PREMISES-LICOPY\0025,Premises - Copy of Licence,Bounce,"121 HOLBORN, LONDON, EC1N 2TD",LA2003,Application Approved In Full,No,,,,,,2012-05-09,,,E05000138,Holborn and Covent Garden,531335.61,181650.94,-0.108519,51.518529,Nearest OS Open Map-Local Building,11/05/2017 07:37:30 PM,"(51.518529, -0.108519)",30632,http://opendatacommunities.org/id/london-borough-council/camden,1,Destination,originAPP\PREMISES-LICOPY\0025
25481,APP\PREMISES-LICOPY\0117,Premises - Copy of Licence,Smugglers Tavern,"28 WARREN STREET, LONDON, W1T 5ND",LA2003,Application Approved In Full,No,,,,,,2015-10-03,,,E05000129,Bloomsbury,529087.01,182151.41,-0.140725,51.523545,Nearest OS Open Map-Local Building,11/05/2017 07:37:30 PM,"(51.523545, -0.140725)",30544,http://opendatacommunities.org/id/london-borough-council/camden,1,Destination,originAPP\PREMISES-LICOPY\0117
25539,APP\PREMISES-LICOPY\0032,Premises - Copy of Licence,Latelys,"175 WEST END LANE, LONDON, NW6 2LH",LA2003,Application Approved In Full,No,,,,,,2012-12-24,,,E05000145,West Hampstead,525506.74,184598.15,-0.191433,51.546339,Nearest OS Open Map-Local Building,11/05/2017 07:37:30 PM,"(51.546339, -0.191433)",30626,http://opendatacommunities.org/id/london-borough-council/camden,1,Destination,originAPP\PREMISES-LICOPY\0032
25578,APP\PREMISES-LICOPY\0118,Premises - Copy of Licence,Davy's Bar and Grill Holborn,"57 DAVYS WINE HOUSE SHOP HIGH HOLBORN, LONDON, WC1V 6DT",LA2003,Application Approved In Full,No,,,,,,2015-10-03,,,E05000138,Holborn and Covent Garden,530830.04,181642.15,-0.11580399999999999,51.518567,Nearest OS Open Map-Local Building,11/05/2017 07:37:30 PM,"(51.518567, -0.115804)",30543,http://opendatacommunities.org/id/london-borough-council/camden,1,Destination,originAPP\PREMISES-LICOPY\0118
25724,APP\PREMISES-LICOPY\0203,Premises - Copy of Licence,Cock Tavern,"23 PHOENIX ROAD, LONDON, NW1 1HB",LA2003,Application Approved In Full,No,,,,,,2017-03-28,,,E05000143,St Pancras and Somers Town,529732.05,183032.75,-0.131109,51.531317,Nearest OS Open Map-Local Building,11/05/2017 07:37:30 PM,"(51.531317, -0.131109)",30463,http://opendatacommunities.org/id/london-borough-council/camden,1,Destination,originAPP\PREMISES-LICOPY\0203
25965,APP\PREMISES-LICOPY\0106,Premises - Copy of Licence,Heals,"196 THE HEALS BUILDING TOTTENHAM COURT ROAD, LONDON, W1T 7LG",LA2003,Application Approved In Full,No,,,,,,2015-01-23,,,E05000129,Bloomsbury,529563.14,181905.54,-0.133957,51.521226,Nearest OS Open Map-Local Building,11/05/2017 07:37:30 PM,"(51.521226, -0.133957)",30555,http://opendatacommunities.org/id/london-borough-council/camden,1,Destination,originAPP\PREMISES-LICOPY\0106
26065,APP\PREMISES-LICOPY\0008,Premises - Copy of Licence,Byron,"255 THE O2 CENTRE FINCHLEY ROAD, LONDON, NW3 6LU",LA2003,Application Approved In Full,No,,,,,,2012-06-22,,,E05000145,West Hampstead,526204.1,184766.66,-0.181321,51.547698,Nearest OS Open Map-Local Building,11/05/2017 07:37:30 PM,"(51.547698, -0.181321)",30649,http://opendatacommunities.org/id/london-borough-council/camden,1,Destination,originAPP\PREMISES-LICOPY\0008
26494,APP\PREMISES-LICOPY\0125,Premises - Copy of Licence,Lansdowne,"90 GLOUCESTER AVENUE, LONDON, NW1 8HX",LA2003,Application Approved In Full,No,,,,,,2015-01-05,,,E05000130,Camden Town with Primrose Hill,528115.17,184153.6,-0.153998,51.541759000000006,Nearest OS Open Map-Local Building,11/05/2017 07:37:30 PM,"(51.541759, -0.153998)",30536,http://opendatacommunities.org/id/london-borough-council/camden,1,Destination,originAPP\PREMISES-LICOPY\0125
26583,APP\PREMISES-LICOPY\0170,Premises - Copy of Licence,Busaba Eathai,"22 STORE STREET, LONDON, WC1E 7DF",LA2003,Application Approved In Full,No,,,,,,2016-10-05,,,E05000129,Bloomsbury,529620.8,181764.72,-0.133178,51.519946999999995,Nearest OS Open Map-Local Building,11/05/2017 07:37:30 PM,"(51.519947, -0.133178)",30495,http://opendatacommunities.org/id/london-borough-council/camden,1,Destination,originAPP\PREMISES-LICOPY\0170
26680,APP\PREMISES-LICOPY\0017,Premises - Copy of Licence,One Alfred Place,"1   2 ALFRED PLACE, LONDON, WC1E 7EB",LA2003,Application Approved In Full,No,,,,,,2012-07-24,,,E05000129,Bloomsbury,529620.8,181764.72,-0.133178,51.519946999999995,Nearest OS Open Map-Local Building,11/05/2017 07:37:30 PM,"(51.519947, -0.133178)",30640,http://opendatacommunities.org/id/london-borough-council/camden,1,Destination,originAPP\PREMISES-LICOPY\0017
26832,APP\PREMISES-LICOPY\0138,Premises - Copy of Licence,Only Connect UK Ltd,"32 CUBITT STREET, LONDON, WC1X 0LR",LA2003,Application Approved In Full,No,,,,,,2015-03-08,,,E05000141,King's Cross,530787.69,182714.78,-0.11601700000000001,51.528216,Nearest OS Open Map-Local Building,11/05/2017 07:37:30 PM,"(51.528216, -0.116017)",30523,http://opendatacommunities.org/id/london-borough-council/camden,1,Destination,originAPP\PREMISES-LICOPY\0138
27504,APP\PREMISES-LICOPY\0087,Premises - Copy of Licence,Deliverance,"8  10 WARNER STREET, LONDON, EC1R 5HA",LA2003,Application Approved In Full,No,,,,,,2014-07-23,,,E05000138,Holborn and Covent Garden,531079.29,182172.38,-0.112017,51.523275,Nearest OS Open Map-Local Building,11/05/2017 07:37:30 PM,"(51.523275, -0.112017)",30574,http://opendatacommunities.org/id/london-borough-council/camden,1,Destination,originAPP\PREMISES-LICOPY\0087
27694,APP\PREMISES-LICOPY\0016,Premises - Copy of Licence,Valencia Cafe,"74 MARCHMONT STREET, LONDON, WC1N 1AB",LA2003,Application Approved In Full,No,,,,,,2012-07-26,,,E05000129,Bloomsbury,530167.12,182389.54,-0.125078,51.525437,Nearest OS Open Map-Local Building,11/05/2017 07:37:30 PM,"(51.525437, -0.125078)",30641,http://opendatacommunities.org/id/london-borough-council/camden,1,Destination,originAPP\PREMISES-LICOPY\0016
27839,APP\PREMISES-LICOPY\0190,Premises - Copy of Licence,Hampstead Food and Wine Ltd,"59 SOUTH END ROAD, LONDON, NW3 2QB",LA2003,Application Approved In Full,No,,,,,,2017-01-02,,,E05000135,Hampstead Town,527156.73,185667.4,-0.16726400000000002,51.55558,Nearest OS Open Map-Local Building,11/05/2017 07:37:30 PM,"(51.55558, -0.167264)",30475,http://opendatacommunities.org/id/london-borough-council/camden,1,Destination,originAPP\PREMISES-LICOPY\0190
27853,APP\PREMISES-LICOPY\0001,Premises - Copy of Licence,Cote,"32 PARKWAY, LONDON, NW1 7AH",LA2003,Application Approved In Full,No,,,,,,2012-01-17,,Camden Town,E05000130,Camden Town with Primrose Hill,528728.91,183764.09,-0.145295,51.538119,Nearest OS Open Map-Local Building,11/05/2017 07:37:30 PM,"(51.538119, -0.145295)",30656,http://opendatacommunities.org/id/london-borough-council/camden,1,Origin,originAPP\PREMISES-LICOPY\0001
27937,APP\PREMISES-LICOPY\0107,Premises - Copy of Licence,Shah Tandoori,"159 DRUMMOND STREET, LONDON, NW1 2PB",LA2003,Application Approved In Full,No,,,,,,2015-10-02,,,E05000142,Regent's Park,529272.69,182476.31,-0.137931,51.526422,Nearest OS Open Map-Local Building,11/05/2017 07:37:30 PM,"(51.526422, -0.137931)",30554,http://opendatacommunities.org/id/london-borough-council/camden,1,Destination,originAPP\PREMISES-LICOPY\0107
28646,APP\PREMISES-LICOPY\0198,Premises - Copy of Licence,St Mary the Virgin,"ST MARY THE VIRGIN CHURCH ELSWORTHY ROAD, LONDON, NW3 3DJ",LA2003,Application Approved In Full,No,,,,,,2017-02-24,,,E05000144,Swiss Cottage,527537.91,184161.63,-0.16231500000000001,51.541962,Nearest OS Open Map-Local Building,11/05/2017 07:37:30 PM,"(51.541962, -0.162315)",30468,http://opendatacommunities.org/id/london-borough-council/camden,1,Destination,originAPP\PREMISES-LICOPY\0198
28654,APP\PREMISES-LICOPY\0083,Premises - Copy of Licence,First Class Lounge,"EUSTON RAILWAY STATION EVERSHOLT STREET, LONDON, NW1 2HS",LA2003,Application Approved In Full,No,,,,,,2014-05-20,,,E05000143,St Pancras and Somers Town,529635.38,182806.0,-0.13258499999999998,51.529302,Nearest OS Open Map-Local Building,11/05/2017 07:37:30 PM,"(51.529302, -0.132585)",30578,http://opendatacommunities.org/id/london-borough-council/camden,1,Destination,originAPP\PREMISES-LICOPY\0083
29160,APP\PREMISES-LICOPY\0047,Premises - Copy of Licence,Fleet River Bakery,"71 LINCOLN'S INN FIELDS, LONDON, WC2A 3JF",LA2003,Application Approved In Full,No,,,,,,2013-05-15,,,E05000138,Holborn and Covent Garden,530599.22,181426.23,-0.119209,51.51668,Nearest OS Open Map-Local Building,11/05/2017 07:37:30 PM,"(51.51668, -0.119209)",30612,http://opendatacommunities.org/id/london-borough-council/camden,1,Destination,originAPP\PREMISES-LICOPY\0047
29545,APP\PREMISES-LICOPY\0174,Premises - Copy of Licence,La Cage Imaginaire,"16 FLASK WALK, LONDON, NW3 1HE",LA2003,Application Approved In Full,No,,,,,,2016-12-06,,,E05000135,Hampstead Town,526495.3,185774.76,-0.176761,51.556693,Nearest OS Open Map-Local Building,11/05/2017 07:37:30 PM,"(51.556693, -0.176761)",30491,http://opendatacommunities.org/id/london-borough-council/camden,1,Destination,originAPP\PREMISES-LICOPY\0174
29580,APP\PREMISES-LICOPY\0204,Premises - Copy of Licence,Grand Union (Camden),"102 106 CAMDEN ROAD, LONDON, NW1 9EA",LA2003,Application Approved In Full,No,,,,,,2017-03-28,,,E05000131,Cantelowes,529236.01,184161.88,-0.13784200000000002,51.541578,Nearest OS Open Map-Local Building,11/05/2017 07:37:30 PM,"(51.541578, -0.137842)",30462,http://opendatacommunities.org/id/london-borough-council/camden,1,Destination,originAPP\PREMISES-LICOPY\0204
29633,APP\PREMISES-LICOPY\0065,Premises - Copy of Licence,Costcutters,"333 GRAY'S INN ROAD, LONDON, WC1X 8PX",LA2003,Application Approved In Full,No,,,,,,2013-10-24,,,E05000141,King's Cross,530388.77,182929.58,-0.12168499999999999,51.530239,Nearest OS Open Map-Local Building,11/05/2017 07:37:30 PM,"(51.530239, -0.121685)",30596,http://opendatacommunities.org/id/london-borough-council/camden,1,Destination,originAPP\PREMISES-LICOPY\0065
29820,APP\PREMISES-LICOPY\0115,Premises - Copy of Licence,Rossopomodoro,"50  52 MONMOUTH STREET, LONDON, WC2H 9EP",LA2003,Application Approved In Full,No,,,,,,2015-05-03,,Seven Dials,E05000138,Holborn and Covent Garden,530043.11,181029.51,-0.127366,51.513243,Nearest OS Open Map-Local Building,11/05/2017 07:37:30 PM,"(51.513243, -0.127366)",30546,http://opendatacommunities.org/id/london-borough-council/camden,1,Destination,originAPP\PREMISES-LICOPY\0115
29955,APP\PREMISES-LICOPY\0199,Premises - Copy of Licence,Swintons,"61 SWINTON STREET, LONDON, WC1X 9NT",LA2003,Application Approved In Full,No,,,,,,2017-01-01,,,E05000141,King's Cross,530616.1,182754.21,-0.118474,51.528611,Nearest OS Open Map-Local Building,11/05/2017 07:37:30 PM,"(51.528611, -0.118474)",30467,http://opendatacommunities.org/id/london-borough-council/camden,1,Destination,originAPP\PREMISES-LICOPY\0199
30329,APP\PREMISES-LICOPY\0173,Premises - Copy of Licence,Nisa Local (previously Price Check),"102 WEST END LANE, LONDON, NW6 2LS",LA2003,Application Approved In Full,No,,,,,,2016-07-07,,,E05000145,West Hampstead,525573.66,184635.19,-0.19045499999999999,51.546657,Nearest OS Open Map-Local Building,11/05/2017 07:37:30 PM,"(51.546657, -0.190455)",30492,http://opendatacommunities.org/id/london-borough-council/camden,1,Destination,originAPP\PREMISES-LICOPY\0173
30389,APP\PREMISES-LICOPY\0034,Premises - Copy of Licence,Souk Restaurant,"4   5 NEAL'S YARD, LONDON, WC2H 9DP",LA2003,Application Approved In Full,No,,,,,,2012-10-12,,Seven Dials,E05000138,Holborn and Covent Garden,530096.62,181164.76,-0.126545,51.514446,Nearest OS Open Map-Local Building,11/05/2017 07:37:30 PM,"(51.514446, -0.126545)",30624,http://opendatacommunities.org/id/london-borough-council/camden,1,Destination,originAPP\PREMISES-LICOPY\0034
30443,APP\PREMISES-LICOPY\0126,Premises - Copy of Licence,HANA LTD,"351 WEST END LANE, LONDON, NW6 1LT",LA2003,Application Approved In Full,No,,,,,,2015-05-18,,,E05000132,Fortune Green,525453.11,185274.38,-0.191965,51.552429,Nearest OS Open Map-Local Building,11/05/2017 07:37:30 PM,"(51.552429, -0.191965)",30535,http://opendatacommunities.org/id/london-borough-council/camden,1,Destination,originAPP\PREMISES-LICOPY\0126
30648,APP\PREMISES-LICOPY\0127,Premises - Copy of Licence,Poem Bar & Grill,"94 BOUNDARY ROAD, LONDON, NW8 0RH",LA2003,Application Approved In Full,No,,,,,,2015-04-06,,,E05000140,Kilburn,525931.17,183642.61,-0.185657,51.537658,Nearest OS Open Map-Local Building,11/05/2017 07:37:30 PM,"(51.537658, -0.185657)",30534,http://opendatacommunities.org/id/london-borough-council/camden,1,Destination,originAPP\PREMISES-LICOPY\0127
30693,APP\PREMISES-LICOPY\0026,Premises - Copy of Licence,Dandelion (formerly Dublin Castle Cafe),"96 PARKWAY, LONDON, NW1 7AN",LA2003,Application Approved In Full,No,,,,,,2012-09-26,,Camden Town,E05000130,Camden Town with Primrose Hill,528701.03,183723.65,-0.14571199999999998,51.537762,Nearest OS Open Map-Local Building,11/05/2017 07:37:30 PM,"(51.537762, -0.145712)",30631,http://opendatacommunities.org/id/london-borough-council/camden,1,Destination,originAPP\PREMISES-LICOPY\0026
30857,APP\PREMISES-LICOPY\0013,Premises - Copy of Licence,Spaghetti House,"15  17 GOODGE STREET, LONDON, W1T 2PQ",LA2003,Application Approved In Full,No,,,,,,2012-07-27,,,E05000129,Bloomsbury,529579.24,181715.35,-0.133795,51.519513,Nearest OS Open Map-Local Building,11/05/2017 07:37:30 PM,"(51.519513, -0.133795)",30644,http://opendatacommunities.org/id/london-borough-council/camden,1,Destination,originAPP\PREMISES-LICOPY\0013
30866,APP\PREMISES-LICOPY\0109,Premises - Copy of Licence,Costcutter Star Sun Food and Wine,"114A FORTESS ROAD, LONDON, NW5 2HL",LA2003,Application Approved In Full,No,,,,,,2015-02-13,,,E05000139,Kentish Town,529107.97,185711.65,-0.139119,51.555534,Nearest OS Open Map-Local Building,11/05/2017 07:37:30 PM,"(51.555534, -0.139119)",30552,http://opendatacommunities.org/id/london-borough-council/camden,1,Destination,originAPP\PREMISES-LICOPY\0109
31205,APP\PREMISES-LICOPY\0145,Premises - Copy of Licence,Sainsbury's Supermarket,"145 DZD TOTTENHAM COURT ROAD, LONDON, W1T 7NE",LA2003,Application Approved In Full,No,,,,,,2015-10-26,,,E05000129,Bloomsbury,529336.79,182237.04,-0.137096,51.524257,Nearest OS Open Map-Local Building,11/05/2017 07:37:30 PM,"(51.524257, -0.137096)",30516,http://opendatacommunities.org/id/london-borough-council/camden,1,Destination,originAPP\PREMISES-LICOPY\0145
31207,APP\PREMISES-LICOPY\0148,Premises - Copy of Licence,City Lit,"1  10 KEELEY HOUSE KEELEY STREET, LONDON, WC2B 4BA",LA2003,Application Approved In Full,No,,,,,,2015-04-11,,Seven Dials,E05000138,Holborn and Covent Garden,530546.17,181201.27,-0.120057,51.514671,Nearest OS Open Map-Local Building,11/05/2017 07:37:30 PM,"(51.514671, -0.120057)",30514,http://opendatacommunities.org/id/london-borough-council/camden,1,Destination,originAPP\PREMISES-LICOPY\0148
31440,APP\PREMISES-LICOPY\0132,Premises - Copy of Licence,Brown Sugar,"146 HIGH HOLBORN, LONDON, WC1V 6PH",LA2003,Application Approved In Full,No,,,,,,2015-06-30,,Seven Dials,E05000138,Holborn and Covent Garden,530257.72,181441.14,-0.124123,51.516892999999996,Nearest OS Open Map-Local Building,11/05/2017 07:37:30 PM,"(51.516893, -0.124123)",30529,http://opendatacommunities.org/id/london-borough-council/camden,1,Destination,originAPP\PREMISES-LICOPY\0132
31522,APP\PREMISES-LICOPY\0155,Premises - Copy of Licence,Way 2 Save,"352 354 KILBURN HIGH ROAD, LONDON, NW6 2QJ",LA2003,Application Approved In Full,No,,,,,,2016-01-29,,,E05000145,West Hampstead,524703.92,184602.4,-0.203003,51.546555,Nearest OS Open Map-Local Building,11/05/2017 07:37:30 PM,"(51.546555, -0.203003)",30510,http://opendatacommunities.org/id/london-borough-council/camden,1,Destination,originAPP\PREMISES-LICOPY\0155
31791,APP\PREMISES-LICOPY\0157,Premises - Copy of Licence,Sweet Inspirations,"283 KENTISH TOWN ROAD, LONDON, NW5 2JS",LA2003,Application Approved In Full,No,,,,,,2016-02-18,,,E05000139,Kentish Town,528950.78,184994.83,-0.141647,51.549129,Nearest OS Open Map-Local Building,11/05/2017 07:37:30 PM,"(51.549129, -0.141647)",30508,http://opendatacommunities.org/id/london-borough-council/camden,1,Destination,originAPP\PREMISES-LICOPY\0157
31852,APP\PREMISES-LICOPY\0023,Premises - Copy of Licence,The Noodle House,"117 SHAFTESBURY AVENUE, LONDON, WC2H 8AD",LA2003,Application Approved In Full,No,,,,,,2012-08-23,,Seven Dials,E05000138,Holborn and Covent Garden,529928.6,181110.66,-0.128985,51.513999,Nearest OS Open Map-Local Building,11/05/2017 07:37:30 PM,"(51.513999, -0.128985)",30634,http://opendatacommunities.org/id/london-borough-council/camden,1,Destination,originAPP\PREMISES-LICOPY\0023
31862,APP\PREMISES-LICOPY\0129,Premises - Copy of Licence,White Horse,"154 156 FLEET ROAD, LONDON, NW3 2QX",LA2003,Application Approved In Full,No,,,,,,2015-08-06,,,E05000134,Gospel Oak,527311.32,185537.58,-0.16508299999999998,51.554378,Nearest OS Open Map-Local Building,11/05/2017 07:37:30 PM,"(51.554378, -0.165083)",30532,http://opendatacommunities.org/id/london-borough-council/camden,1,Destination,originAPP\PREMISES-LICOPY\0129
31914,APP\PREMISES-LICOPY\0063,Premises - Copy of Licence,Retsina,"48  50 BELSIZE LANE, LONDON, NW3 5AR",LA2003,Application Approved In Full,No,,,,,,2013-07-10,,,E05000133,Frognal and Fitzjohns,526847.35,184995.02,-0.171967,51.549607,Nearest OS Open Map-Local Building,11/05/2017 07:37:30 PM,"(51.549607, -0.171967)",30598,http://opendatacommunities.org/id/london-borough-council/camden,1,Destination,originAPP\PREMISES-LICOPY\0063
32188,APP\PREMISES-LICOPY\0039,Premises - Copy of Licence,Bull & Gate,"389 KENTISH TOWN ROAD, LONDON, NW5 2TJ",LA2003,Application Approved In Full,No,,,,,,2013-06-02,,,E05000139,Kentish Town,528923.29,185300.87,-0.141932,51.551885,Nearest OS Open Map-Local Building,11/05/2017 07:37:30 PM,"(51.551885, -0.141932)",30619,http://opendatacommunities.org/id/london-borough-council/camden,1,Destination,originAPP\PREMISES-LICOPY\0039
32387,APP\PREMISES-LICOPY\0059,Premises - Copy of Licence,The Horseshoe,"28 THE HORSESHOE HEATH STREET, LONDON, NW3 6TE",LA2003,Application Approved In Full,No,,,,,,2013-08-14,,,E05000135,Hampstead Town,526385.31,185716.08,-0.178368,51.55619,Nearest OS Open Map-Local Building,11/05/2017 07:37:30 PM,"(51.55619, -0.178368)",30602,http://opendatacommunities.org/id/london-borough-council/camden,1,Destination,originAPP\PREMISES-LICOPY\0059
32922,APP\PREMISES-LICOPY\0092,Premises - Copy of Licence,Covent Garden Health Spa,"29 ENDELL STREET, LONDON, WC2H 9BA",LA2003,Application Approved In Full,No,,,,,,2014-09-09,,Seven Dials,E05000138,Holborn and Covent Garden,530211.81,181163.2,-0.12488599999999998,51.514406,Nearest OS Open Map-Local Building,11/05/2017 07:37:30 PM,"(51.514406, -0.124886)",30569,http://opendatacommunities.org/id/london-borough-council/camden,1,Destination,originAPP\PREMISES-LICOPY\0092
33060,APP\PREMISES-LICOPY\0135,Premises - Copy of Licence,The Crowndale,"61  65 CROWNDALE ROAD, LONDON, NW1 1TN",LA2003,Application Approved In Full,No,,,,,,2015-10-08,,Camden Town,E05000142,Regent's Park,529270.44,183351.25,-0.13764300000000002,51.534285,Nearest OS Open Map-Local Building,11/05/2017 07:37:30 PM,"(51.534285, -0.137643)",30526,http://opendatacommunities.org/id/london-borough-council/camden,1,Destination,originAPP\PREMISES-LICOPY\0135
33138,APP\PREMISES-LICOPY\0119,Premises - Copy of Licence,Bountiful Cow,"5 THE BOUNTIFUL COW DANE STREET, LONDON, WC1R 4BL",LA2003,Application Approved In Full,No,,,,,,2015-04-03,,,E05000138,Holborn and Covent Garden,530646.99,181604.17,-0.11845499999999999,51.518268,Nearest OS Open Map-Local Building,11/05/2017 07:37:30 PM,"(51.518268, -0.118455)",30542,http://opendatacommunities.org/id/london-borough-council/camden,1,Destination,originAPP\PREMISES-LICOPY\0119
33182,APP\PREMISES-LICOPY\0187,Premises - Copy of Licence,Apple Tree,"45 THE APPLE TREE MOUNT PLEASANT, LONDON, WC1X 0AE",LA2003,Application Approved In Full,No,,,,,,2016-04-10,,,E05000138,Holborn and Covent Garden,531079.29,182172.38,-0.112017,51.523275,Nearest OS Open Map-Local Building,11/05/2017 07:37:30 PM,"(51.523275, -0.112017)",30478,http://opendatacommunities.org/id/london-borough-council/camden,1,Destination,originAPP\PREMISES-LICOPY\0187
33295,APP\PREMISES-LICOPY\0114,Premises - Copy of Licence,Sunrise Supermarket,"111 HIGHGATE ROAD, LONDON, NW5 1TR",LA2003,Application Approved In Full,No,,,,,,2015-02-20,,,E05000137,Highgate,528668.25,185666.66,-0.145474,51.55523,Nearest OS Open Map-Local Building,11/05/2017 07:37:30 PM,"(51.55523, -0.145474)",30547,http://opendatacommunities.org/id/london-borough-council/camden,1,Destination,originAPP\PREMISES-LICOPY\0114
33540,APP\PREMISES-LICOPY\0075,Premises - Copy of Licence,West Lodge,"190 WEST LODGE EUSTON ROAD, LONDON, NW1 2EF",LA2003,Application Approved In Full,No,,,,,,2013-11-12,,,E05000142,Regent's Park,529640.31,182548.17,-0.132609,51.526984000000006,Nearest OS Open Map-Local Building,11/05/2017 07:37:30 PM,"(51.526984, -0.132609)",30586,http://opendatacommunities.org/id/london-borough-council/camden,1,Destination,originAPP\PREMISES-LICOPY\0075
33546,APP\PREMISES-LICOPY\0172,Premises - Copy of Licence,Mildreds,"9  11 JAMESTOWN ROAD, LONDON, NW1 7BW",LA2003,Application Approved In Full,No,,,,,,2016-09-05,,Camden Town,E05000130,Camden Town with Primrose Hill,528724.04,184057.19,-0.145258,51.540754,Nearest OS Open Map-Local Building,11/05/2017 07:37:30 PM,"(51.540754, -0.145258)",30493,http://opendatacommunities.org/id/london-borough-council/camden,1,Destination,originAPP\PREMISES-LICOPY\0172
33747,APP\PREMISES-LICOPY\0096,Premises - Copy of Licence,The Royal Central School of Speech and Drama,"6264 EMBASSY THEATRE ETON AVENUE, LONDON, NW3 3HY",LA2003,Application Approved In Full,No,,,,,,2014-03-10,,,E05000128,Belsize,526707.65,184406.46,-0.174192,51.544349,Nearest OS Open Map-Local Building,11/05/2017 07:37:30 PM,"(51.544349, -0.174192)",30565,http://opendatacommunities.org/id/london-borough-council/camden,1,Destination,originAPP\PREMISES-LICOPY\0096
34015,APP\PREMISES-LICOPY\0194,Premises - Copy of Licence,Leighton Food & Wine,"91 LEIGHTON ROAD, LONDON, NW5 2QJ",LA2003,Application Approved In Full,No,,,,,,2017-09-02,,,E05000139,Kentish Town,529323.66,185206.65,-0.136195,51.550947,Nearest OS Open Map-Local Building,11/05/2017 07:37:30 PM,"(51.550947, -0.136195)",30471,http://opendatacommunities.org/id/london-borough-council/camden,1,Destination,originAPP\PREMISES-LICOPY\0194
34048,APP\PREMISES-LICOPY\0142,Premises - Copy of Licence,J Restaurant,"148 REGENT'S PARK ROAD, LONDON, NW1 8XN",LA2003,Application Approved In Full,No,,,,,,2015-12-10,,,E05000130,Camden Town with Primrose Hill,527944.05,184104.04,-0.15648199999999998,51.541352,Nearest OS Open Map-Local Building,11/05/2017 07:37:30 PM,"(51.541352, -0.156482)",30519,http://opendatacommunities.org/id/london-borough-council/camden,1,Destination,originAPP\PREMISES-LICOPY\0142
34231,APP\PREMISES-LICOPY\0009,Premises - Copy of Licence,The Crazy Bear,"26  28 WHITFIELD STREET, LONDON, W1T 2RG",LA2003,Application Approved In Full,No,,,,,,2012-11-07,,,E05000129,Bloomsbury,529579.24,181715.35,-0.133795,51.519513,Nearest OS Open Map-Local Building,11/05/2017 07:37:30 PM,"(51.519513, -0.133795)",30648,http://opendatacommunities.org/id/london-borough-council/camden,1,Destination,originAPP\PREMISES-LICOPY\0009
34377,APP\PREMISES-LICOPY\0193,Premises - Copy of Licence,Royal Mini Market,"201 ROYAL COLLEGE STREET, LONDON, NW1 0SG",LA2003,Application Approved In Full,No,,,,,,2017-01-19,,,E05000130,Camden Town with Primrose Hill,529205.13,184115.83,-0.13830399999999998,51.541171000000006,Nearest OS Open Map-Local Building,11/05/2017 07:37:30 PM,"(51.541171, -0.138304)",30472,http://opendatacommunities.org/id/london-borough-council/camden,1,Destination,originAPP\PREMISES-LICOPY\0193
34389,APP\PREMISES-LICOPY\0041,Premises - Copy of Licence,Winnicott Etrusco,"1 HURDWICK PLACE, LONDON, NW1 2JE",LA2003,Application Approved In Full,No,,,,,,2013-08-03,,Camden Town,E05000142,Regent's Park,529184.5,183339.22,-0.13888599999999998,51.534197,Nearest OS Open Map-Local Building,11/05/2017 07:37:30 PM,"(51.534197, -0.138886)",30617,http://opendatacommunities.org/id/london-borough-council/camden,1,Destination,originAPP\PREMISES-LICOPY\0041
34548,APP\PREMISES-LICOPY\0082,Premises - Copy of Licence,British Library,"96 THE BRITISH LIBRARY EUSTON ROAD, LONDON, NW1 2DB",LA2003,Application Approved In Full,No,,,,,,2014-05-15,,,E05000143,St Pancras and Somers Town,529976.69,182896.84,-0.127634,51.53004,Nearest OS Open Map-Local Building,11/05/2017 07:37:30 PM,"(51.53004, -0.127634)",30579,http://opendatacommunities.org/id/london-borough-council/camden,1,Destination,originAPP\PREMISES-LICOPY\0082
34742,APP\PREMISES-LICOPY\0137,Premises - Copy of Licence,JGTD Restaurants,"44 BELSIZE LANE, LONDON, NW3 5AR",LA2003,Application Approved In Full,No,,,,,,2015-04-09,,,E05000133,Frognal and Fitzjohns,526847.35,184995.02,-0.171967,51.549607,Nearest OS Open Map-Local Building,11/05/2017 07:37:30 PM,"(51.549607, -0.171967)",30524,http://opendatacommunities.org/id/london-borough-council/camden,1,Destination,originAPP\PREMISES-LICOPY\0137
35292,APP\PREMISES-LICOPY\0005,Premises - Copy of Licence,Regents Park Marriott,"128 KING HENRY'S ROAD, LONDON, NW3 3ST",LA2003,Application Approved In Full,No,,,,,,2012-02-03,,,E05000128,Belsize,526985.57,184168.82,-0.170272,51.542151000000004,Nearest OS Open Map-Local Building,11/05/2017 07:37:30 PM,"(51.542151, -0.170272)",30652,http://opendatacommunities.org/id/london-borough-council/camden,1,Destination,originAPP\PREMISES-LICOPY\0005
35434,APP\PREMISES-LICOPY\0079,Premises - Copy of Licence,Abigail's Kitchen,"40 GREVILLE STREET, LONDON, EC1N 8PJ",LA2003,Application Approved In Full,No,,,,,,2014-01-14,,,E05000138,Holborn and Covent Garden,531263.93,181767.91,-0.109508,51.519597,Nearest OS Open Map-Local Building,11/05/2017 07:37:30 PM,"(51.519597, -0.109508)",30582,http://opendatacommunities.org/id/london-borough-council/camden,1,Destination,originAPP\PREMISES-LICOPY\0079
35522,APP\PREMISES-LICOPY\0015,Premises - Copy of Licence,The Wesley Formerly MIC Social Club,"81103 THE WESLEY HOTEL EUSTON HOUSE EUSTON STREET, LONDON, NW1 2EZ",LA2003,Application Rejected,No,,,,,,2012-07-23,22/08/2012,,E05000142,Regent's Park,529420.67,182494.73,-0.135793,51.526554,Nearest OS Open Map-Local Building,11/05/2017 07:37:30 PM,"(51.526554, -0.135793)",30642,http://opendatacommunities.org/id/london-borough-council/camden,1,Destination,originAPP\PREMISES-LICOPY\0015
35734,APP\PREMISES-LICOPY\0040,Premises - Copy of Licence,Scamaj,"309 WEST END LANE, LONDON, NW6 1RD",LA2003,Application Approved In Full,No,,,,,,2013-05-02,,,E05000145,West Hampstead,525451.24,185138.82,-0.19204000000000002,51.551211,Nearest OS Open Map-Local Building,11/05/2017 07:37:30 PM,"(51.551211, -0.19204)",30618,http://opendatacommunities.org/id/london-borough-council/camden,1,Destination,originAPP\PREMISES-LICOPY\0040
35789,APP\PREMISES-LICOPY\0043,Premises - Copy of Licence,J Restaurant,"148 REGENT'S PARK ROAD, LONDON, NW1 8XN",LA2003,Application Approved In Full,No,,,,,,2013-04-23,,,E05000130,Camden Town with Primrose Hill,527944.05,184104.04,-0.15648199999999998,51.541352,Nearest OS Open Map-Local Building,11/05/2017 07:37:30 PM,"(51.541352, -0.156482)",30615,http://opendatacommunities.org/id/london-borough-council/camden,1,Destination,originAPP\PREMISES-LICOPY\0043
35869,APP\PREMISES-LICOPY\0074,Premises - Copy of Licence,Fleet River Bakery,"71 LINCOLN'S INN FIELDS, LONDON, WC2A 3JF",LA2003,Application Approved In Full,No,,,,,,2013-11-12,,,E05000138,Holborn and Covent Garden,530599.22,181426.23,-0.119209,51.51668,Nearest OS Open Map-Local Building,11/05/2017 07:37:30 PM,"(51.51668, -0.119209)",30587,http://opendatacommunities.org/id/london-borough-council/camden,1,Destination,originAPP\PREMISES-LICOPY\0074
35899,APP\PREMISES-LICOPY\0007,Premises - Copy of Licence,Byron,"255 THE O2 CENTRE FINCHLEY ROAD, LONDON, NW3 6LU",LA2003,Application Approved In Full,No,,,,,,2012-06-25,,,E05000145,West Hampstead,526204.1,184766.66,-0.181321,51.547698,Nearest OS Open Map-Local Building,11/05/2017 07:37:30 PM,"(51.547698, -0.181321)",30650,http://opendatacommunities.org/id/london-borough-council/camden,1,Destination,originAPP\PREMISES-LICOPY\0007
36155,APP\PREMISES-LICOPY\0055,Premises - Copy of Licence,Balans Restaurant,"3234 MONMOUTH STREET, LONDON, WC2H 9HA",LA2003,Application Approved In Full,No,,,,,,2013-06-28,,Seven Dials,E05000138,Holborn and Covent Garden,530045.49,181068.86,-0.127317,51.513596,Nearest OS Open Map-Local Building,11/05/2017 07:37:30 PM,"(51.513596, -0.127317)",30606,http://opendatacommunities.org/id/london-borough-council/camden,1,Destination,originAPP\PREMISES-LICOPY\0055
