,Application Reference,Application Type,Premises Name,Premises Address,Application Legislation,Application Status,Application Objections,Approved Date,Date Of Events,Expiry Date,Hearing Date,Last Date For Representations,Received Date,Refused Date,Cumulative Impact Policy Area Name,Ward Code,Ward Name,Easting,Northing,Longitude,Latitude,Spatial Accuracy,Last Uploaded,Location,Socrata ID,Organisation URI,path,Origin-Destination,PathId
1197,054600,MST Variation,London Nails,"134 Kentish Town Road, London, NW1 9QB",,Open,No,,,,,,2017-02-14,,,E05000131,Cantelowes,529008.65,184633.75,-0.14094600000000002,51.54587,Nearest OS Open Map-Local Building,11/05/2017 07:37:33 PM,"(51.54587, -0.140946)",35649,http://opendatacommunities.org/id/london-borough-council/camden,1,Destination,origin054600
1885,049179,MST Variation,ANANTA SKIN & BODY,"66 Red Lion Street, London, WC1R 4NA",,Open,No,10/06/2013,,,,,2013-05-21,,,E05000138,Holborn and Covent Garden,530682.53,181683.77,-0.117914,51.518976,Nearest OS Open Map-Local Building,11/05/2017 07:37:33 PM,"(51.518976, -0.117914)",35728,http://opendatacommunities.org/id/london-borough-council/camden,1,Destination,origin049179
4603,042999,MST Variation,YMCA,"112 Great Russell Street, London, WC1B 3NQ",,Open,No,,,,,,2010-09-06,,,E05000129,Bloomsbury,529818.38,181492.03,-0.130432,51.517452,Nearest OS Open Map-Local Building,11/05/2017 07:37:33 PM,"(51.517452, -0.130432)",36361,http://opendatacommunities.org/id/london-borough-council/camden,1,Destination,origin042999
6377,045594,MST Variation,Fern Skincare Ltd,"18 England's Lane, London, NW3 4TG",,Open,No,,,,,,2011-01-04,,,E05000128,Belsize,527578.03,184680.14,-0.161548,51.546611999999996,Nearest OS Open Map-Local Building,11/05/2017 07:37:33 PM,"(51.546612, -0.161548)",35979,http://opendatacommunities.org/id/london-borough-council/camden,1,Destination,origin045594
7088,047652,MST Variation,Fitness First Clubs Limited,"179A Tottenham Court Road, London, W1T 7PA",,Open,No,,,,,,2012-07-06,,,E05000129,Bloomsbury,529494.54,182024.08,-0.134901,51.522307,Nearest OS Open Map-Local Building,11/05/2017 07:37:33 PM,"(51.522307, -0.134901)",35766,http://opendatacommunities.org/id/london-borough-council/camden,1,Destination,origin047652
7531,045404,MST Variation,Fern Skincare Ltd,"18 England's Lane, London, NW3 4TG",,Open,No,08/03/2011,,,,,2011-08-03,,,E05000128,Belsize,527578.03,184680.14,-0.161548,51.546611999999996,Nearest OS Open Map-Local Building,11/05/2017 07:37:33 PM,"(51.546612, -0.161548)",35996,http://opendatacommunities.org/id/london-borough-council/camden,1,Destination,origin045404
8121,049213,MST Variation,London Nails,"134 Kentish Town Road, London, NW1 9QB",,Open,No,,,,,,2013-05-28,,,E05000131,Cantelowes,529008.65,184633.75,-0.14094600000000002,51.54587,Nearest OS Open Map-Local Building,11/05/2017 07:37:33 PM,"(51.54587, -0.140946)",35726,http://opendatacommunities.org/id/london-borough-council/camden,1,Destination,origin049213
8633,049948,MST Variation,Fitness First Clubs Ltd,"Coram Street, London, WC1N 1HT",,Open,No,,,,,,2014-01-16,,,E05000129,Bloomsbury,530185.36,182194.17,-0.12488699999999998,51.523677,Nearest OS Open Map-Local Building,11/05/2017 07:37:33 PM,"(51.523677, -0.124887)",35710,http://opendatacommunities.org/id/london-borough-council/camden,1,Destination,origin049948
12174,049979,MST Variation,Fitness First Clubs Ltd,"Coram Street, London, WC1N 1HT",,Open,No,,,,,,2014-01-29,,,E05000129,Bloomsbury,530185.36,182194.17,-0.12488699999999998,51.523677,Nearest OS Open Map-Local Building,11/05/2017 07:37:33 PM,"(51.523677, -0.124887)",35709,http://opendatacommunities.org/id/london-borough-council/camden,1,Destination,origin049979
13529,051027,MST Variation,China Herbal House WH Ltd,"170 West End Lane, London, NW6 1SD",,Open,No,,,,,,2014-11-19,,,E05000145,West Hampstead,525552.24,184883.23,-0.190675,51.548891,Nearest OS Open Map-Local Building,11/05/2017 07:37:33 PM,"(51.548891, -0.190675)",35692,http://opendatacommunities.org/id/london-borough-council/camden,1,Destination,origin051027
16316,046039,MST Variation,Aveda Institute,"174-177 High Holborn, London, WC1V 7AA",,Open,No,,,,,,2011-06-14,,Seven Dials,E05000138,Holborn and Covent Garden,530210.86,181297.81,-0.12485,51.515615999999994,Nearest OS Open Map-Local Building,11/05/2017 07:37:33 PM,"(51.515616, -0.12485)",35917,http://opendatacommunities.org/id/london-borough-council/camden,1,Destination,origin046039
18075,045899,MST Variation,Acupoint/ Chinese Medicine Centre,"42 Goodge Street, London, W1T 2QR",,Open,No,,,,,,2011-05-24,,,E05000129,Bloomsbury,529468.36,181750.5,-0.135379,51.519855,Nearest OS Open Map-Local Building,11/05/2017 07:37:33 PM,"(51.519855, -0.135379)",35945,http://opendatacommunities.org/id/london-borough-council/camden,1,Destination,origin045899
18106,045902,MST Variation,Ficarazzi,"38 Great Queen Street, London, WC2B 5AA",,Open,No,17/08/2011,,,,,2011-05-24,,,,,530371.22,181181.59,-0.122584,51.514534999999995,Nearest OS Open Map-Local Building,11/05/2017 07:37:33 PM,"(51.514535, -0.122584)",35944,http://opendatacommunities.org/id/london-borough-council/camden,1,Destination,origin045902
20595,045390,MST Variation,Natural Health,"201A Chalk Farm Road, London, NW1 8AF",,Open,No,,,,,,2011-01-03,,Camden Town,E05000130,Camden Town with Primrose Hill,528681.08,184131.14,-0.145851,51.541428,Nearest OS Open Map-Local Building,11/05/2017 07:37:33 PM,"(51.541428, -0.145851)",35998,http://opendatacommunities.org/id/london-borough-council/camden,1,Destination,origin045390
21412,046341,MST Variation,Steam & Sun,"17 Chalton Street, London, NW1 1JD",,Open,No,,,,,,2011-08-08,,,E05000143,St Pancras and Somers Town,529856.65,182698.78,-0.129436,51.528287,Nearest OS Open Map-Local Building,11/05/2017 07:37:33 PM,"(51.528287, -0.129436)",35858,http://opendatacommunities.org/id/london-borough-council/camden,1,Destination,origin046341
23281,043057,MST Variation,Lost in Beauty,"115-117 Regent's Park Road, London, NW1 8UR",,Open,No,19/07/2010,,,,,2010-06-15,,,E05000130,Camden Town with Primrose Hill,527996.32,184191.89,-0.155697,51.54213,Nearest OS Open Map-Local Building,11/05/2017 07:37:33 PM,"(51.54213, -0.155697)",36349,http://opendatacommunities.org/id/london-borough-council/camden,1,Origin,origin043057
24463,054046,MST Variation,ART OF CAMDEN SHOP,"88 Camden Road, NW1 9EA",,Open,No,,,,,,2016-10-20,,,E05000130,Camden Town with Primrose Hill,529205.13,184115.83,-0.13830399999999998,51.541171000000006,Nearest OS Open Map-Local Building,11/05/2017 07:37:33 PM,"(51.541171, -0.138304)",35658,http://opendatacommunities.org/id/london-borough-council/camden,1,Destination,origin054046
26073,046458,MST Variation,Charles Worthington,"28 Great Queen Street, London, WC2B 5BB",,Open,No,,,,,,2011-08-23,,Seven Dials,E05000138,Holborn and Covent Garden,530459.49,181314.37,-0.12126300000000001,51.515707,Nearest OS Open Map-Local Building,11/05/2017 07:37:33 PM,"(51.515707, -0.121263)",35830,http://opendatacommunities.org/id/london-borough-council/camden,1,Destination,origin046458
26275,047855,MST Variation,Revive Medspa,"146 Fortess Road, London, NW5 2HP",,Open,No,08/08/2012,,,,,2012-07-18,,,E05000139,Kentish Town,529147.5,185781.26,-0.138523,51.556151,Nearest OS Open Map-Local Building,11/05/2017 07:37:33 PM,"(51.556151, -0.138523)",35761,http://opendatacommunities.org/id/london-borough-council/camden,1,Destination,origin047855
26507,047783,MST Variation,THE ALBANY CLUB,"Little Albany Street, London, NW1 4DY",,Open,No,,,,,,2012-11-07,,,E05000142,Regent's Park,528881.9,182557.9,-0.143532,51.527244,Nearest OS Open Map-Local Building,11/05/2017 07:37:33 PM,"(51.527244, -0.143532)",35762,http://opendatacommunities.org/id/london-borough-council/camden,1,Destination,origin047783
26724,054009,MST Variation,ART OF CAMDEN,"88 Camden Road, NW1 9EA",,Open,No,,,,,,2016-10-20,,,E05000130,Camden Town with Primrose Hill,529205.13,184115.83,-0.13830399999999998,51.541171000000006,Nearest OS Open Map-Local Building,11/05/2017 07:37:33 PM,"(51.541171, -0.138304)",35659,http://opendatacommunities.org/id/london-borough-council/camden,1,Destination,origin054009
27141,045475,MST Variation,Nemesis Tattoo and Body Piercing Studio,"3 Buck Street, London, NW1 8NJ",,Open,No,,,,,,2011-03-16,,Camden Town,E05000130,Camden Town with Primrose Hill,528875.15,183997.79,-0.143102,51.540186,Nearest OS Open Map-Local Building,11/05/2017 07:37:33 PM,"(51.540186, -0.143102)",35987,http://opendatacommunities.org/id/london-borough-council/camden,1,Destination,origin045475
28583,054409,MST Variation,Flamin'Eight,"2 Castle Road, London, NW1 8PP",,Open,No,,,,,,2017-10-01,,,E05000130,Camden Town with Primrose Hill,528925.5,184541.67,-0.142178,51.545062,Nearest OS Open Map-Local Building,11/05/2017 07:37:33 PM,"(51.545062, -0.142178)",35656,http://opendatacommunities.org/id/london-borough-council/camden,1,Destination,origin054409
28811,054538,MST Variation,Beauty Boutique,"17 Flask Walk, London, NW3 1HJ",,Open,No,,,,,,2017-02-02,,,E05000135,Hampstead Town,526411.1,185782.7,-0.177972,51.556783,Nearest OS Open Map-Local Building,11/05/2017 07:37:33 PM,"(51.556783, -0.177972)",35652,http://opendatacommunities.org/id/london-borough-council/camden,1,Destination,origin054538
29822,055141,MST Variation,Rosebery Rooms,"168 Clerkenwell Road, London, EC1R 5DE",,Open,No,,,,,,2017-06-04,,,E05000138,Holborn and Covent Garden,531042.36,182042.34,-0.112598,51.522115,Nearest OS Open Map-Local Building,11/05/2017 07:37:33 PM,"(51.522115, -0.112598)",35644,http://opendatacommunities.org/id/london-borough-council/camden,1,Destination,origin055141
30439,048050,MST Variation,Fred & Ginger,"52 Parkway, London, NW1 7AH",,Open,No,,,,,,2012-10-09,,Camden Town,E05000130,Camden Town with Primrose Hill,528728.91,183764.09,-0.145295,51.538119,Nearest OS Open Map-Local Building,11/05/2017 07:37:33 PM,"(51.538119, -0.145295)",35756,http://opendatacommunities.org/id/london-borough-council/camden,1,Destination,origin048050
31072,044875,MST Variation,Nickel Spa,"27 Shorts Gardens, London, WC2H 9AP",,Open,No,,,,,,2010-12-21,,Seven Dials,E05000138,Holborn and Covent Garden,530186.77,181145.01,-0.125254,51.514247999999995,Nearest OS Open Map-Local Building,11/05/2017 07:37:33 PM,"(51.514248, -0.125254)",36039,http://opendatacommunities.org/id/london-borough-council/camden,1,Destination,origin044875
31235,047869,MST Variation,Virgin Active Health Club,"255 Finchley Road, London, NW3 6LU",,Open,No,,,,,,2012-07-26,,,E05000145,West Hampstead,526204.1,184766.66,-0.181321,51.547698,Nearest OS Open Map-Local Building,11/05/2017 07:37:33 PM,"(51.547698, -0.181321)",35759,http://opendatacommunities.org/id/london-borough-council/camden,1,Destination,origin047869
32046,044042,MST Variation,Cleveland Hair & Beauty,"78 Cleveland Street, London, W1T 6ND",,Open,No,,,,,,2010-09-14,,,E05000129,Bloomsbury,529129.59,181981.45,-0.140174,51.522007,Nearest OS Open Map-Local Building,11/05/2017 07:37:33 PM,"(51.522007, -0.140174)",36124,http://opendatacommunities.org/id/london-borough-council/camden,1,Destination,origin044042
32086,047609,MST Variation,Regina Hair & Sun Studios,"101 Highgate Road, London, NW5 1TR",,Open,No,04/07/2012,,,,,2012-05-22,,,E05000137,Highgate,528668.25,185666.66,-0.145474,51.55523,Nearest OS Open Map-Local Building,11/05/2017 07:37:33 PM,"(51.55523, -0.145474)",35770,http://opendatacommunities.org/id/london-borough-council/camden,1,Destination,origin047609
32095,045061,MST Variation,Fitness First Clubs Ltd,"Coram Street, London, WC1N 1HT",,Open,No,,,,,,2011-06-01,,,E05000129,Bloomsbury,530185.36,182194.17,-0.12488699999999998,51.523677,Nearest OS Open Map-Local Building,11/05/2017 07:37:33 PM,"(51.523677, -0.124887)",36036,http://opendatacommunities.org/id/london-borough-council/camden,1,Destination,origin045061
32343,046709,MST Variation,Thai Square Spa,"25 Shelton Street, London, WC2H 9HW",,Open,No,,,,,,2011-05-10,,Seven Dials,E05000138,Holborn and Covent Garden,530128.41,181078.87,-0.126119,51.513667,Nearest OS Open Map-Local Building,11/05/2017 07:37:33 PM,"(51.513667, -0.126119)",35804,http://opendatacommunities.org/id/london-borough-council/camden,1,Destination,origin046709
33864,055247,MST Variation,Soho Gyms - Camden Town,"193-199 Camden High Street, London, NW1 7PJ",,Open,No,,,,,,2017-03-05,,Camden Town,E05000130,Camden Town with Primrose Hill,528836.98,183880.36,-0.14369500000000002,51.539139,Nearest OS Open Map-Local Building,11/05/2017 07:37:33 PM,"(51.539139, -0.143695)",35643,http://opendatacommunities.org/id/london-borough-council/camden,1,Destination,origin055247
34273,049839,MST Variation,Bannatyne Fitness (7) Limited,"32 Woburn Place, London, WC1H 0JR",,Open,No,06/12/2013,,,,,2013-06-12,,,E05000129,Bloomsbury,530035.85,182280.2,-0.12700899999999998,51.524485,Nearest OS Open Map-Local Building,11/05/2017 07:37:33 PM,"(51.524485, -0.127009)",35711,http://opendatacommunities.org/id/london-borough-council/camden,1,Destination,origin049839
