,Application Reference,Application Type,Premises Name,Premises Address,Application Legislation,Application Status,Application Objections,Approved Date,Date Of Events,Expiry Date,Hearing Date,Last Date For Representations,Received Date,Refused Date,Cumulative Impact Policy Area Name,Ward Code,Ward Name,Easting,Northing,Longitude,Latitude,Spatial Accuracy,Last Uploaded,Location,Socrata ID,Organisation URI,path,Origin-Destination,PathId
130,APP\PREMISES-CONV\000520,Premises - Conversion of Licence,Supersave Food & Wine,"93 FAIRFAX ROAD, LONDON, NW6 4DY",LA2003,Application Approved,No,12/08/2005,,,,11/08/2005,2005-07-13,,,E05000144,Swiss Cottage,526274.29,184143.38,-0.180533,51.542081,Nearest OS Open Map-Local Building,11/05/2017 07:37:31 PM,"(51.542081, -0.180533)",31325,http://opendatacommunities.org/id/london-borough-council/camden,1,Destination,originAPP\PREMISES-CONV\000520
186,APP\PREMISES-CONV\000486,Premises - Conversion of Licence,Shamrat Of India,"312 KILBURN HIGH ROAD, LONDON, NW6 2DG",LA2003,Application Approved,No,10/08/2005,,,,09/08/2005,2005-11-07,,,E05000140,Kilburn,524852.37,184399.92,-0.200935,51.544703000000005,Nearest OS Open Map-Local Building,11/05/2017 07:37:31 PM,"(51.544703, -0.200935)",31356,http://opendatacommunities.org/id/london-borough-council/camden,1,Destination,originAPP\PREMISES-CONV\000486
199,APP\PREMISES-CONV\000751,Premises - Conversion of Licence,Emperor,"30 ENGLAND'S LANE, LONDON, NW3 4UE",LA2003,Application Approved,No,23/08/2005,,,,23/08/2005,2005-07-25,,,E05000128,Belsize,527510.84,184606.71,-0.162543,51.545968,Nearest OS Open Map-Local Building,11/05/2017 07:37:31 PM,"(51.545968, -0.162543)",31116,http://opendatacommunities.org/id/london-borough-council/camden,1,Destination,originAPP\PREMISES-CONV\000751
254,APP\PREMISES-CONV\000767,Premises - Conversion of Licence,Hush Brasseries Holborn (formerly Villandry Kitchen),"95  96 HIGH HOLBORN, LONDON, WC1V 6LF",LA2003,Application Approved,No,25/08/2005,,,,24/08/2005,2005-07-26,,,E05000138,Holborn and Covent Garden,530646.99,181604.17,-0.11845499999999999,51.518268,Nearest OS Open Map-Local Building,11/05/2017 07:37:31 PM,"(51.518268, -0.118455)",31102,http://opendatacommunities.org/id/london-borough-council/camden,1,Destination,originAPP\PREMISES-CONV\000767
275,APP\PREMISES-CONV\001206,Premises - Conversion of Licence,Eat Tokyo (formerly Edokko Restaurant),"50 RED LION STREET, LONDON, WC1R 4PF",LA2003,Application Approved,No,05/09/2005,,,,02/09/2005,2005-05-08,,,E05000138,Holborn and Covent Garden,530692.5,181775.04,-0.117736,51.519793,Nearest OS Open Map-Local Building,11/05/2017 07:37:31 PM,"(51.519793, -0.117736)",30706,http://opendatacommunities.org/id/london-borough-council/camden,1,Destination,originAPP\PREMISES-CONV\001206
464,APP\PREMISES-CONV\001224,Premises - Conversion of Licence,Rock And Sole Place,"45  47 ENDELL STREET, LONDON, WC2H 9AJ",LA2003,Application Approved,No,03/09/2005,,,,02/09/2005,2005-05-08,,Seven Dials,E05000138,Holborn and Covent Garden,530211.81,181163.2,-0.12488599999999998,51.514406,Nearest OS Open Map-Local Building,11/05/2017 07:37:31 PM,"(51.514406, -0.124886)",30689,http://opendatacommunities.org/id/london-borough-council/camden,1,Destination,originAPP\PREMISES-CONV\001224
483,APP\PREMISES-CONV\000876,Premises - Conversion of Licence,Garfunkel's,"264 TOTTENHAM COURT ROAD, LONDON, W1T 7RQ",LA2003,Application Approved,No,07/09/2005,,,,26/08/2005,2005-07-29,,,E05000129,Bloomsbury,529857.44,181436.66,-0.12989,51.516945,Nearest OS Open Map-Local Building,11/05/2017 07:37:31 PM,"(51.516945, -0.12989)",31002,http://opendatacommunities.org/id/london-borough-council/camden,1,Destination,originAPP\PREMISES-CONV\000876
573,APP\PREMISES-CONV\000477,Premises - Conversion of Licence,Peckwater Estate Tenant & R.A,"4 PECKWATER STREET, LONDON, NW5 2UP",LA2003,Application Rejected - Incomplete Documentation,No,,,,,06/08/2005,2005-08-07,14/07/2005,,E05000139,Kentish Town,529191.07,185148.97,-0.138127,51.550459000000004,Nearest OS Open Map-Local Building,11/05/2017 07:37:31 PM,"(51.550459, -0.138127)",31365,http://opendatacommunities.org/id/london-borough-council/camden,1,Destination,originAPP\PREMISES-CONV\000477
599,APP\PREMISES-CONV\000254,Premises - Conversion of Licence,Mondello Restaurant,"36 GOODGE STREET, LONDON, W1T 2QN",LA2003,Application Approved,No,30/07/2005,,,,08/07/2005,2005-09-06,,,E05000129,Bloomsbury,529468.36,181750.5,-0.135379,51.519855,Nearest OS Open Map-Local Building,11/05/2017 07:37:31 PM,"(51.519855, -0.135379)",31577,http://opendatacommunities.org/id/london-borough-council/camden,1,Destination,originAPP\PREMISES-CONV\000254
619,APP\PREMISES-CONV\000839,Premises - Conversion of Licence,Miranas Food & Wine,"28  30 ENDELL STREET, LONDON, WC2H 9AG",LA2003,Application Approved,No,01/09/2005,,,,26/08/2005,2005-07-29,,Seven Dials,E05000138,Holborn and Covent Garden,530211.81,181163.2,-0.12488599999999998,51.514406,Nearest OS Open Map-Local Building,11/05/2017 07:37:31 PM,"(51.514406, -0.124886)",31038,http://opendatacommunities.org/id/london-borough-council/camden,1,Destination,originAPP\PREMISES-CONV\000839
641,APP\PREMISES-CONV\000645,Premises - Conversion of Licence,Londis,"16 EAGLE HOUSE PROCTER STREET, LONDON, WC1V 6NX",LA2003,Application Approved,No,23/08/2005,,,,23/08/2005,2005-07-25,,,E05000138,Holborn and Covent Garden,530646.99,181604.17,-0.11845499999999999,51.518268,Nearest OS Open Map-Local Building,11/05/2017 07:37:31 PM,"(51.518268, -0.118455)",31211,http://opendatacommunities.org/id/london-borough-council/camden,1,Destination,originAPP\PREMISES-CONV\000645
647,APP\PREMISES-CONV\000506,Premises - Conversion of Licence,Royal National Hotel,"3851 ROYAL NATIONAL HOTEL BEDFORD WAY, LONDON, WC1H 0DG",LA2003,Application Approved,No,12/08/2005,,,,11/08/2005,2005-07-13,,,E05000129,Bloomsbury,530006.79,182179.67,-0.12746500000000002,51.523588000000004,Nearest OS Open Map-Local Building,11/05/2017 07:37:31 PM,"(51.523588, -0.127465)",31338,http://opendatacommunities.org/id/london-borough-council/camden,1,Destination,originAPP\PREMISES-CONV\000506
670,APP\PREMISES-CONV\000018,Premises - Conversion of Licence,Brookes Brothers Wine Bar & Brasserie,"33 BROOKE STREET, LONDON, EC1N 7RS",LA2003,Application Rejected - Incomplete Documentation,No,,,,,,2005-04-04,08/04/2005,,E05000138,Holborn and Covent Garden,531153.32,181689.81,-0.11112999999999999,51.518921,Nearest OS Open Map-Local Building,11/05/2017 07:37:31 PM,"(51.518921, -0.11113)",31773,http://opendatacommunities.org/id/london-borough-council/camden,1,Destination,originAPP\PREMISES-CONV\000018
718,APP\PREMISES-CONV\000362,Premises - Conversion of Licence,Zara Cafe Restaurant,"11 SOUTH END ROAD, LONDON, NW3 2PT",LA2003,Application Approved,No,26/07/2005,,,,26/07/2005,2005-06-27,,,E05000135,Hampstead Town,527227.98,185526.22,-0.16628800000000002,51.554295,Nearest OS Open Map-Local Building,11/05/2017 07:37:31 PM,"(51.554295, -0.166288)",31474,http://opendatacommunities.org/id/london-borough-council/camden,1,Destination,originAPP\PREMISES-CONV\000362
793,APP\PREMISES-CONV\000251,Premises - Conversion of Licence,Versilia Restaurant,"250 PALACE COURT FINCHLEY ROAD, LONDON, NW3 6DN",LA2003,Application Approved,No,09/07/2005,,,,08/07/2005,2005-09-06,,,E05000133,Frognal and Fitzjohns,525736.61,185333.04,-0.187857,51.552893,Nearest OS Open Map-Local Building,11/05/2017 07:37:31 PM,"(51.552893, -0.187857)",31579,http://opendatacommunities.org/id/london-borough-council/camden,1,Destination,originAPP\PREMISES-CONV\000251
804,APP\PREMISES-CONV\000304,Premises - Conversion of Licence,Marks and Spencer,"55 TOTTENHAM COURT ROAD, LONDON, W1T 2EL",LA2003,Application Approved,No,21/07/2005,,,,19/07/2005,2005-06-20,,,E05000129,Bloomsbury,529579.24,181715.35,-0.133795,51.519513,Nearest OS Open Map-Local Building,11/05/2017 07:37:31 PM,"(51.519513, -0.133795)",31527,http://opendatacommunities.org/id/london-borough-council/camden,1,Destination,originAPP\PREMISES-CONV\000304
823,APP\PREMISES-CONV\000629,Premises - Conversion of Licence,Balans Restaurant,"3234 MONMOUTH STREET, LONDON, WC2H 9HA",LA2003,Application Approved,Yes,26/09/2005,,,30/08/2005,20/08/2005,2005-07-22,,Seven Dials,E05000138,Holborn and Covent Garden,530045.49,181068.86,-0.127317,51.513596,Nearest OS Open Map-Local Building,11/05/2017 07:37:31 PM,"(51.513596, -0.127317)",31225,http://opendatacommunities.org/id/london-borough-council/camden,1,Destination,originAPP\PREMISES-CONV\000629
891,APP\PREMISES-CONV\000089,Premises - Conversion of Licence,Staunton Hotel,"13  15 GOWER STREET, LONDON, WC1E 6HE",LA2003,Application Approved,No,09/06/2005,,,,09/06/2005,2005-11-05,,,E05000129,Bloomsbury,529854.65,181787.75,-0.129801,51.520101000000004,Nearest OS Open Map-Local Building,11/05/2017 07:37:31 PM,"(51.520101, -0.129801)",31718,http://opendatacommunities.org/id/london-borough-council/camden,1,Destination,originAPP\PREMISES-CONV\000089
953,APP\PREMISES-CONV\000441,Premises - Conversion of Licence,Golden Valley,"177 YORK WAY, LONDON, N7 9LN",LA2003,Application Rejected - Incomplete Documentation,No,,,,,29/07/2005,2005-06-30,07/07/2005,,E05000131,Cantelowes,529809.5,184935.2,-0.12929200000000002,51.548396000000004,Nearest OS Open Map-Local Building,11/05/2017 07:37:31 PM,"(51.548396, -0.129292)",31400,http://opendatacommunities.org/id/london-borough-council/camden,1,Destination,originAPP\PREMISES-CONV\000441
1046,APP\PREMISES-CONV\000828,Premises - Conversion of Licence,Birkbeck College (Gordon Sq),"39  47 GORDON SQUARE, LONDON, WC1H 0PD",LA2003,Application Approved,No,01/09/2005,,,,27/08/2005,2005-07-29,,,E05000129,Bloomsbury,529830.31,182290.24,-0.129966,51.524621999999994,Nearest OS Open Map-Local Building,11/05/2017 07:37:31 PM,"(51.524622, -0.129966)",31047,http://opendatacommunities.org/id/london-borough-council/camden,1,Destination,originAPP\PREMISES-CONV\000828
1068,APP\PREMISES-CONV\001054,Premises - Conversion of Licence,Nando's,"252 WEST END LANE, LONDON, NW6 1LG",LA2003,Application Approved,No,19/09/2005,,,,01/09/2005,2005-04-08,,,E05000145,West Hampstead,525505.05,185171.68,-0.191253,51.551494,Nearest OS Open Map-Local Building,11/05/2017 07:37:31 PM,"(51.551494, -0.191253)",30845,http://opendatacommunities.org/id/london-borough-council/camden,1,Destination,originAPP\PREMISES-CONV\001054
1175,APP\PREMISES-CONV\000017,Premises - Conversion of Licence,Poolcrest Snooker Club,"320 324 KILBURN HIGH ROAD, LONDON, NW6 2QN",LA2003,Application Rejected - Incomplete Documentation,No,,,,,,2005-04-04,06/04/2005,,E05000140,Kilburn,524819.2,184448.57,-0.201396,51.545148,Nearest OS Open Map-Local Building,11/05/2017 07:37:31 PM,"(51.545148, -0.201396)",31774,http://opendatacommunities.org/id/london-borough-council/camden,1,Destination,originAPP\PREMISES-CONV\000017
1245,APP\PREMISES-CONV\001068,Premises - Conversion of Licence,Offices Of Partners Bddh,"15 ALFRED PLACE, LONDON, WC1E 7EB",LA2003,Application Approved,No,01/09/2005,,,,31/08/2005,2005-03-08,,,E05000129,Bloomsbury,529620.8,181764.72,-0.133178,51.519946999999995,Nearest OS Open Map-Local Building,11/05/2017 07:37:31 PM,"(51.519947, -0.133178)",30831,http://opendatacommunities.org/id/london-borough-council/camden,1,Destination,originAPP\PREMISES-CONV\001068
1283,APP\PREMISES-CONV\000274,Premises - Conversion of Licence,Atlanta Supermarket,"519 FINCHLEY ROAD, LONDON, NW3 7BB",LA2003,Application Approved,No,18/07/2005,,,,15/07/2005,2005-06-16,,,E05000132,Fortune Green,525442.75,185496.97,-0.19203499999999998,51.554431,Nearest OS Open Map-Local Building,11/05/2017 07:37:31 PM,"(51.554431, -0.192035)",31557,http://opendatacommunities.org/id/london-borough-council/camden,1,Destination,originAPP\PREMISES-CONV\000274
1302,APP\PREMISES-CONV\000196,Premises - Conversion of Licence,Aki Restaurant,"182 GRAY'S INN ROAD, LONDON, WC1X 8EW",LA2003,Application Rejected - Incomplete Documentation,No,,,,,30/06/2005,2005-01-06,06/06/2005,,E05000138,Holborn and Covent Garden,530972.02,182143.64,-0.11357300000000001,51.523041,Nearest OS Open Map-Local Building,11/05/2017 07:37:31 PM,"(51.523041, -0.113573)",31629,http://opendatacommunities.org/id/london-borough-council/camden,1,Origin,originAPP\PREMISES-CONV\000196
1309,APP\PREMISES-CONV\001163,Premises - Conversion of Licence,Clore Education Centre British Museum,"BRITISH MUSEUM GREAT RUSSELL STREET, LONDON, WC1B 3DG",LA2003,Application Approved,No,03/09/2005,,,,03/09/2005,2005-06-08,,,E05000129,Bloomsbury,530027.5,181704.97,-0.127341,51.519317,Nearest OS Open Map-Local Building,11/05/2017 07:37:31 PM,"(51.519317, -0.127341)",30745,http://opendatacommunities.org/id/london-borough-council/camden,1,Destination,originAPP\PREMISES-CONV\001163
1464,APP\PREMISES-CONV\000113,Premises - Conversion of Licence,Shaftesbury Theatre,"210 THE SHAFTESBURY THEATRE SHAFTESBURY AVENUE, LONDON, WC2H 8DP",LA2003,Application Approved,No,21/06/2005,,,,14/06/2005,2005-05-19,,Seven Dials,E05000138,Holborn and Covent Garden,530133.52,181364.62,-0.12594,51.516234000000004,Nearest OS Open Map-Local Building,11/05/2017 07:37:31 PM,"(51.516234, -0.12594)",31698,http://opendatacommunities.org/id/london-borough-council/camden,1,Destination,originAPP\PREMISES-CONV\000113
1467,APP\PREMISES-CONV\001228,Premises - Conversion of Licence,Hot Rock Cafe,"6A CAMDEN ROAD, LONDON, NW1 9DL",LA2003,Application Rejected - Received after 6th August 2005,No,,,,,19/10/2005,2005-09-21,21/09/2005,Camden Town,E05000130,Camden Town with Primrose Hill,528955.86,183892.26,-0.141978,51.539219,Nearest OS Open Map-Local Building,11/05/2017 07:37:31 PM,"(51.539219, -0.141978)",30685,http://opendatacommunities.org/id/london-borough-council/camden,1,Destination,originAPP\PREMISES-CONV\001228
1518,APP\PREMISES-CONV\001071,Premises - Conversion of Licence,Springhealth Leisure Club,"81 BELSIZE PARK GARDENS, LONDON, NW3 4NJ",LA2003,Application Approved,No,03/09/2005,,,,01/09/2005,2005-04-08,,,E05000128,Belsize,527356.53,184624.98,-0.164761,51.546167,Nearest OS Open Map-Local Building,11/05/2017 07:37:31 PM,"(51.546167, -0.164761)",30828,http://opendatacommunities.org/id/london-borough-council/camden,1,Destination,originAPP\PREMISES-CONV\001071
1546,APP\PREMISES-CONV\000798,Premises - Conversion of Licence,Wine Bargains Of Holborn,"62  64 LEATHER LANE, LONDON, EC1N 7TR",LA2003,Application Approved,No,26/08/2005,,,,25/08/2005,2005-07-27,,,E05000138,Holborn and Covent Garden,531278.74,181929.26,-0.10923499999999998,51.521044,Nearest OS Open Map-Local Building,11/05/2017 07:37:31 PM,"(51.521044, -0.109235)",31071,http://opendatacommunities.org/id/london-borough-council/camden,1,Destination,originAPP\PREMISES-CONV\000798
1565,APP\PREMISES-CONV\000519,Premises - Conversion of Licence,Woburn Tandoori Restaurant,"16 WOBURN WALK, LONDON, WC1H 0JL",LA2003,Application Approved,No,11/08/2005,,,,10/08/2005,2005-12-07,,,E05000141,King's Cross,529850.85,182538.16,-0.129579,51.526845,Nearest OS Open Map-Local Building,11/05/2017 07:37:31 PM,"(51.526845, -0.129579)",31326,http://opendatacommunities.org/id/london-borough-council/camden,1,Destination,originAPP\PREMISES-CONV\000519
1571,APP\PREMISES-CONV\000764,Premises - Conversion of Licence,Chutneys,"124 DRUMMOND STREET, LONDON, NW1 2PA",LA2003,Application Approved,No,07/09/2005,,,,31/08/2005,2005-02-08,,,E05000142,Regent's Park,529274.04,182542.15,-0.137888,51.527013000000004,Nearest OS Open Map-Local Building,11/05/2017 07:37:31 PM,"(51.527013, -0.137888)",31105,http://opendatacommunities.org/id/london-borough-council/camden,1,Destination,originAPP\PREMISES-CONV\000764
1684,APP\PREMISES-CONV\000382,Premises - Conversion of Licence,Londsbury Express (Formerly Fleet Food Stop Off Licence),"88 FLEET ROAD, LONDON, NW3 2QT",LA2003,Application Rejected - Incomplete Documentation,No,,,,,26/07/2005,2005-06-27,01/07/2005,,E05000134,Gospel Oak,527572.8,185471.09,-0.16133699999999998,51.553721,Nearest OS Open Map-Local Building,11/05/2017 07:37:31 PM,"(51.553721, -0.161337)",31455,http://opendatacommunities.org/id/london-borough-council/camden,1,Destination,originAPP\PREMISES-CONV\000382
1686,APP\PREMISES-CONV\000403,Premises - Conversion of Licence,Fitzroy Tavern,"16 THE FITZROY TAVERN CHARLOTTE STREET, LONDON, W1T 2LY",LA2003,Application Approved,No,29/07/2005,,,,28/07/2005,2005-06-29,,,E05000129,Bloomsbury,529528.04,181652.4,-0.134555,51.518959,Nearest OS Open Map-Local Building,11/05/2017 07:37:31 PM,"(51.518959, -0.134555)",31436,http://opendatacommunities.org/id/london-borough-council/camden,1,Destination,originAPP\PREMISES-CONV\000403
1691,APP\PREMISES-CONV\000671,Premises - Conversion of Licence,Cafe Rouge,"7 SOUTH GROVE, London, N6 6BS",LA2003,Application Approved,No,19/08/2005,,,,18/08/2005,2005-07-20,,,E05000137,Highgate,528465.77,187352.85,-0.147778,51.57043,Nearest OS Open Map-Local Building,11/05/2017 07:37:31 PM,"(51.57043, -0.147778)",31186,http://opendatacommunities.org/id/london-borough-council/camden,1,Destination,originAPP\PREMISES-CONV\000671
1733,APP\PREMISES-CONV\001168,Premises - Conversion of Licence,Kings Cross Tandoori,"341 GRAY'S INN ROAD, LONDON, WC1X 8PX",LA2003,Application Approved,No,13/09/2005,,,,02/09/2005,2005-05-08,,,E05000141,King's Cross,530388.77,182929.58,-0.12168499999999999,51.530239,Nearest OS Open Map-Local Building,11/05/2017 07:37:31 PM,"(51.530239, -0.121685)",30740,http://opendatacommunities.org/id/london-borough-council/camden,1,Destination,originAPP\PREMISES-CONV\001168
1807,APP\PREMISES-CONV\000897,Premises - Conversion of Licence,Yo! Sushi @ My Hotel,"11  13 BAYLEY STREET, LONDON, WC1B 3HD",LA2003,Application Approved,No,02/09/2005,,,,29/08/2005,2005-01-08,,,E05000129,Bloomsbury,529729.97,181585.26,-0.131671,51.51831,Nearest OS Open Map-Local Building,11/05/2017 07:37:31 PM,"(51.51831, -0.131671)",30982,http://opendatacommunities.org/id/london-borough-council/camden,1,Destination,originAPP\PREMISES-CONV\000897
1861,APP\PREMISES-CONV\000096,Premises - Conversion of Licence,Bali Bali Restaurant,"150 SHAFTESBURY AVENUE, LONDON, WC2H 8HL",LA2003,Application Approved,No,14/07/2005,,,,14/06/2005,2005-05-16,,Seven Dials,E05000138,Holborn and Covent Garden,530005.14,181097.16,-0.127887,51.51386,Nearest OS Open Map-Local Building,11/05/2017 07:37:31 PM,"(51.51386, -0.127887)",31711,http://opendatacommunities.org/id/london-borough-council/camden,1,Destination,originAPP\PREMISES-CONV\000096
1879,APP\PREMISES-CONV\000684,Premises - Conversion of Licence,Chu Chi,"14 CHARLOTTE STREET, LONDON, W1T 2LX",LA2003,Application Approved,No,24/08/2005,,,,19/08/2005,2005-07-21,,,,,529490.27,181592.82,-0.135121,51.518432000000004,Nearest OS Open Map-Local Building,11/05/2017 07:37:31 PM,"(51.518432, -0.135121)",31175,http://opendatacommunities.org/id/london-borough-council/camden,1,Destination,originAPP\PREMISES-CONV\000684
1963,APP\PREMISES-CONV\000566,Premises - Conversion of Licence,Passage To India,"279E FINCHLEY ROAD, LONDON, NW3 6LT",LA2003,Application Approved,No,19/08/2005,,,,18/08/2005,2005-07-20,,,E05000145,West Hampstead,526121.17,184925.27,-0.18245899999999998,51.549141999999996,Nearest OS Open Map-Local Building,11/05/2017 07:37:31 PM,"(51.549142, -0.182459)",31280,http://opendatacommunities.org/id/london-borough-council/camden,1,Destination,originAPP\PREMISES-CONV\000566
1968,APP\PREMISES-CONV\000836,Premises - Conversion of Licence,Hot Rock Cafe,"6A CAMDEN ROAD, LONDON, NW1 9DL",LA2003,Application Rejected - Incomplete Documentation,No,,,,,02/09/2005,2005-05-08,09/08/2005,Camden Town,E05000130,Camden Town with Primrose Hill,528955.86,183892.26,-0.141978,51.539219,Nearest OS Open Map-Local Building,11/05/2017 07:37:31 PM,"(51.539219, -0.141978)",31041,http://opendatacommunities.org/id/london-borough-council/camden,1,Destination,originAPP\PREMISES-CONV\000836
1991,APP\PREMISES-CONV\000565,Premises - Conversion of Licence,Costcutters,"333 GRAY'S INN ROAD, LONDON, WC1X 8PX",LA2003,Application Approved,No,17/08/2005,,,,16/08/2005,2005-07-18,,,E05000141,King's Cross,530388.77,182929.58,-0.12168499999999999,51.530239,Nearest OS Open Map-Local Building,11/05/2017 07:37:31 PM,"(51.530239, -0.121685)",31281,http://opendatacommunities.org/id/london-borough-council/camden,1,Destination,originAPP\PREMISES-CONV\000565
2018,APP\PREMISES-CONV\001158,Premises - Conversion of Licence,Institute of Historical Research Club,"UNIVERSITY OF LONDON SENATE HOUSE MALET STREET, LONDON, WC1E 7HU",LA2003,Application Approved,No,03/09/2005,,,,02/09/2005,2005-05-08,,,E05000129,Bloomsbury,529946.1,181891.2,-0.128445,51.521009,Nearest OS Open Map-Local Building,11/05/2017 07:37:31 PM,"(51.521009, -0.128445)",30750,http://opendatacommunities.org/id/london-borough-council/camden,1,Destination,originAPP\PREMISES-CONV\001158
2034,APP\PREMISES-CONV\000328,Premises - Conversion of Licence,Fishworks,"57 REGENT'S PARK ROAD, LONDON, NW1 8XD",LA2003,Application Approved,No,21/07/2005,,,,20/07/2005,2005-06-21,,,E05000130,Camden Town with Primrose Hill,527831.92,184041.77,-0.158121,51.540818,Nearest OS Open Map-Local Building,11/05/2017 07:37:31 PM,"(51.540818, -0.158121)",31505,http://opendatacommunities.org/id/london-borough-council/camden,1,Destination,originAPP\PREMISES-CONV\000328
2048,APP\PREMISES-CONV\001002,Premises - Conversion of Licence,Tomai Pan Asian Street Food,"221 WEST END LANE, LONDON, NW6 1XJ",LA2003,Application Approved In Full,No,11/11/2010,,,,31/08/2005,2005-03-08,,,E05000145,West Hampstead,525504.11,184871.24,-0.19137300000000002,51.548794,Nearest OS Open Map-Local Building,11/05/2017 07:37:31 PM,"(51.548794, -0.191373)",30895,http://opendatacommunities.org/id/london-borough-council/camden,1,Destination,originAPP\PREMISES-CONV\001002
2054,APP\PREMISES-CONV\000259,Premises - Conversion of Licence,32A Limited (previously Bullet Bar),"147 THE CASTLE KENTISH TOWN ROAD, LONDON, NW1 8PB",LA2003,Application Approved,No,14/07/2005,,,,13/07/2005,2005-06-14,,,E05000130,Camden Town with Primrose Hill,528941.75,184533.22,-0.141947,51.544982,Nearest OS Open Map-Local Building,11/05/2017 07:37:31 PM,"(51.544982, -0.141947)",31572,http://opendatacommunities.org/id/london-borough-council/camden,1,Destination,originAPP\PREMISES-CONV\000259
2085,APP\PREMISES-CONV\000576,Premises - Conversion of Licence,Hemstall Self Service,"61 HEMSTAL ROAD, LONDON, NW6 2AD",LA2003,Application Approved,No,23/08/2005,,,,17/08/2005,2005-07-19,,,E05000140,Kilburn,525150.77,184354.16,-0.19665,51.544226,Nearest OS Open Map-Local Building,11/05/2017 07:37:31 PM,"(51.544226, -0.19665)",31272,http://opendatacommunities.org/id/london-borough-council/camden,1,Destination,originAPP\PREMISES-CONV\000576
2166,APP\PREMISES-CONV\000400,Premises - Conversion of Licence,Bangalore Brasserie,"1 BRECKNOCK ROAD, LONDON, N7 0BL",LA2003,Application Approved,No,05/08/2005,,,,29/07/2005,2005-06-30,,,E05000139,Kentish Town,529743.41,184998.68,-0.130221,51.548982,Nearest OS Open Map-Local Building,11/05/2017 07:37:31 PM,"(51.548982, -0.130221)",31439,http://opendatacommunities.org/id/london-borough-council/camden,1,Destination,originAPP\PREMISES-CONV\000400
2222,APP\PREMISES-CONV\000063,Premises - Conversion of Licence,Trattoria Monte Bianco,"86 CLEVELAND STREET, LONDON, W1T 6NQ",LA2003,Application Approved,No,08/06/2005,,,,07/06/2005,2005-10-05,,,E05000129,Bloomsbury,529048.09,182090.97,-0.141308,51.52301,Nearest OS Open Map-Local Building,11/05/2017 07:37:31 PM,"(51.52301, -0.141308)",31736,http://opendatacommunities.org/id/london-borough-council/camden,1,Destination,originAPP\PREMISES-CONV\000063
2256,APP\PREMISES-CONV\000512,Premises - Conversion of Licence,Cafe Renoir,"244 KENTISH TOWN ROAD, LONDON, NW5 2AB",LA2003,Application Approved,No,12/08/2005,,,,11/08/2005,2005-07-13,,,E05000139,Kentish Town,529016.07,185010.54,-0.140701,51.549255,Nearest OS Open Map-Local Building,11/05/2017 07:37:31 PM,"(51.549255, -0.140701)",31332,http://opendatacommunities.org/id/london-borough-council/camden,1,Destination,originAPP\PREMISES-CONV\000512
2264,APP\PREMISES-CONV\000240,Premises - Conversion of Licence,Singapore Gardens Restaurant,"83 FAIRFAX ROAD, LONDON, NW6 4DY",LA2003,Application Approved,No,09/07/2005,,,,08/07/2005,2005-09-06,,,E05000144,Swiss Cottage,526306.04,184187.68,-0.180059,51.542473,Nearest OS Open Map-Local Building,11/05/2017 07:37:31 PM,"(51.542473, -0.180059)",31589,http://opendatacommunities.org/id/london-borough-council/camden,1,Destination,originAPP\PREMISES-CONV\000240
2268,APP\PREMISES-CONV\000132,Premises - Conversion of Licence,Steven Lee Food & News,"290 GRAY'S INN ROAD, LONDON, WC1X 8EB",LA2003,Application Approved,No,14/07/2005,,,,22/06/2005,2005-05-24,,,E05000141,King's Cross,530625.09,182634.23,-0.11838900000000001,51.52753,Nearest OS Open Map-Local Building,11/05/2017 07:37:31 PM,"(51.52753, -0.118389)",31685,http://opendatacommunities.org/id/london-borough-council/camden,1,Destination,originAPP\PREMISES-CONV\000132
2324,APP\PREMISES-CONV\000422,Premises - Conversion of Licence,Aidel's,"244 HAVERSTOCK HILL, LONDON, NW3 2AE",LA2003,Application Approved,No,04/08/2005,,,,03/08/2005,2005-05-07,,,E05000135,Hampstead Town,527194.33,185295.67,-0.166857,51.55223,Nearest OS Open Map-Local Building,11/05/2017 07:37:31 PM,"(51.55223, -0.166857)",31419,http://opendatacommunities.org/id/london-borough-council/camden,1,Destination,originAPP\PREMISES-CONV\000422
2375,APP\PREMISES-CONV\000888,Premises - Conversion of Licence,Cecil Sharp House,"2 CECIL SHARP HOUSE REGENT'S PARK ROAD, LONDON, NW1 7AY",LA2003,Application Approved,No,30/08/2005,,,,29/08/2005,2005-01-08,,,E05000130,Camden Town with Primrose Hill,528447.51,183761.16,-0.149351,51.538157,Nearest OS Open Map-Local Building,11/05/2017 07:37:31 PM,"(51.538157, -0.149351)",30990,http://opendatacommunities.org/id/london-borough-council/camden,1,Destination,originAPP\PREMISES-CONV\000888
2402,APP\PREMISES-CONV\000249,Premises - Conversion of Licence,Costcutter,"305 FINCHLEY ROAD, LONDON, NW3 6DT",LA2003,Application Rejected - Incomplete Documentation,No,,,,,08/07/2005,2005-09-06,13/06/2005,,E05000145,West Hampstead,526082.75,184956.93,-0.183002,51.549434999999995,Nearest OS Open Map-Local Building,11/05/2017 07:37:31 PM,"(51.549435, -0.183002)",31581,http://opendatacommunities.org/id/london-borough-council/camden,1,Destination,originAPP\PREMISES-CONV\000249
2405,APP\PREMISES-CONV\000110,Premises - Conversion of Licence,St Chad's,"6 ST CHAD'S PLACE, LONDON, WC1X 9HH",LA2003,Application Approved,No,16/06/2005,,,,15/06/2005,2005-05-17,,,E05000141,King's Cross,530530.86,182970.86,-0.119622,51.530577,Nearest OS Open Map-Local Building,11/05/2017 07:37:31 PM,"(51.530577, -0.119622)",31701,http://opendatacommunities.org/id/london-borough-council/camden,1,Destination,originAPP\PREMISES-CONV\000110
2506,APP\PREMISES-CONV\001157,Premises - Conversion of Licence,Villa Restaurant,"194 KENTISH TOWN ROAD, LONDON, NW5 2AE",LA2003,Application Approved,No,02/09/2005,,,,02/09/2005,2005-05-08,,,E05000131,Cantelowes,529020.57,184828.56,-0.140702,51.547618,Nearest OS Open Map-Local Building,11/05/2017 07:37:31 PM,"(51.547618, -0.140702)",30751,http://opendatacommunities.org/id/london-borough-council/camden,1,Destination,originAPP\PREMISES-CONV\001157
2507,APP\PREMISES-CONV\001127,Premises - Conversion of Licence,Arabesque,"23 WINCHESTER ROAD, LONDON, NW3 3NR",LA2003,Application Approved,No,20/09/2005,,,,02/09/2005,2005-05-08,,,E05000144,Swiss Cottage,526798.97,184333.27,-0.172902,51.54367,Nearest OS Open Map-Local Building,11/05/2017 07:37:31 PM,"(51.54367, -0.172902)",30779,http://opendatacommunities.org/id/london-borough-council/camden,1,Destination,originAPP\PREMISES-CONV\001127
2525,APP\PREMISES-CONV\000616,Premises - Conversion of Licence,Fairprice Supermarket,"10 FAIRHAZEL GARDENS, LONDON, NW6 3SG",LA2003,Application Approved,No,22/08/2005,,,,19/08/2005,2005-07-21,,,E05000144,Swiss Cottage,526261.47,184158.19,-0.18071199999999998,51.542217,Nearest OS Open Map-Local Building,11/05/2017 07:37:31 PM,"(51.542217, -0.180712)",31238,http://opendatacommunities.org/id/london-borough-council/camden,1,Destination,originAPP\PREMISES-CONV\000616
2527,APP\PREMISES-CONV\000192,Premises - Conversion of Licence,Euro Food & Wines,"3  16 WOBURN PLACE, LONDON, WC1H 0LS",LA2003,Application Approved,No,09/08/2005,,,,30/06/2005,2005-01-06,,,E05000129,Bloomsbury,530113.54,182174.09,-0.12592899999999999,51.523513,Nearest OS Open Map-Local Building,11/05/2017 07:37:31 PM,"(51.523513, -0.125929)",31632,http://opendatacommunities.org/id/london-borough-council/camden,1,Origin,originAPP\PREMISES-CONV\000192
2531,APP\PREMISES-CONV\001165,Premises - Conversion of Licence,A-SAUCE LIMITED,"47 MUSEUM STREET, LONDON, WC1A 1LY",LA2003,Application Approved,No,06/09/2005,,,,03/09/2005,2005-06-08,,Seven Dials,E05000138,Holborn and Covent Garden,530192.71,181527.78,-0.125027,51.517687,Nearest OS Open Map-Local Building,11/05/2017 07:37:31 PM,"(51.517687, -0.125027)",30743,http://opendatacommunities.org/id/london-borough-council/camden,1,Destination,originAPP\PREMISES-CONV\001165
2563,APP\PREMISES-CONV\000571,Premises - Conversion of Licence,Natural Natural,"1 GOLDHURST TERRACE, LONDON, NW6 3HX",LA2003,Application Approved,No,23/08/2005,,,,17/08/2005,2005-07-19,,,E05000144,Swiss Cottage,526335.7,184551.47,-0.179501,51.545735,Nearest OS Open Map-Local Building,11/05/2017 07:37:31 PM,"(51.545735, -0.179501)",31276,http://opendatacommunities.org/id/london-borough-council/camden,1,Destination,originAPP\PREMISES-CONV\000571
2577,APP\PREMISES-CONV\000594,Premises - Conversion of Licence,Costcutter,"107 108 ROWLEY WAY, LONDON, NW8 0SW",LA2003,Application Rejected - Incomplete Documentation,No,,,,,10/08/2005,2005-12-07,27/07/2005,,E05000140,Kilburn,526142.39,183952.18,-0.182502,51.540393,Nearest OS Open Map-Local Building,11/05/2017 07:37:31 PM,"(51.540393, -0.182502)",31257,http://opendatacommunities.org/id/london-borough-council/camden,1,Destination,originAPP\PREMISES-CONV\000594
2580,APP\PREMISES-CONV\000746,Premises - Conversion of Licence,Sir Richard Steele,"97 HAVERSTOCK HILL, LONDON, NW3 4RL",LA2003,Application Approved,No,27/08/2005,,,,24/08/2005,2005-07-26,,,E05000128,Belsize,527774.46,184692.48,-0.15871300000000002,51.546679,Nearest OS Open Map-Local Building,11/05/2017 07:37:31 PM,"(51.546679, -0.158713)",31120,http://opendatacommunities.org/id/london-borough-council/camden,1,Destination,originAPP\PREMISES-CONV\000746
2622,APP\PREMISES-CONV\000687,Premises - Conversion of Licence,Rak's News,"7 QUEX ROAD, LONDON, NW6 4PP",LA2003,Application Approved,No,31/08/2005,,,,27/08/2005,2005-07-29,,,E05000140,Kilburn,525292.97,183915.38,-0.19475699999999999,51.540251,Nearest OS Open Map-Local Building,11/05/2017 07:37:31 PM,"(51.540251, -0.194757)",31172,http://opendatacommunities.org/id/london-borough-council/camden,1,Destination,originAPP\PREMISES-CONV\000687
2637,APP\PREMISES-CONV\000744,Premises - Conversion of Licence,Camden Burgers LTD,"23 CAMDEN HIGH STREET, LONDON, NW1 7JE",LA2003,Application Approved,No,31/08/2005,,,,25/08/2005,2005-07-27,,Camden Town,E05000142,Regent's Park,529129.52,183417.31,-0.139649,51.534911,Nearest OS Open Map-Local Building,11/05/2017 07:37:31 PM,"(51.534911, -0.139649)",31122,http://opendatacommunities.org/id/london-borough-council/camden,1,Destination,originAPP\PREMISES-CONV\000744
2692,APP\PREMISES-CONV\000692,Premises - Conversion of Licence,Primrose Hill Community Association,"29 HOPKINSON'S PLACE, LONDON, NW1 8TN",LA2003,Application Approved,No,06/09/2005,,,,19/08/2005,2005-07-21,,,E05000130,Camden Town with Primrose Hill,528018.7,183971.99,-0.155454,51.540149,Nearest OS Open Map-Local Building,11/05/2017 07:37:31 PM,"(51.540149, -0.155454)",31168,http://opendatacommunities.org/id/london-borough-council/camden,1,Destination,originAPP\PREMISES-CONV\000692
2694,APP\PREMISES-CONV\000237,Premises - Conversion of Licence,Sevilla Mia,"22 HANWAY STREET, LONDON, W1T 1UQ",LA2003,Application Rejected - Incomplete Documentation,No,,,,,02/07/2005,2005-03-06,10/06/2005,,E05000129,Bloomsbury,529709.49,181430.3,-0.132023,51.516921999999994,Nearest OS Open Map-Local Building,11/05/2017 07:37:31 PM,"(51.516922, -0.132023)",31592,http://opendatacommunities.org/id/london-borough-council/camden,1,Destination,originAPP\PREMISES-CONV\000237
2724,APP\PREMISES-CONV\000454,Premises - Conversion of Licence,Lidl UK GmbH,"217 223 KENTISH TOWN ROAD, LONDON, NW5 2JU",LA2003,Application Approved,No,03/08/2005,,,,02/08/2005,2005-04-07,,,E05000139,Kentish Town,528915.05,184769.23,-0.142245,51.547109000000006,Nearest OS Open Map-Local Building,11/05/2017 07:37:31 PM,"(51.547109, -0.142245)",31388,http://opendatacommunities.org/id/london-borough-council/camden,1,Destination,originAPP\PREMISES-CONV\000454
2763,APP\PREMISES-CONV\001171,Premises - Conversion of Licence,Royal Mile Whiskies,"3 BLOOMSBURY STREET, LONDON, WC1B 3QE",LA2003,Application Approved,No,21/09/2005,,,,01/09/2005,2005-04-08,,,E05000129,Bloomsbury,530025.8,181451.65,-0.127459,51.517041,Nearest OS Open Map-Local Building,11/05/2017 07:37:31 PM,"(51.517041, -0.127459)",30738,http://opendatacommunities.org/id/london-borough-council/camden,1,Destination,originAPP\PREMISES-CONV\001171
2795,APP\PREMISES-CONV\000424,Premises - Conversion of Licence,Frascati Restaurant,"33 HEATH STREET, LONDON, NW3 6TR",LA2003,Application Approved,No,06/08/2005,,,,30/07/2005,2005-01-07,,,E05000133,Frognal and Fitzjohns,526330.45,185709.42,-0.179161,51.556143,Nearest OS Open Map-Local Building,11/05/2017 07:37:31 PM,"(51.556143, -0.179161)",31417,http://opendatacommunities.org/id/london-borough-council/camden,1,Destination,originAPP\PREMISES-CONV\000424
2918,APP\PREMISES-CONV\000760,Premises - Conversion of Licence,Scala,"275 PENTONVILLE ROAD, LONDON, N1 9NL",LA2003,Application Approved,No,25/08/2005,,,,24/08/2005,2005-07-26,,,E05000141,King's Cross,530402.16,182980.44,-0.121473,51.530693,Nearest OS Open Map-Local Building,11/05/2017 07:37:31 PM,"(51.530693, -0.121473)",31109,http://opendatacommunities.org/id/london-borough-council/camden,1,Destination,originAPP\PREMISES-CONV\000760
2933,APP\PREMISES-CONV\000099,Premises - Conversion of Licence,Cosmoba,"9 COSMO PLACE, LONDON, WC1N 3AP",LA2003,Application Rejected - Incomplete Documentation,No,,,,,15/06/2005,2005-05-17,18/05/2005,,E05000138,Holborn and Covent Garden,530280.54,181985.11,-0.12359300000000001,51.521776,Nearest OS Open Map-Local Building,11/05/2017 07:37:31 PM,"(51.521776, -0.123593)",31710,http://opendatacommunities.org/id/london-borough-council/camden,1,Destination,originAPP\PREMISES-CONV\000099
3008,APP\PREMISES-CONV\001069,Premises - Conversion of Licence,House of Ho (formerly known as Bam-Bou),"1 PERCY STREET, LONDON, W1T 1DB",LA2003,Application Approved,No,03/09/2005,,,,01/09/2005,2005-04-08,,,E05000129,Bloomsbury,529586.97,181614.43,-0.13372,51.518605,Nearest OS Open Map-Local Building,11/05/2017 07:37:31 PM,"(51.518605, -0.13372)",30830,http://opendatacommunities.org/id/london-borough-council/camden,1,Destination,originAPP\PREMISES-CONV\001069
3043,APP\PREMISES-CONV\000950,Premises - Conversion of Licence,Basilico,"515A FINCHLEY ROAD, LONDON, NW3 7BB",LA2003,Application Approved,No,01/09/2005,,,,31/08/2005,2005-03-08,,,E05000132,Fortune Green,525442.75,185496.97,-0.19203499999999998,51.554431,Nearest OS Open Map-Local Building,11/05/2017 07:37:31 PM,"(51.554431, -0.192035)",30937,http://opendatacommunities.org/id/london-borough-council/camden,1,Destination,originAPP\PREMISES-CONV\000950
3054,APP\PREMISES-CONV\000104,Premises - Conversion of Licence,Leverton Grocers,"50 LEVERTON STREET, LONDON, NW5 2PG",LA2003,Application Approved,No,17/06/2005,,,,16/06/2005,2005-05-18,,,E05000139,Kentish Town,529123.33,185393.29,-0.139014,51.55267,Nearest OS Open Map-Local Building,11/05/2017 07:37:31 PM,"(51.55267, -0.139014)",31706,http://opendatacommunities.org/id/london-borough-council/camden,1,Destination,originAPP\PREMISES-CONV\000104
3057,APP\PREMISES-CONV\001006,Premises - Conversion of Licence,Brizzi Snack Bar,"131 DRUMMOND STREET, LONDON, NW1 2HL",LA2003,Application Approved,No,05/09/2005,,,,31/08/2005,2005-03-08,,,E05000142,Regent's Park,529371.86,182534.27,-0.136481,51.526920000000004,Nearest OS Open Map-Local Building,11/05/2017 07:37:31 PM,"(51.52692, -0.136481)",30892,http://opendatacommunities.org/id/london-borough-council/camden,1,Destination,originAPP\PREMISES-CONV\001006
3129,APP\PREMISES-CONV\000851,Premises - Conversion of Licence,Oddbins,"58 HAMPSTEAD HIGH STREET, LONDON, NW3 1QH",LA2003,Application Approved,No,27/08/2005,,,,25/08/2005,2005-07-28,,,E05000135,Hampstead Town,526385.31,185716.08,-0.178368,51.55619,Nearest OS Open Map-Local Building,11/05/2017 07:37:31 PM,"(51.55619, -0.178368)",31026,http://opendatacommunities.org/id/london-borough-council/camden,1,Destination,originAPP\PREMISES-CONV\000851
3206,APP\PREMISES-CONV\000462,Premises - Conversion of Licence,Al Parco Pizzeria (Bistro Lazz),"2 HIGHGATE WEST HILL, LONDON, N6 6JS",LA2003,Application Approved,No,11/08/2005,,,,10/08/2005,2005-12-07,,,E05000137,Highgate,528262.15,186349.7,-0.15108,51.561461,Nearest OS Open Map-Local Building,11/05/2017 07:37:31 PM,"(51.561461, -0.15108)",31380,http://opendatacommunities.org/id/london-borough-council/camden,1,Destination,originAPP\PREMISES-CONV\000462
3215,APP\PREMISES-CONV\001202,Premises - Conversion of Licence,Manna Restaurant,"4 ERSKINE ROAD, LONDON, NW3 3AJ",LA2003,Application Approved,No,05/09/2005,,,,03/09/2005,2005-06-08,,,E05000130,Camden Town with Primrose Hill,527887.61,184177.69,-0.157269,51.542027000000004,Nearest OS Open Map-Local Building,11/05/2017 07:37:31 PM,"(51.542027, -0.157269)",30710,http://opendatacommunities.org/id/london-borough-council/camden,1,Destination,originAPP\PREMISES-CONV\001202
3222,APP\PREMISES-CONV\001115,Premises - Conversion of Licence,Dim T,"1 HAMPSTEAD LANE, LONDON, N6 4RS",LA2003,Application Approved,No,28/09/2005,,,,01/09/2005,2005-04-08,,,E05000137,Highgate,528277.05,187460.59,-0.15045999999999998,51.571441,Nearest OS Open Map-Local Building,11/05/2017 07:37:31 PM,"(51.571441, -0.15046)",30788,http://opendatacommunities.org/id/london-borough-council/camden,1,Destination,originAPP\PREMISES-CONV\001115
3309,APP\PREMISES-CONV\000200,Premises - Conversion of Licence,Trattoria Verdi,"110 SOUTHAMPTON ROW, LONDON, WC1B 4BL",LA2003,Application Rejected - Incomplete Documentation,No,,,,,25/06/2005,2005-05-27,06/06/2005,,E05000138,Holborn and Covent Garden,530397.56,181815.73,-0.12197000000000001,51.520227,Nearest OS Open Map-Local Building,11/05/2017 07:37:31 PM,"(51.520227, -0.12197)",31625,http://opendatacommunities.org/id/london-borough-council/camden,1,Destination,originAPP\PREMISES-CONV\000200
3413,APP\PREMISES-CONV\000076,Premises - Conversion of Licence,Vasis Restaurant,"56 MAPLE STREET, LONDON, W1T 6HW",LA2003,Application Rejected - Incomplete Documentation,No,,,,,04/06/2005,2005-06-05,11/05/2005,,E05000129,Bloomsbury,529129.59,181981.45,-0.140174,51.522007,Nearest OS Open Map-Local Building,11/05/2017 07:37:31 PM,"(51.522007, -0.140174)",31729,http://opendatacommunities.org/id/london-borough-council/camden,1,Destination,originAPP\PREMISES-CONV\000076
3429,APP\PREMISES-CONV\000208,Premises - Conversion of Licence,Bloomsbury Cheeses,"61 JUDD STREET, LONDON, WC1H 9QT",LA2003,Application Approved,No,06/07/2005,,,,05/07/2005,2005-06-06,,,E05000141,King's Cross,530194.95,182556.85,-0.124615,51.526934000000004,Nearest OS Open Map-Local Building,11/05/2017 07:37:31 PM,"(51.526934, -0.124615)",31618,http://opendatacommunities.org/id/london-borough-council/camden,1,Destination,originAPP\PREMISES-CONV\000208
3433,APP\PREMISES-CONV\000732,Premises - Conversion of Licence,Jays News,"3 BRECKNOCK ROAD, LONDON, N7 0BL",LA2003,Application Rejected - Incomplete Documentation,No,,,,,31/08/2005,2005-02-08,03/08/2005,,E05000139,Kentish Town,529743.41,184998.68,-0.130221,51.548982,Nearest OS Open Map-Local Building,11/05/2017 07:37:31 PM,"(51.548982, -0.130221)",31132,http://opendatacommunities.org/id/london-borough-council/camden,1,Destination,originAPP\PREMISES-CONV\000732
3465,APP\PREMISES-CONV\000642,Premises - Conversion of Licence,Globe Restaurant,"100 AVENUE ROAD, LONDON, NW3 3HF",LA2003,Application Approved,No,06/09/2005,,,,17/08/2005,2005-07-19,,,E05000144,Swiss Cottage,526712.49,184295.5,-0.17416199999999998,51.54335,Nearest OS Open Map-Local Building,11/05/2017 07:37:31 PM,"(51.54335, -0.174162)",31213,http://opendatacommunities.org/id/london-borough-council/camden,1,Destination,originAPP\PREMISES-CONV\000642
3482,APP\PREMISES-CONV\000572,Premises - Conversion of Licence,Lihiniya Restaurant,"66 CRICKLEWOOD BROADWAY, LONDON, NW2 3EP",LA2003,Application Approved,No,09/09/2005,,,,17/08/2005,2005-07-19,,,E05000132,Fortune Green,524056.33,185438.19,-0.212042,51.554209,Nearest OS Open Map-Local Building,11/05/2017 07:37:31 PM,"(51.554209, -0.212042)",31275,http://opendatacommunities.org/id/london-borough-council/camden,1,Destination,originAPP\PREMISES-CONV\000572
3485,APP\PREMISES-CONV\000210,Premises - Conversion of Licence,Unwins,"84 MARCHMONT STREET, LONDON, WC1N 1AG",LA2003,Application Approved,No,04/07/2005,,,,02/07/2005,2005-03-06,,,E05000141,King's Cross,530182.15,182481.24,-0.124827,51.526258,Nearest OS Open Map-Local Building,11/05/2017 07:37:31 PM,"(51.526258, -0.124827)",31616,http://opendatacommunities.org/id/london-borough-council/camden,1,Destination,originAPP\PREMISES-CONV\000210
3566,APP\PREMISES-CONV\000672,Premises - Conversion of Licence,Londsbury Express (Formerly Fleet Food Stop Off Licence),"88 FLEET ROAD, LONDON, NW3 2QT",LA2003,Application Approved,No,24/08/2005,,,,24/08/2005,2005-07-26,,,E05000134,Gospel Oak,527572.8,185471.09,-0.16133699999999998,51.553721,Nearest OS Open Map-Local Building,11/05/2017 07:37:31 PM,"(51.553721, -0.161337)",31185,http://opendatacommunities.org/id/london-borough-council/camden,1,Destination,originAPP\PREMISES-CONV\000672
3572,APP\PREMISES-CONV\000763,Premises - Conversion of Licence,Allora,"130 BOUNDARY ROAD, LONDON, NW8 0RH",LA2003,Application Approved In Full,No,27/08/2005,,,,26/08/2005,2005-07-28,,,E05000140,Kilburn,525882.19,183564.83,-0.18639,51.536970000000004,Nearest OS Open Map-Local Building,11/05/2017 07:37:31 PM,"(51.53697, -0.18639)",31106,http://opendatacommunities.org/id/london-borough-council/camden,1,Destination,originAPP\PREMISES-CONV\000763
3579,APP\PREMISES-CONV\000357,Premises - Conversion of Licence,Bengal Lancer,"253 255 KENTISH TOWN ROAD, LONDON, NW5 2JT",LA2003,Application Approved,No,25/07/2005,,,,23/07/2005,2005-06-24,,,E05000139,Kentish Town,528943.53,184922.5,-0.141778,51.54848,Nearest OS Open Map-Local Building,11/05/2017 07:37:31 PM,"(51.54848, -0.141778)",31479,http://opendatacommunities.org/id/london-borough-council/camden,1,Destination,originAPP\PREMISES-CONV\000357
3596,APP\PREMISES-CONV\000085,Premises - Conversion of Licence,Konaki Greek Restaurant,"5 COPTIC STREET, LONDON, WC1A 1NH",LA2003,Application Approved,No,10/06/2005,,,,09/06/2005,2005-11-05,,Seven Dials,E05000138,Holborn and Covent Garden,530084.59,181477.49,-0.126603,51.51726,Nearest OS Open Map-Local Building,11/05/2017 07:37:31 PM,"(51.51726, -0.126603)",31722,http://opendatacommunities.org/id/london-borough-council/camden,1,Destination,originAPP\PREMISES-CONV\000085
3609,APP\PREMISES-CONV\000724,Premises - Conversion of Licence,Sushi Waka,"75 PARKWAY, LONDON, NW1 7PP",LA2003,Application Approved,No,25/08/2005,,,,24/08/2005,2005-07-26,,Camden Town,E05000130,Camden Town with Primrose Hill,528751.95,183639.94,-0.145009,51.536998,Nearest OS Open Map-Local Building,11/05/2017 07:37:31 PM,"(51.536998, -0.145009)",31140,http://opendatacommunities.org/id/london-borough-council/camden,1,Destination,originAPP\PREMISES-CONV\000724
3641,APP\PREMISES-CONV\000651,Premises - Conversion of Licence,Old Crown,"33 NEW OXFORD STREET, LONDON, WC1A 1BH",LA2003,Application Rejected - Incomplete Documentation,No,,,,,23/08/2005,2005-07-25,28/07/2005,Seven Dials,E05000138,Holborn and Covent Garden,530175.35,181438.83,-0.12531,51.516890999999994,Nearest OS Open Map-Local Building,11/05/2017 07:37:31 PM,"(51.516891, -0.12531)",31205,http://opendatacommunities.org/id/london-borough-council/camden,1,Destination,originAPP\PREMISES-CONV\000651
3704,APP\PREMISES-CONV\000552,Premises - Conversion of Licence,Shah Tandoori,"159 DRUMMOND STREET, LONDON, NW1 2PB",LA2003,Application Rejected - Incomplete Documentation,No,,,,,12/08/2005,2005-07-14,26/07/2005,,E05000142,Regent's Park,529272.69,182476.31,-0.137931,51.526422,Nearest OS Open Map-Local Building,11/05/2017 07:37:31 PM,"(51.526422, -0.137931)",31294,http://opendatacommunities.org/id/london-borough-council/camden,1,Destination,originAPP\PREMISES-CONV\000552
3733,APP\PREMISES-CONV\000524,Premises - Conversion of Licence,Lantana Cafe,"13 CHARLOTTE PLACE, LONDON, W1T 1SN",LA2003,Application Approved,No,13/08/2005,,,,12/08/2005,2005-07-14,,,E05000129,Bloomsbury,529442.0,181657.07,-0.135793,51.519021,Nearest OS Open Map-Local Building,11/05/2017 07:37:31 PM,"(51.519021, -0.135793)",31321,http://opendatacommunities.org/id/london-borough-council/camden,1,Destination,originAPP\PREMISES-CONV\000524
3743,APP\PREMISES-CONV\000216,Premises - Conversion of Licence,Unwins,"169 HAVERSTOCK HILL, LONDON, NW3 4QT",LA2003,Application Approved,No,07/07/2005,,,,02/07/2005,2005-03-06,,,E05000128,Belsize,527379.59,185023.84,-0.16428399999999999,51.549746,Nearest OS Open Map-Local Building,11/05/2017 07:37:31 PM,"(51.549746, -0.164284)",31610,http://opendatacommunities.org/id/london-borough-council/camden,1,Destination,originAPP\PREMISES-CONV\000216
3749,APP\PREMISES-CONV\000440,Premises - Conversion of Licence,Express Cafe,"139 KING'S CROSS ROAD, LONDON, WC1X 9BJ",LA2003,Application Approved,No,03/08/2005,,,,02/08/2005,2005-04-07,,,E05000141,King's Cross,530746.38,182858.51,-0.116559,51.529517999999996,Nearest OS Open Map-Local Building,11/05/2017 07:37:31 PM,"(51.529518, -0.116559)",31401,http://opendatacommunities.org/id/london-borough-council/camden,1,Destination,originAPP\PREMISES-CONV\000440
3757,APP\PREMISES-CONV\000761,Premises - Conversion of Licence,Belgo Noord & Belgo Rapido,"72  73 CHALK FARM ROAD, LONDON, NW1 8AN",LA2003,Application Approved,No,01/09/2005,,,,26/08/2005,2005-07-28,,Camden Town,E05000136,Haverstock,528327.65,184392.87,-0.150849,51.543861,Nearest OS Open Map-Local Building,11/05/2017 07:37:31 PM,"(51.543861, -0.150849)",31108,http://opendatacommunities.org/id/london-borough-council/camden,1,Destination,originAPP\PREMISES-CONV\000761
3882,APP\PREMISES-CONV\000390,Premises - Conversion of Licence,Tohbang Restaurant,"164 CLERKENWELL ROAD, LONDON, EC1R 5DU",LA2003,Application Approved,No,05/08/2005,,,,26/07/2005,2005-06-27,,,E05000138,Holborn and Covent Garden,531132.07,182076.35,-0.111293,51.522399,Nearest OS Open Map-Local Building,11/05/2017 07:37:31 PM,"(51.522399, -0.111293)",31448,http://opendatacommunities.org/id/london-borough-council/camden,1,Destination,originAPP\PREMISES-CONV\000390
3891,APP\PREMISES-CONV\000527,Premises - Conversion of Licence,Jing Jun Ge Chinese Restaurant,"289 FINCHLEY ROAD, LONDON, NW3 6ND",LA2003,Application Approved,No,06/09/2005,,,,13/08/2005,2005-07-15,,,E05000145,West Hampstead,526121.17,184925.27,-0.18245899999999998,51.549141999999996,Nearest OS Open Map-Local Building,11/05/2017 07:37:31 PM,"(51.549142, -0.182459)",31318,http://opendatacommunities.org/id/london-borough-council/camden,1,Destination,originAPP\PREMISES-CONV\000527
3930,APP\PREMISES-CONV\000431,Premises - Conversion of Licence,Cafe Mode,"57 ENDELL STREET, LONDON, WC2H 9AJ",LA2003,Application Approved,No,06/08/2005,,,,30/07/2005,2005-01-07,,Seven Dials,E05000138,Holborn and Covent Garden,530128.31,181232.06,-0.126064,51.515044,Nearest OS Open Map-Local Building,11/05/2017 07:37:31 PM,"(51.515044, -0.126064)",31410,http://opendatacommunities.org/id/london-borough-council/camden,1,Destination,originAPP\PREMISES-CONV\000431
3932,APP\PREMISES-CONV\000334,Premises - Conversion of Licence,Alps Restaurant,"42 THEOBALD'S ROAD, LONDON, WC1X 8NW",LA2003,Application Approved,No,22/07/2005,,,,21/07/2005,2005-06-22,,,E05000138,Holborn and Covent Garden,530809.44,181960.47,-0.11598299999999999,51.521433,Nearest OS Open Map-Local Building,11/05/2017 07:37:31 PM,"(51.521433, -0.115983)",31500,http://opendatacommunities.org/id/london-borough-council/camden,1,Destination,originAPP\PREMISES-CONV\000334
3943,APP\PREMISES-CONV\000447,Premises - Conversion of Licence,Speedy Noodles,"238 KILBURN HIGH ROAD, LONDON, NW6 2BS",LA2003,Application Approved,No,04/08/2005,,,,03/08/2005,2005-05-07,,,,,524967.55,184181.36,-0.199352,51.542713,Nearest OS Open Map-Local Building,11/05/2017 07:37:31 PM,"(51.542713, -0.199352)",31394,http://opendatacommunities.org/id/london-borough-council/camden,1,Destination,originAPP\PREMISES-CONV\000447
3946,APP\PREMISES-CONV\000417,Premises - Conversion of Licence,Greenberry Cafe,"101 REGENT'S PARK ROAD, LONDON, NW1 8UR",LA2003,Application Approved,No,31/07/2005,,,,30/07/2005,2005-01-07,,,E05000130,Camden Town with Primrose Hill,527938.01,184197.85,-0.15653499999999998,51.542196999999994,Nearest OS Open Map-Local Building,11/05/2017 07:37:31 PM,"(51.542197, -0.156535)",31424,http://opendatacommunities.org/id/london-borough-council/camden,1,Destination,originAPP\PREMISES-CONV\000417
3968,APP\PREMISES-CONV\000769,Premises - Conversion of Licence,Clarendon Hotel,"34  37 BEDFORD PLACE, LONDON, WC1B 5JR",LA2003,Application Approved,No,27/08/2005,,,,26/08/2005,2005-07-28,,,E05000129,Bloomsbury,530193.39,181787.19,-0.124921,51.520018,Nearest OS Open Map-Local Building,11/05/2017 07:37:31 PM,"(51.520018, -0.124921)",31099,http://opendatacommunities.org/id/london-borough-council/camden,1,Destination,originAPP\PREMISES-CONV\000769
4042,APP\PREMISES-CONV\000818,Premises - Conversion of Licence,Kentucky Fried Chicken,"239 CAMDEN HIGH STREET, LONDON, NW1 7BU",LA2003,Application Approved,No,27/08/2005,,,,26/08/2005,2005-07-28,,Camden Town,E05000130,Camden Town with Primrose Hill,528778.86,183979.04,-0.14449700000000001,51.540039,Nearest OS Open Map-Local Building,11/05/2017 07:37:31 PM,"(51.540039, -0.144497)",31056,http://opendatacommunities.org/id/london-borough-council/camden,1,Destination,originAPP\PREMISES-CONV\000818
4137,APP\PREMISES-CONV\000108,Premises - Conversion of Licence,Taro Japanese Restaurant,"293 FINCHLEY ROAD, LONDON, NW3 6DT",LA2003,Application Approved,No,16/06/2005,,,,16/06/2005,2005-05-18,,,E05000145,West Hampstead,526121.17,184925.27,-0.18245899999999998,51.549141999999996,Nearest OS Open Map-Local Building,11/05/2017 07:37:31 PM,"(51.549142, -0.182459)",31702,http://opendatacommunities.org/id/london-borough-council/camden,1,Destination,originAPP\PREMISES-CONV\000108
4184,APP\PREMISES-CONV\001108,Premises - Conversion of Licence,Majestic Wine Warehouse,"2425 DRURY LANE, LONDON, WC2B 5RH",LA2003,Application Approved,No,07/09/2005,,,,24/08/2005,2005-07-27,,,,,530342.31,181211.81,-0.12298900000000001,51.514813000000004,Nearest OS Open Map-Local Building,11/05/2017 07:37:31 PM,"(51.514813, -0.122989)",30795,http://opendatacommunities.org/id/london-borough-council/camden,1,Destination,originAPP\PREMISES-CONV\001108
4194,APP\PREMISES-CONV\000842,Premises - Conversion of Licence,Grape Sense,"CHALK FARM PARADE ADELAIDE ROAD, LONDON, NW3 2BN",LA2003,Application Approved,No,27/08/2005,,,,26/08/2005,2005-07-29,,Camden Town,E05000136,Haverstock,528106.45,184420.08,-0.154027,51.544156,Nearest OS Open Map-Local Building,11/05/2017 07:37:31 PM,"(51.544156, -0.154027)",31035,http://opendatacommunities.org/id/london-borough-council/camden,1,Destination,originAPP\PREMISES-CONV\000842
4221,APP\PREMISES-CONV\000407,Premises - Conversion of Licence,Chilly Cool,"15 LEIGH STREET, LONDON, WC1H 9EW",LA2003,Application Approved,No,05/08/2005,,,,29/07/2005,2005-06-30,,,E05000141,King's Cross,530182.15,182481.24,-0.124827,51.526258,Nearest OS Open Map-Local Building,11/05/2017 07:37:31 PM,"(51.526258, -0.124827)",31433,http://opendatacommunities.org/id/london-borough-council/camden,1,Destination,originAPP\PREMISES-CONV\000407
4222,APP\PREMISES-CONV\000365,Premises - Conversion of Licence,Costcutter,"305 FINCHLEY ROAD, LONDON, NW3 6DT",LA2003,Application Approved,No,29/07/2005,,,,28/07/2005,2005-06-29,,,E05000145,West Hampstead,526082.75,184956.93,-0.183002,51.549434999999995,Nearest OS Open Map-Local Building,11/05/2017 07:37:31 PM,"(51.549435, -0.183002)",31471,http://opendatacommunities.org/id/london-borough-council/camden,1,Destination,originAPP\PREMISES-CONV\000365
4261,APP\PREMISES-CONV\000801,Premises - Conversion of Licence,Le Pain Quotidien,"64 TOTTENHAM COURT ROAD, LONDON, W1T 2ET",LA2003,Application Approved,No,27/08/2005,,,,26/08/2005,2005-07-28,,,E05000129,Bloomsbury,529517.29,181805.45,-0.134654,51.520337,Nearest OS Open Map-Local Building,11/05/2017 07:37:31 PM,"(51.520337, -0.134654)",31068,http://opendatacommunities.org/id/london-borough-council/camden,1,Destination,originAPP\PREMISES-CONV\000801
4308,APP\PREMISES-CONV\001153,Premises - Conversion of Licence,Oddbins,"229 WEST END LANE, LONDON, NW6 1XJ",LA2003,Application Approved,No,02/09/2005,,,,02/09/2005,2005-05-08,,,E05000145,West Hampstead,525504.11,184871.24,-0.19137300000000002,51.548794,Nearest OS Open Map-Local Building,11/05/2017 07:37:31 PM,"(51.548794, -0.191373)",30755,http://opendatacommunities.org/id/london-borough-council/camden,1,Destination,originAPP\PREMISES-CONV\001153
4309,APP\PREMISES-CONV\000814,Premises - Conversion of Licence,Buckingham Hotel,"39  40 BEDFORD PLACE, LONDON, WC1B 5JT",LA2003,Application Approved,No,05/09/2005,,,,26/08/2005,2005-07-28,,,E05000129,Bloomsbury,530240.14,181724.54,-0.124271,51.519444,Nearest OS Open Map-Local Building,11/05/2017 07:37:31 PM,"(51.519444, -0.124271)",31059,http://opendatacommunities.org/id/london-borough-council/camden,1,Destination,originAPP\PREMISES-CONV\000814
4322,APP\PREMISES-CONV\000348,Premises - Conversion of Licence,Agra Restaurant,"135 137 WHITFIELD STREET, LONDON, W1T 5EL",LA2003,Application Approved,No,27/07/2005,,,,26/07/2005,2005-06-27,,,E05000129,Bloomsbury,529182.9,182155.57,-0.139343,51.523559999999996,Nearest OS Open Map-Local Building,11/05/2017 07:37:31 PM,"(51.52356, -0.139343)",31487,http://opendatacommunities.org/id/london-borough-council/camden,1,Destination,originAPP\PREMISES-CONV\000348
4350,APP\PREMISES-CONV\001041,Premises - Conversion of Licence,Belgo Centraal,"50 EARLHAM STREET, LONDON, WC2H 9LJ",LA2003,Application Approved,No,19/09/2005,,,,01/09/2005,2005-04-08,,Seven Dials,E05000138,Holborn and Covent Garden,530128.41,181078.87,-0.126119,51.513667,Nearest OS Open Map-Local Building,11/05/2017 07:37:31 PM,"(51.513667, -0.126119)",30858,http://opendatacommunities.org/id/london-borough-council/camden,1,Destination,originAPP\PREMISES-CONV\001041
4453,APP\PREMISES-CONV\000781,Premises - Conversion of Licence,The Gallery,"190 BROADHURST GARDENS, LONDON, NW6 3AY",LA2003,Application Approved,No,20/08/2005,,,,20/08/2005,2005-07-22,,,E05000145,West Hampstead,525573.66,184635.19,-0.19045499999999999,51.546657,Nearest OS Open Map-Local Building,11/05/2017 07:37:31 PM,"(51.546657, -0.190455)",31088,http://opendatacommunities.org/id/london-borough-council/camden,1,Destination,originAPP\PREMISES-CONV\000781
4483,APP\PREMISES-CONV\000213,Premises - Conversion of Licence,Kim Korean Restaurant LTD High Holborn,"71 MID CITY PLACE HIGH HOLBORN, LONDON, WC1V 6EA",LA2003,Application Approved,No,07/07/2005,,,,01/07/2005,2005-02-06,,,E05000138,Holborn and Covent Garden,530830.04,181642.15,-0.11580399999999999,51.518567,Nearest OS Open Map-Local Building,11/05/2017 07:37:31 PM,"(51.518567, -0.115804)",31613,http://opendatacommunities.org/id/london-borough-council/camden,1,Destination,originAPP\PREMISES-CONV\000213
4519,APP\PREMISES-CONV\000508,Premises - Conversion of Licence,Spielburger,"37 HEATH STREET, LONDON, NW3 6TR",LA2003,Application Approved,No,18/08/2005,,,,17/08/2005,2005-07-19,,,E05000133,Frognal and Fitzjohns,526330.45,185709.42,-0.179161,51.556143,Nearest OS Open Map-Local Building,11/05/2017 07:37:31 PM,"(51.556143, -0.179161)",31336,http://opendatacommunities.org/id/london-borough-council/camden,1,Destination,originAPP\PREMISES-CONV\000508
4619,APP\PREMISES-CONV\001221,Premises - Conversion of Licence,Takari,"22 DRURY LANE, LONDON, WC2B 5RH",LA2003,Application Approved,No,04/09/2005,,,,03/09/2005,2005-06-08,,,,,530342.31,181211.81,-0.12298900000000001,51.514813000000004,Nearest OS Open Map-Local Building,11/05/2017 07:37:31 PM,"(51.514813, -0.122989)",30692,http://opendatacommunities.org/id/london-borough-council/camden,1,Destination,originAPP\PREMISES-CONV\001221
4683,APP\PREMISES-CONV\000903,Premises - Conversion of Licence,Co-Operative Group Food Limited,"250 254 KENTISH TOWN ROAD, LONDON, NW5 2AB",LA2003,Application Approved,No,30/08/2005,,,,29/08/2005,2005-01-08,,,E05000139,Kentish Town,529016.07,185010.54,-0.140701,51.549255,Nearest OS Open Map-Local Building,11/05/2017 07:37:31 PM,"(51.549255, -0.140701)",30976,http://opendatacommunities.org/id/london-borough-council/camden,1,Destination,originAPP\PREMISES-CONV\000903
4786,APP\PREMISES-CONV\000215,Premises - Conversion of Licence,Highgate Literary and Scientific Institution,"11 SOUTH GROVE, LONDON, N6 6BS",LA2003,Application Approved,No,16/07/2005,,,,05/07/2005,2005-06-06,,,E05000137,Highgate,528396.39,187314.9,-0.148792,51.570105,Nearest OS Open Map-Local Building,11/05/2017 07:37:31 PM,"(51.570105, -0.148792)",31611,http://opendatacommunities.org/id/london-borough-council/camden,1,Destination,originAPP\PREMISES-CONV\000215
4805,APP\PREMISES-CONV\001030,Premises - Conversion of Licence,Interchange Studios,"213 HAMPSTEAD TOWN HALL CENTRE HAVERSTOCK HILL, LONDON, NW3 4QP",LA2003,Application Approved,No,23/08/2005,,,,22/08/2005,2005-07-25,,,E05000128,Belsize,527216.93,185149.14,-0.16658399999999998,51.550908,Nearest OS Open Map-Local Building,11/05/2017 07:37:31 PM,"(51.550908, -0.166584)",30869,http://opendatacommunities.org/id/london-borough-council/camden,1,Destination,originAPP\PREMISES-CONV\001030
4822,APP\PREMISES-CONV\000766,Premises - Conversion of Licence,Supersave,"117 HAMPSTEAD ROAD, LONDON, NW1 3EE",LA2003,Application Approved,No,27/08/2005,,,,26/08/2005,2005-07-28,,,E05000142,Regent's Park,529184.17,182645.2,-0.139145,51.52796,Nearest OS Open Map-Local Building,11/05/2017 07:37:31 PM,"(51.52796, -0.139145)",31103,http://opendatacommunities.org/id/london-borough-council/camden,1,Destination,originAPP\PREMISES-CONV\000766
4866,APP\PREMISES-CONV\000290,Premises - Conversion of Licence,Punjab Restaurant,"80 NEAL STREET, LONDON, WC2H 9PA",LA2003,Application Approved,No,15/07/2005,,,,14/07/2005,2005-06-15,,Seven Dials,E05000138,Holborn and Covent Garden,530128.31,181232.06,-0.126064,51.515044,Nearest OS Open Map-Local Building,11/05/2017 07:37:31 PM,"(51.515044, -0.126064)",31541,http://opendatacommunities.org/id/london-borough-council/camden,1,Destination,originAPP\PREMISES-CONV\000290
4889,APP\PREMISES-CONV\000461,Premises - Conversion of Licence,The Great Hall Of Lincoln's Inn,"LINCOLNS INN NEW HALL LINCOLN'S INN FIELDS, LONDON, WC2A 3TL",LA2003,Application Approved,No,04/08/2005,,,,03/08/2005,2005-05-07,,,E05000138,Holborn and Covent Garden,530919.27,181414.88,-0.114603,51.516504,Nearest OS Open Map-Local Building,11/05/2017 07:37:31 PM,"(51.516504, -0.114603)",31381,http://opendatacommunities.org/id/london-borough-council/camden,1,Destination,originAPP\PREMISES-CONV\000461
4906,APP\PREMISES-CONV\001166,Premises - Conversion of Licence,OLA Cafe Restaurant,"200 SHAFTESBURY AVENUE, LONDON, WC2H 8JL",LA2003,Application Approved,No,13/09/2005,,,,02/09/2005,2005-05-08,,Seven Dials,E05000138,Holborn and Covent Garden,530128.31,181232.06,-0.126064,51.515044,Nearest OS Open Map-Local Building,11/05/2017 07:37:31 PM,"(51.515044, -0.126064)",30742,http://opendatacommunities.org/id/london-borough-council/camden,1,Destination,originAPP\PREMISES-CONV\001166
4943,APP\PREMISES-CONV\000493,Premises - Conversion of Licence,Tufnell Park Kebab,"233 BRECKNOCK ROAD, LONDON, N19 5AA",LA2003,Application Approved,No,18/08/2005,,,,09/08/2005,2005-11-07,,,,,529197.69,185818.55,-0.137786,51.556475,Nearest OS Open Map-Local Building,11/05/2017 07:37:31 PM,"(51.556475, -0.137786)",31350,http://opendatacommunities.org/id/london-borough-council/camden,1,Destination,originAPP\PREMISES-CONV\000493
4944,APP\PREMISES-CONV\001029,Premises - Conversion of Licence,London School Of Economics & Political Science,"178 LONDON SCHOOL OF ECONOMICS HIGH HOLBORN HALL OF RESIDENCE HIGH HOLBORN, LONDON, WC1V 7AA",LA2003,Application Approved,No,02/09/2005,,,,31/08/2005,2005-03-08,,Seven Dials,E05000138,Holborn and Covent Garden,530210.86,181297.81,-0.12485,51.515615999999994,Nearest OS Open Map-Local Building,11/05/2017 07:37:31 PM,"(51.515616, -0.12485)",30870,http://opendatacommunities.org/id/london-borough-council/camden,1,Destination,originAPP\PREMISES-CONV\001029
4945,APP\PREMISES-CONV\001032,Premises - Conversion of Licence,Wilton & Noble,"9 GOLDHURST TERRACE, LONDON, NW6 3HX",LA2003,Application Approved,No,13/09/2005,,,,31/08/2005,2005-03-08,,,E05000144,Swiss Cottage,526335.7,184551.47,-0.179501,51.545735,Nearest OS Open Map-Local Building,11/05/2017 07:37:31 PM,"(51.545735, -0.179501)",30867,http://opendatacommunities.org/id/london-borough-council/camden,1,Destination,originAPP\PREMISES-CONV\001032
5217,APP\PREMISES-CONV\001010,Premises - Conversion of Licence,New Market Inn,"17 YORK WAY, LONDON, N7 9QG",LA2003,Application Approved,No,01/09/2005,,,,31/08/2005,2005-03-08,,,E05000131,Cantelowes,530004.99,184347.96,-0.126691,51.543074,Nearest OS Open Map-Local Building,11/05/2017 07:37:31 PM,"(51.543074, -0.126691)",30888,http://opendatacommunities.org/id/london-borough-council/camden,1,Destination,originAPP\PREMISES-CONV\001010
5245,APP\PREMISES-CONV\000559,Premises - Conversion of Licence,Wabi London (formerly Bento Box),"36 KINGSWAY, LONDON, WC2B 6EX",LA2003,Application Approved,No,19/08/2005,,,,16/08/2005,2005-07-18,,,E05000138,Holborn and Covent Garden,530636.89,181331.4,-0.118702,51.515819,Nearest OS Open Map-Local Building,11/05/2017 07:37:31 PM,"(51.515819, -0.118702)",31287,http://opendatacommunities.org/id/london-borough-council/camden,1,Destination,originAPP\PREMISES-CONV\000559
5360,APP\PREMISES-CONV\000266,Premises - Conversion of Licence,Co-operative Foods,"23 LOWER MERTON RISE, LONDON, NW3 3RA",LA2003,Application Approved,No,13/07/2005,,,,12/07/2005,2005-06-13,,,E05000128,Belsize,527231.2,184256.73,-0.166701,51.542885,Nearest OS Open Map-Local Building,11/05/2017 07:37:31 PM,"(51.542885, -0.166701)",31565,http://opendatacommunities.org/id/london-borough-council/camden,1,Destination,originAPP\PREMISES-CONV\000266
5397,APP\PREMISES-CONV\000449,Premises - Conversion of Licence,Somerfield,"73  74 HANOVER HOUSE HIGH HOLBORN, LONDON, WC1V 6LS",LA2003,Application Approved,No,20/09/2005,,,,02/08/2005,2005-04-07,,,E05000138,Holborn and Covent Garden,530701.27,181520.35,-0.117704,51.517503000000005,Nearest OS Open Map-Local Building,11/05/2017 07:37:31 PM,"(51.517503, -0.117704)",31392,http://opendatacommunities.org/id/london-borough-council/camden,1,Destination,originAPP\PREMISES-CONV\000449
5413,APP\PREMISES-CONV\000437,Premises - Conversion of Licence,Negozio Classica,"154 REGENT'S PARK ROAD, LONDON, NW1 8XN",LA2003,Application Approved,No,04/08/2005,,,,30/07/2005,2005-01-07,,,E05000130,Camden Town with Primrose Hill,527944.05,184104.04,-0.15648199999999998,51.541352,Nearest OS Open Map-Local Building,11/05/2017 07:37:31 PM,"(51.541352, -0.156482)",31404,http://opendatacommunities.org/id/london-borough-council/camden,1,Destination,originAPP\PREMISES-CONV\000437
5416,APP\PREMISES-CONV\000418,Premises - Conversion of Licence,Charles Cafe,"43 THEOBALD'S ROAD, LONDON, WC1X 8SP",LA2003,Application Approved,No,05/08/2005,,,,28/07/2005,2005-06-29,,,E05000138,Holborn and Covent Garden,530637.03,181782.32,-0.118533,51.519872,Nearest OS Open Map-Local Building,11/05/2017 07:37:31 PM,"(51.519872, -0.118533)",31423,http://opendatacommunities.org/id/london-borough-council/camden,1,Destination,originAPP\PREMISES-CONV\000418
5427,APP\PREMISES-CONV\000525,Premises - Conversion of Licence,Karavas Restaurant,"87  88 PLENDER STREET, LONDON, NW1 0JN",LA2003,Application Approved,No,13/08/2005,,,,12/08/2005,2005-07-14,,Camden Town,E05000142,Regent's Park,529209.38,183490.42,-0.138472,51.53555,Nearest OS Open Map-Local Building,11/05/2017 07:37:31 PM,"(51.53555, -0.138472)",31320,http://opendatacommunities.org/id/london-borough-council/camden,1,Destination,originAPP\PREMISES-CONV\000525
5448,APP\PREMISES-CONV\000074,Premises - Conversion of Licence,The Old Amalfi Restaurant,"107 SOUTHAMPTON ROW, LONDON, WC1B 4HH",LA2003,Application Approved,No,04/06/2005,,,,04/06/2005,2005-06-05,,,E05000138,Holborn and Covent Garden,530397.56,181815.73,-0.12197000000000001,51.520227,Nearest OS Open Map-Local Building,11/05/2017 07:37:31 PM,"(51.520227, -0.12197)",31731,http://opendatacommunities.org/id/london-borough-council/camden,1,Destination,originAPP\PREMISES-CONV\000074
5503,APP\PREMISES-CONV\000943,Premises - Conversion of Licence,PizzaExpress,"99 HIGH HOLBORN, LONDON, WC1V 6LF",LA2003,Application Approved,No,07/09/2005,,,,30/08/2005,2005-02-08,,,E05000138,Holborn and Covent Garden,530646.99,181604.17,-0.11845499999999999,51.518268,Nearest OS Open Map-Local Building,11/05/2017 07:37:31 PM,"(51.518268, -0.118455)",30943,http://opendatacommunities.org/id/london-borough-council/camden,1,Destination,originAPP\PREMISES-CONV\000943
5548,APP\PREMISES-CONV\000466,Premises - Conversion of Licence,Hilton London Euston,"17  18 UPPER WOBURN PLACE, LONDON, WC1H 0HT",LA2003,Application Approved,No,04/08/2005,,,,03/08/2005,2005-05-07,,,E05000129,Bloomsbury,529737.63,182537.43,-0.131211,51.526865,Nearest OS Open Map-Local Building,11/05/2017 07:37:31 PM,"(51.526865, -0.131211)",31376,http://opendatacommunities.org/id/london-borough-council/camden,1,Destination,originAPP\PREMISES-CONV\000466
5553,APP\PREMISES-CONV\000308,Premises - Conversion of Licence,Truckles Of Pied Bull Yard,"PIED BULL COURT GALEN PLACE, LONDON, WC1A 2JR",LA2003,Application Approved,No,16/07/2005,,,,15/07/2005,2005-06-16,,Seven Dials,E05000138,Holborn and Covent Garden,530275.99,181623.49,-0.12379200000000001,51.518528,Nearest OS Open Map-Local Building,11/05/2017 07:37:31 PM,"(51.518528, -0.123792)",31523,http://opendatacommunities.org/id/london-borough-council/camden,1,Destination,originAPP\PREMISES-CONV\000308
5564,APP\PREMISES-CONV\000696,Premises - Conversion of Licence,Limone Fine Foods,"15 HIGHGATE HIGH STREET, LONDON, N6 5JT",LA2003,Application Approved,No,06/09/2005,,,,25/08/2005,2005-07-27,,,E05000137,Highgate,528572.21,187339.17,-0.146248,51.570283,Nearest OS Open Map-Local Building,11/05/2017 07:37:31 PM,"(51.570283, -0.146248)",31164,http://opendatacommunities.org/id/london-borough-council/camden,1,Destination,originAPP\PREMISES-CONV\000696
5649,APP\PREMISES-CONV\000771,Premises - Conversion of Licence,The Diner,"2 JAMESTOWN ROAD, LONDON, NW1 7BY",LA2003,Application Approved,No,06/09/2005,,,,25/08/2005,2005-07-27,,Camden Town,E05000130,Camden Town with Primrose Hill,528724.04,184057.19,-0.145258,51.540754,Nearest OS Open Map-Local Building,11/05/2017 07:37:31 PM,"(51.540754, -0.145258)",31097,http://opendatacommunities.org/id/london-borough-council/camden,1,Destination,originAPP\PREMISES-CONV\000771
5664,APP\PREMISES-CONV\001067,Premises - Conversion of Licence,Tesco's,"23 SWAIN'S LANE, LONDON, N6 6QX",LA2003,Application Approved,No,20/09/2005,,,,01/09/2005,2005-04-08,,,E05000137,Highgate,528361.27,186436.19,-0.149619,51.562216,Nearest OS Open Map-Local Building,11/05/2017 07:37:31 PM,"(51.562216, -0.149619)",30832,http://opendatacommunities.org/id/london-borough-council/camden,1,Destination,originAPP\PREMISES-CONV\001067
5666,APP\PREMISES-CONV\001072,Premises - Conversion of Licence,Nikits (Previously Nikit News),"8 INVERNESS STREET, LONDON, NW1 7HJ",LA2003,Application Approved,No,03/09/2005,,,,01/09/2005,2005-04-08,,Camden Town,E05000130,Camden Town with Primrose Hill,528778.86,183979.04,-0.14449700000000001,51.540039,Nearest OS Open Map-Local Building,11/05/2017 07:37:31 PM,"(51.540039, -0.144497)",30827,http://opendatacommunities.org/id/london-borough-council/camden,1,Destination,originAPP\PREMISES-CONV\001072
5834,APP\PREMISES-CONV\000079,Premises - Conversion of Licence,Best One Limtied,"22 LAMBTON HOUSE FORTESS ROAD, LONDON, NW5 2HA",LA2003,Application Approved,No,09/06/2005,,,,09/06/2005,2005-11-05,,,E05000139,Kentish Town,529015.39,185365.81,-0.14057999999999998,51.552448,Nearest OS Open Map-Local Building,11/05/2017 07:37:31 PM,"(51.552448, -0.14058)",31727,http://opendatacommunities.org/id/london-borough-council/camden,1,Destination,originAPP\PREMISES-CONV\000079
5856,APP\PREMISES-CONV\000092,Premises - Conversion of Licence,Bhatti Indian Cuisine,"37 GREAT QUEEN STREET, LONDON, WC2B 5AA",LA2003,Application Approved,No,16/06/2005,,,,10/06/2005,2005-12-05,,Seven Dials,E05000138,Holborn and Covent Garden,530390.33,181320.63,-0.12225699999999999,51.51578,Nearest OS Open Map-Local Building,11/05/2017 07:37:31 PM,"(51.51578, -0.122257)",31715,http://opendatacommunities.org/id/london-borough-council/camden,1,Destination,originAPP\PREMISES-CONV\000092
5873,APP\PREMISES-CONV\001052,Premises - Conversion of Licence,Everbest,"335 KENTISH TOWN ROAD, LONDON, NW5 2TJ",LA2003,Application Approved,No,01/09/2005,,,,01/09/2005,2005-04-08,,,E05000139,Kentish Town,528981.64,185128.56,-0.141154,51.550323,Nearest OS Open Map-Local Building,11/05/2017 07:37:31 PM,"(51.550323, -0.141154)",30847,http://opendatacommunities.org/id/london-borough-council/camden,1,Destination,originAPP\PREMISES-CONV\001052
5910,APP\PREMISES-CONV\000911,Premises - Conversion of Licence,Metro Express,"17  23 SOUTHAMPTON ROW, LONDON, WC1B 5HA",LA2003,Application Approved,No,30/08/2005,,,,29/08/2005,2005-01-08,,Seven Dials,E05000138,Holborn and Covent Garden,530449.24,181640.04,-0.12129000000000001,51.518636,Nearest OS Open Map-Local Building,11/05/2017 07:37:31 PM,"(51.518636, -0.12129)",30969,http://opendatacommunities.org/id/london-borough-council/camden,1,Destination,originAPP\PREMISES-CONV\000911
5955,APP\PREMISES-CONV\000430,Premises - Conversion of Licence,Bombay Nights,"90 FORTUNE GREEN ROAD, LONDON, NW6 1DS",LA2003,Application Approved,No,06/08/2005,,,,02/08/2005,2005-04-07,,,E05000132,Fortune Green,525132.11,185510.2,-0.196508,51.554619,Nearest OS Open Map-Local Building,11/05/2017 07:37:31 PM,"(51.554619, -0.196508)",31411,http://opendatacommunities.org/id/london-borough-council/camden,1,Destination,originAPP\PREMISES-CONV\000430
5957,APP\PREMISES-CONV\000248,Premises - Conversion of Licence,The Wesley Formerly MIC Social Club,"81103 THE WESLEY HOTEL EUSTON HOUSE EUSTON STREET, LONDON, NW1 2EZ",LA2003,Application Approved,No,08/07/2005,,,,07/07/2005,2005-08-06,,,E05000142,Regent's Park,529420.67,182494.73,-0.135793,51.526554,Nearest OS Open Map-Local Building,11/05/2017 07:37:31 PM,"(51.526554, -0.135793)",31582,http://opendatacommunities.org/id/london-borough-council/camden,1,Destination,originAPP\PREMISES-CONV\000248
5972,APP\PREMISES-CONV\000610,Premises - Conversion of Licence,Covent Garden Health Spa,"29 ENDELL STREET, LONDON, WC2H 9BA",LA2003,Application Approved,No,20/08/2005,,,,19/08/2005,2005-07-21,,Seven Dials,E05000138,Holborn and Covent Garden,530211.81,181163.2,-0.12488599999999998,51.514406,Nearest OS Open Map-Local Building,11/05/2017 07:37:31 PM,"(51.514406, -0.124886)",31244,http://opendatacommunities.org/id/london-borough-council/camden,1,Destination,originAPP\PREMISES-CONV\000610
6077,APP\PREMISES-CONV\001034,Premises - Conversion of Licence,Locanda Canton(Formerly Le Mignon),"98 ARLINGTON ROAD, LONDON, NW1 7HT",LA2003,Application Approved,No,05/09/2005,,,,01/09/2005,2005-04-08,,Camden Town,E05000142,Regent's Park,528954.84,183612.54,-0.142095,51.536705,Nearest OS Open Map-Local Building,11/05/2017 07:37:31 PM,"(51.536705, -0.142095)",30865,http://opendatacommunities.org/id/london-borough-council/camden,1,Destination,originAPP\PREMISES-CONV\001034
6085,APP\PREMISES-CONV\000062,Premises - Conversion of Licence,Strada,"6 GREAT QUEEN STREET, LONDON, WC2B 5DG",LA2003,Application Approved,No,15/06/2005,,,,07/06/2005,2005-09-05,,Seven Dials,E05000138,Holborn and Covent Garden,530459.49,181314.37,-0.12126300000000001,51.515707,Nearest OS Open Map-Local Building,11/05/2017 07:37:31 PM,"(51.515707, -0.121263)",31737,http://opendatacommunities.org/id/london-borough-council/camden,1,Destination,originAPP\PREMISES-CONV\000062
6088,APP\PREMISES-CONV\000023,Premises - Conversion of Licence,Tikus Off Licence,"84 CASTLEHAVEN ROAD, LONDON, NW1 8PL",LA2003,Application Approved,No,18/05/2005,,,,17/05/2005,2005-04-19,,,E05000130,Camden Town with Primrose Hill,528823.19,184528.77,-0.143657,51.544969,Nearest OS Open Map-Local Building,11/05/2017 07:37:31 PM,"(51.544969, -0.143657)",31768,http://opendatacommunities.org/id/london-borough-council/camden,1,Destination,originAPP\PREMISES-CONV\000023
6230,APP\PREMISES-CONV\000615,Premises - Conversion of Licence,Fitness Exchange,"179A TOTTENHAM COURT ROAD, LONDON, W1T 7PA",LA2003,Application Approved,No,20/08/2005,,,,19/08/2005,2005-07-21,,,E05000129,Bloomsbury,529494.54,182024.08,-0.134901,51.522307,Nearest OS Open Map-Local Building,11/05/2017 07:37:31 PM,"(51.522307, -0.134901)",31239,http://opendatacommunities.org/id/london-borough-council/camden,1,Destination,originAPP\PREMISES-CONV\000615
6314,APP\PREMISES-CONV\001076,Premises - Conversion of Licence,Oddbins,"135 CAMDEN HIGH STREET, LONDON, NW1 7JR",LA2003,Application Approved,No,03/09/2005,,,,02/09/2005,2005-05-08,,Camden Town,E05000130,Camden Town with Primrose Hill,528956.79,183681.22,-0.142042,51.537321999999996,Nearest OS Open Map-Local Building,11/05/2017 07:37:31 PM,"(51.537322, -0.142042)",30823,http://opendatacommunities.org/id/london-borough-council/camden,1,Destination,originAPP\PREMISES-CONV\001076
6398,APP\PREMISES-CONV\001062,Premises - Conversion of Licence,Salt Yard,"54 GOODGE STREET, LONDON, W1T 4NA",LA2003,Application Approved,No,05/09/2005,,,,01/09/2005,2005-04-08,,,E05000129,Bloomsbury,529354.63,181691.5,-0.13703900000000002,51.51935,Nearest OS Open Map-Local Building,11/05/2017 07:37:31 PM,"(51.51935, -0.137039)",30837,http://opendatacommunities.org/id/london-borough-council/camden,1,Destination,originAPP\PREMISES-CONV\001062
6433,APP\PREMISES-CONV\000973,Premises - Conversion of Licence,Viet Eat(was Pasta Amo),"48 KINGSWAY, LONDON, WC2B 6EN",LA2003,Application Approved,No,31/08/2005,,,,30/08/2005,2005-02-08,,,E05000138,Holborn and Covent Garden,530599.22,181426.23,-0.119209,51.51668,Nearest OS Open Map-Local Building,11/05/2017 07:37:31 PM,"(51.51668, -0.119209)",30918,http://opendatacommunities.org/id/london-borough-council/camden,1,Destination,originAPP\PREMISES-CONV\000973
6466,APP\PREMISES-CONV\000428,Premises - Conversion of Licence,Lobins Limited,"NORTHWAYS PARADE FINCHLEY ROAD, LONDON, NW3 5DN",LA2003,Application Approved,No,06/08/2005,,,,30/07/2005,2005-01-07,,,E05000133,Frognal and Fitzjohns,526627.5,184434.86,-0.175337,51.544622,Nearest OS Open Map-Local Building,11/05/2017 07:37:31 PM,"(51.544622, -0.175337)",31413,http://opendatacommunities.org/id/london-borough-council/camden,1,Destination,originAPP\PREMISES-CONV\000428
6475,APP\PREMISES-CONV\000137,Premises - Conversion of Licence,The Diner at Bloomsbury,"75 SOUTHAMPTON ROW, LONDON, WC1B 4ET",LA2003,Application Approved,No,18/06/2005,,,,18/06/2005,2005-05-20,,,E05000129,Bloomsbury,530288.95,181829.68,-0.123529,51.520378,Nearest OS Open Map-Local Building,11/05/2017 07:37:31 PM,"(51.520378, -0.123529)",31680,http://opendatacommunities.org/id/london-borough-council/camden,1,Destination,originAPP\PREMISES-CONV\000137
6503,APP\PREMISES-CONV\000169,Premises - Conversion of Licence,L'Osteria 57,"57 GRAY'S INN ROAD, LONDON, WC1X 8PP",LA2003,Application Approved,No,09/08/2005,,,,29/06/2005,2005-05-31,,,E05000138,Holborn and Covent Garden,530946.35,182011.68,-0.11399200000000001,51.521861,Nearest OS Open Map-Local Building,11/05/2017 07:37:31 PM,"(51.521861, -0.113992)",31653,http://opendatacommunities.org/id/london-borough-council/camden,1,Destination,originAPP\PREMISES-CONV\000169
6510,APP\PREMISES-CONV\000028,Premises - Conversion of Licence,Southwell House,"39 FITZJOHN'S AVENUE, LONDON, NW3 5JT",LA2003,Application Rejected - Incomplete Documentation,No,,,,,,2005-04-15,20/04/2005,,E05000133,Frognal and Fitzjohns,526542.51,185000.31,-0.176359,51.549723,Nearest OS Open Map-Local Building,11/05/2017 07:37:31 PM,"(51.549723, -0.176359)",31763,http://opendatacommunities.org/id/london-borough-council/camden,1,Destination,originAPP\PREMISES-CONV\000028
6525,APP\PREMISES-CONV\000792,Premises - Conversion of Licence,Betty's,"170 CLERKENWELL ROAD, LONDON, EC1R 5DD",LA2003,Application Approved,No,18/08/2005,,,,13/08/2005,2005-07-15,,,E05000138,Holborn and Covent Garden,531033.5,182042.19,-0.112725,51.522115,Nearest OS Open Map-Local Building,11/05/2017 07:37:31 PM,"(51.522115, -0.112725)",31077,http://opendatacommunities.org/id/london-borough-council/camden,1,Destination,originAPP\PREMISES-CONV\000792
6549,APP\PREMISES-CONV\001227,Premises - Conversion of Licence,Corks,"9A  11 SWAIN'S LANE, LONDON, N6 6QX",LA2003,Application Rejected - Received after 6th August 2005,No,,,,,12/10/2005,2005-09-14,20/09/2005,,E05000137,Highgate,528310.66,186411.52,-0.150358,51.562006,Nearest OS Open Map-Local Building,11/05/2017 07:37:31 PM,"(51.562006, -0.150358)",30686,http://opendatacommunities.org/id/london-borough-council/camden,1,Destination,originAPP\PREMISES-CONV\001227
6563,APP\PREMISES-CONV\000019,Premises - Conversion of Licence,London Maida Vale Marriott,"PLAZA PARADE KILBURN HIGH ROAD, LONDON, NW6 5RP",LA2003,Application Rejected - Incomplete Documentation,No,,,,,,2005-11-04,18/05/2005,,E05000140,Kilburn,525606.0,183447.18,-0.190412,51.535973999999996,Nearest OS Open Map-Local Building,11/05/2017 07:37:31 PM,"(51.535974, -0.190412)",31772,http://opendatacommunities.org/id/london-borough-council/camden,1,Destination,originAPP\PREMISES-CONV\000019
6586,APP\PREMISES-CONV\000969,Premises - Conversion of Licence,Montana Wines,"6 LAYSTALL STREET, LONDON, EC1R 4PA",LA2003,Application Approved,No,02/09/2005,,,,30/08/2005,2005-02-08,,,E05000138,Holborn and Covent Garden,531132.07,182076.35,-0.111293,51.522399,Nearest OS Open Map-Local Building,11/05/2017 07:37:31 PM,"(51.522399, -0.111293)",30922,http://opendatacommunities.org/id/london-borough-council/camden,1,Destination,originAPP\PREMISES-CONV\000969
6660,APP\PREMISES-CONV\000997,Premises - Conversion of Licence,Sizzling China,"273 EVERSHOLT STREET, LONDON, NW1 1BA",LA2003,Application Approved,No,13/09/2005,,,,31/08/2005,2005-03-08,,Camden Town,E05000142,Regent's Park,529184.5,183339.22,-0.13888599999999998,51.534197,Nearest OS Open Map-Local Building,11/05/2017 07:37:31 PM,"(51.534197, -0.138886)",30899,http://opendatacommunities.org/id/london-borough-council/camden,1,Destination,originAPP\PREMISES-CONV\000997
6676,APP\PREMISES-CONV\001122,Premises - Conversion of Licence,Sir Robert Peel,"108 MALDEN ROAD, LONDON, NW5 4DA",LA2003,Application Approved,No,03/09/2005,,,,02/09/2005,2005-05-08,,,E05000134,Gospel Oak,528172.82,185024.79,-0.15285,51.549575,Nearest OS Open Map-Local Building,11/05/2017 07:37:31 PM,"(51.549575, -0.15285)",30781,http://opendatacommunities.org/id/london-borough-council/camden,1,Destination,originAPP\PREMISES-CONV\001122
6878,APP\PREMISES-CONV\000039,Premises - Conversion of Licence,Salaam Namaste Restaurant,"68 MILLMAN STREET, LONDON, WC1N 3EF",LA2003,Application Approved,No,28/05/2005,,,,27/05/2005,2005-04-25,,,E05000138,Holborn and Covent Garden,530694.45,182162.6,-0.117565,51.523276,Nearest OS Open Map-Local Building,11/05/2017 07:37:31 PM,"(51.523276, -0.117565)",31754,http://opendatacommunities.org/id/london-borough-council/camden,1,Destination,originAPP\PREMISES-CONV\000039
6927,APP\PREMISES-CONV\000297,Premises - Conversion of Licence,La Provence,"116 HEATH STREET, LONDON, NW3 1DR",LA2003,Application Rejected - Incomplete Documentation,No,,,,,16/07/2005,2005-06-17,21/06/2005,,E05000135,Hampstead Town,526398.17,186072.56,-0.178055,51.559391,Nearest OS Open Map-Local Building,11/05/2017 07:37:31 PM,"(51.559391, -0.178055)",31534,http://opendatacommunities.org/id/london-borough-council/camden,1,Destination,originAPP\PREMISES-CONV\000297
6994,APP\PREMISES-CONV\000352,Premises - Conversion of Licence,Tapping the Admiral,"77 TAVERN IN THE TOWN PUBLIC HOUSE CASTLE ROAD, LONDON, NW1 8SU",LA2003,Application Approved,No,03/08/2005,,,,26/07/2005,2005-06-27,,,E05000136,Haverstock,528623.93,184533.87,-0.146527,51.545061,Nearest OS Open Map-Local Building,11/05/2017 07:37:31 PM,"(51.545061, -0.146527)",31483,http://opendatacommunities.org/id/london-borough-council/camden,1,Destination,originAPP\PREMISES-CONV\000352
7063,APP\PREMISES-CONV\000534,Premises - Conversion of Licence,Ethio Stores Newsagent Convenience Store,"120 JUDD STREET, LONDON, WC1H 9NS",LA2003,Application Approved,No,10/08/2005,,,,09/08/2005,2005-11-07,,,E05000141,King's Cross,530159.84,182748.25,-0.12505,51.528662,Nearest OS Open Map-Local Building,11/05/2017 07:37:31 PM,"(51.528662, -0.12505)",31311,http://opendatacommunities.org/id/london-borough-council/camden,1,Destination,originAPP\PREMISES-CONV\000534
7122,APP\PREMISES-CONV\000554,Premises - Conversion of Licence,Birkbeck College (Gordon Sq),"39  47 GORDON SQUARE, LONDON, WC1H 0PD",LA2003,Application Rejected - Incomplete Documentation,No,,,,,10/08/2005,2005-12-07,26/07/2005,,E05000129,Bloomsbury,529830.31,182290.24,-0.129966,51.524621999999994,Nearest OS Open Map-Local Building,11/05/2017 07:37:31 PM,"(51.524622, -0.129966)",31292,http://opendatacommunities.org/id/london-borough-council/camden,1,Destination,originAPP\PREMISES-CONV\000554
7159,APP\PREMISES-CONV\000115,Premises - Conversion of Licence,Takari,"22 DRURY LANE, LONDON, WC2B 5RH",LA2003,Application Rejected - Incomplete Documentation,No,,,,,17/06/2005,2005-05-19,20/05/2005,,,,530342.31,181211.81,-0.12298900000000001,51.514813000000004,Nearest OS Open Map-Local Building,11/05/2017 07:37:31 PM,"(51.514813, -0.122989)",31696,http://opendatacommunities.org/id/london-borough-council/camden,1,Destination,originAPP\PREMISES-CONV\000115
7169,APP\PREMISES-CONV\000111,Premises - Conversion of Licence,La Cage Imaginaire,"16 FLASK WALK, LONDON, NW3 1HE",LA2003,Application Approved,No,27/06/2005,,,,17/06/2005,2005-05-19,,,E05000135,Hampstead Town,526495.3,185774.76,-0.176761,51.556693,Nearest OS Open Map-Local Building,11/05/2017 07:37:31 PM,"(51.556693, -0.176761)",31700,http://opendatacommunities.org/id/london-borough-council/camden,1,Destination,originAPP\PREMISES-CONV\000111
7190,APP\PREMISES-CONV\000624,Premises - Conversion of Licence,Hill Food & Wine,"165 HAVERSTOCK HILL, LONDON, NW3 4QT",LA2003,Application Rejected - Incomplete Documentation,No,,,,,20/08/2005,2005-07-22,27/07/2005,,E05000128,Belsize,527379.59,185023.84,-0.16428399999999999,51.549746,Nearest OS Open Map-Local Building,11/05/2017 07:37:31 PM,"(51.549746, -0.164284)",31230,http://opendatacommunities.org/id/london-borough-council/camden,1,Destination,originAPP\PREMISES-CONV\000624
7216,APP\PREMISES-CONV\001136,Premises - Conversion of Licence,The Lion Court Conference Centre,"25 LION COURT PROCTER STREET, LONDON, WC1V 6NY",LA2003,Application Approved,No,03/09/2005,,,,02/09/2005,2005-05-08,,,E05000138,Holborn and Covent Garden,530511.07,181596.37,-0.12041600000000001,51.518229999999996,Nearest OS Open Map-Local Building,11/05/2017 07:37:31 PM,"(51.51823, -0.120416)",30771,http://opendatacommunities.org/id/london-borough-council/camden,1,Destination,originAPP\PREMISES-CONV\001136
7255,APP\PREMISES-CONV\000272,Premises - Conversion of Licence,Alps Restaurant,"42 THEOBALD'S ROAD, LONDON, WC1X 8NW",LA2003,Application Rejected - Incomplete Documentation,No,,,,,09/07/2005,2005-10-06,16/06/2005,,E05000138,Holborn and Covent Garden,530809.44,181960.47,-0.11598299999999999,51.521433,Nearest OS Open Map-Local Building,11/05/2017 07:37:31 PM,"(51.521433, -0.115983)",31559,http://opendatacommunities.org/id/london-borough-council/camden,1,Destination,originAPP\PREMISES-CONV\000272
7308,APP\PREMISES-CONV\000853,Premises - Conversion of Licence,Steely Fox (previously Hat On The Wall),"2028 HATTON WALL, LONDON, EC1N 8JH",LA2003,Application Approved,No,06/09/2005,,,,26/08/2005,2005-07-29,,,E05000138,Holborn and Covent Garden,531245.25,181996.31,-0.10969200000000001,51.521654,Nearest OS Open Map-Local Building,11/05/2017 07:37:31 PM,"(51.521654, -0.109692)",31024,http://opendatacommunities.org/id/london-borough-council/camden,1,Destination,originAPP\PREMISES-CONV\000853
7321,APP\PREMISES-CONV\001112,Premises - Conversion of Licence,T & M MINI MARKET,"145 QUEEN'S CRESCENT, LONDON, NW5 4ED",LA2003,Application Approved,No,08/09/2005,,,,02/09/2005,2005-05-08,,,E05000134,Gospel Oak,528193.34,185071.4,-0.15253699999999998,51.549989000000004,Nearest OS Open Map-Local Building,11/05/2017 07:37:31 PM,"(51.549989, -0.152537)",30791,http://opendatacommunities.org/id/london-borough-council/camden,1,Destination,originAPP\PREMISES-CONV\001112
7372,APP\PREMISES-CONV\000758,Premises - Conversion of Licence,Tortilla,"227 FINCHLEY ROAD, LONDON, NW3 6LP",LA2003,Application Approved,No,25/08/2005,,,,24/08/2005,2005-07-26,,,E05000133,Frognal and Fitzjohns,526316.49,184738.48,-0.17971099999999998,51.54742,Nearest OS Open Map-Local Building,11/05/2017 07:37:31 PM,"(51.54742, -0.179711)",31110,http://opendatacommunities.org/id/london-borough-council/camden,1,Destination,originAPP\PREMISES-CONV\000758
7410,APP\PREMISES-CONV\000354,Premises - Conversion of Licence,Charles Cafe,"43 THEOBALD'S ROAD, LONDON, WC1X 8SP",LA2003,Application Rejected - Incomplete Documentation,No,,,,,28/07/2005,2005-06-29,30/06/2005,,E05000138,Holborn and Covent Garden,530637.03,181782.32,-0.118533,51.519872,Nearest OS Open Map-Local Building,11/05/2017 07:37:31 PM,"(51.519872, -0.118533)",31482,http://opendatacommunities.org/id/london-borough-council/camden,1,Destination,originAPP\PREMISES-CONV\000354
7443,APP\PREMISES-CONV\000131,Premises - Conversion of Licence,Le Tea Cosy,"51 REGENT'S PARK ROAD, LONDON, NW1 8XD",LA2003,Application Approved,No,16/07/2005,,,,21/06/2005,2005-05-23,,,E05000130,Camden Town with Primrose Hill,527831.92,184041.77,-0.158121,51.540818,Nearest OS Open Map-Local Building,11/05/2017 07:37:31 PM,"(51.540818, -0.158121)",31686,http://opendatacommunities.org/id/london-borough-council/camden,1,Destination,originAPP\PREMISES-CONV\000131
7466,APP\PREMISES-CONV\000368,Premises - Conversion of Licence,Haverstock Market Food & Off-Licence,"150 HAVERSTOCK HILL, LONDON, NW3 2AY",LA2003,Application Rejected - Incomplete Documentation,No,,,,,28/07/2005,2005-06-29,01/07/2005,,E05000134,Gospel Oak,527554.48,184953.76,-0.16178900000000002,51.549077000000004,Nearest OS Open Map-Local Building,11/05/2017 07:37:31 PM,"(51.549077, -0.161789)",31468,http://opendatacommunities.org/id/london-borough-council/camden,1,Destination,originAPP\PREMISES-CONV\000368
7472,APP\PREMISES-CONV\000130,Premises - Conversion of Licence,The Late Late Store,"60 BELSIZE LANE, LONDON, NW3 5AR",LA2003,Application Rejected - Incomplete Documentation,No,,,,,21/06/2005,2005-05-23,24/05/2005,,E05000133,Frognal and Fitzjohns,526847.35,184995.02,-0.171967,51.549607,Nearest OS Open Map-Local Building,11/05/2017 07:37:31 PM,"(51.549607, -0.171967)",31687,http://opendatacommunities.org/id/london-borough-council/camden,1,Destination,originAPP\PREMISES-CONV\000130
7485,APP\PREMISES-CONV\001109,Premises - Conversion of Licence,Nando's,"308 KILBURN HIGH ROAD, LONDON, NW6 2DG",LA2003,Application Approved,No,03/09/2005,,,,02/09/2005,2005-05-08,,,E05000140,Kilburn,524852.37,184399.92,-0.200935,51.544703000000005,Nearest OS Open Map-Local Building,11/05/2017 07:37:31 PM,"(51.544703, -0.200935)",30794,http://opendatacommunities.org/id/london-borough-council/camden,1,Destination,originAPP\PREMISES-CONV\001109
7487,APP\PREMISES-CONV\000351,Premises - Conversion of Licence,Old Red Lion,"72 HIGH HOLBORN, LONDON, WC1V 6LS",LA2003,Application Rejected - Incomplete Documentation,No,,,,,27/07/2005,2005-06-28,30/06/2005,,E05000138,Holborn and Covent Garden,530830.04,181642.15,-0.11580399999999999,51.518567,Nearest OS Open Map-Local Building,11/05/2017 07:37:31 PM,"(51.518567, -0.115804)",31484,http://opendatacommunities.org/id/london-borough-council/camden,1,Destination,originAPP\PREMISES-CONV\000351
7534,APP\PREMISES-CONV\000537,Premises - Conversion of Licence,Country Inn And Suites,"110 GREAT RUSSELL STREET, LONDON, WC1B 3NA",LA2003,Application Approved,No,18/08/2005,,,,12/08/2005,2005-07-14,,,E05000129,Bloomsbury,529818.38,181492.03,-0.130432,51.517452,Nearest OS Open Map-Local Building,11/05/2017 07:37:31 PM,"(51.517452, -0.130432)",31308,http://opendatacommunities.org/id/london-borough-council/camden,1,Destination,originAPP\PREMISES-CONV\000537
7597,APP\PREMISES-CONV\001100,Premises - Conversion of Licence,Oasis Restaurant (PREMISES CLOSED - Use Elementree),"108 CRICKLEWOOD BROADWAY, LONDON, NW2 3EJ",LA2003,Application Approved,No,28/09/2005,,,,01/09/2005,2005-04-08,,,E05000132,Fortune Green,524010.52,185574.37,-0.212655,51.555443,Nearest OS Open Map-Local Building,11/05/2017 07:37:31 PM,"(51.555443, -0.212655)",30802,http://opendatacommunities.org/id/london-borough-council/camden,1,Destination,originAPP\PREMISES-CONV\001100
7640,APP\PREMISES-CONV\001013,Premises - Conversion of Licence,Oddbins,"64 ROSSLYN HILL, LONDON, NW3 1ND",LA2003,Application Approved,No,07/09/2005,,,,01/09/2005,2005-04-08,,,E05000135,Hampstead Town,526707.14,185632.32,-0.173758,51.555365,Nearest OS Open Map-Local Building,11/05/2017 07:37:31 PM,"(51.555365, -0.173758)",30885,http://opendatacommunities.org/id/london-borough-council/camden,1,Destination,originAPP\PREMISES-CONV\001013
7661,APP\PREMISES-CONV\000971,Premises - Conversion of Licence,The Late Late Store,"60 BELSIZE LANE, LONDON, NW3 5AR",LA2003,Application Approved,No,31/08/2005,,,,30/08/2005,2005-02-08,,,E05000133,Frognal and Fitzjohns,526847.35,184995.02,-0.171967,51.549607,Nearest OS Open Map-Local Building,11/05/2017 07:37:31 PM,"(51.549607, -0.171967)",30920,http://opendatacommunities.org/id/london-borough-council/camden,1,Destination,originAPP\PREMISES-CONV\000971
7672,APP\PREMISES-CONV\000560,Premises - Conversion of Licence,Capoeira Brazilian Restaurant (formerly SUSHIO),"106 FINCHLEY ROAD, LONDON, NW3 5JN",LA2003,Application Approved,No,13/08/2005,,,,12/08/2005,2005-07-14,,,E05000133,Frognal and Fitzjohns,526391.88,184623.6,-0.17866500000000002,51.546371,Nearest OS Open Map-Local Building,11/05/2017 07:37:31 PM,"(51.546371, -0.178665)",31286,http://opendatacommunities.org/id/london-borough-council/camden,1,Destination,originAPP\PREMISES-CONV\000560
7759,APP\PREMISES-CONV\001117,Premises - Conversion of Licence,Sagar Restaurant,"17 PERCY STREET, LONDON, W1T 1DU",LA2003,Application Approved,No,28/09/2005,,,,01/09/2005,2005-04-08,,,E05000129,Bloomsbury,529586.97,181614.43,-0.13372,51.518605,Nearest OS Open Map-Local Building,11/05/2017 07:37:31 PM,"(51.518605, -0.13372)",30786,http://opendatacommunities.org/id/london-borough-council/camden,1,Destination,originAPP\PREMISES-CONV\001117
7771,APP\PREMISES-CONV\000135,Premises - Conversion of Licence,Cafe Plus,"79 MILL LANE, LONDON, NW6 1NB",LA2003,Application Rejected - Incomplete Documentation,No,,,,,21/06/2005,2005-05-23,25/05/2005,,E05000145,West Hampstead,525181.93,185202.52,-0.195899,51.551843,Nearest OS Open Map-Local Building,11/05/2017 07:37:31 PM,"(51.551843, -0.195899)",31682,http://opendatacommunities.org/id/london-borough-council/camden,1,Destination,originAPP\PREMISES-CONV\000135
7811,APP\PREMISES-CONV\000489,Premises - Conversion of Licence,Primrose Hill Community Association,"29 HOPKINSON'S PLACE, LONDON, NW1 8TN",LA2003,Application Rejected - Incomplete Documentation,No,,,,,09/08/2005,2005-11-07,15/07/2005,,E05000130,Camden Town with Primrose Hill,528018.7,183971.99,-0.155454,51.540149,Nearest OS Open Map-Local Building,11/05/2017 07:37:31 PM,"(51.540149, -0.155454)",31353,http://opendatacommunities.org/id/london-borough-council/camden,1,Destination,originAPP\PREMISES-CONV\000489
7853,APP\PREMISES-CONV\000339,Premises - Conversion of Licence,Luigi Restaurant,"11 GOLDHURST TERRACE, LONDON, NW6 3HX",LA2003,Application Approved,No,21/07/2005,,,,19/07/2005,2005-06-20,,,E05000144,Swiss Cottage,526335.7,184551.47,-0.179501,51.545735,Nearest OS Open Map-Local Building,11/05/2017 07:37:31 PM,"(51.545735, -0.179501)",31495,http://opendatacommunities.org/id/london-borough-council/camden,1,Destination,originAPP\PREMISES-CONV\000339
7884,APP\PREMISES-CONV\000550,Premises - Conversion of Licence,Spaghetti House,"15  17 GOODGE STREET, LONDON, W1T 2PQ",LA2003,Application Approved,No,17/08/2005,,,,16/08/2005,2005-07-18,,,E05000129,Bloomsbury,529579.24,181715.35,-0.133795,51.519513,Nearest OS Open Map-Local Building,11/05/2017 07:37:31 PM,"(51.519513, -0.133795)",31296,http://opendatacommunities.org/id/london-borough-council/camden,1,Destination,originAPP\PREMISES-CONV\000550
7901,APP\PREMISES-CONV\000530,Premises - Conversion of Licence,Eastnor Castle,"145 EASTNOR CASTLE CHALTON STREET, LONDON, NW1 1NR",LA2003,Application Rejected - Incomplete Documentation,No,,,,,12/08/2005,2005-07-14,20/07/2005,,E05000143,St Pancras and Somers Town,529508.9,183238.7,-0.134248,51.533219,Nearest OS Open Map-Local Building,11/05/2017 07:37:31 PM,"(51.533219, -0.134248)",31315,http://opendatacommunities.org/id/london-borough-council/camden,1,Destination,originAPP\PREMISES-CONV\000530
7928,APP\PREMISES-CONV\000275,Premises - Conversion of Licence,Caprice Catering,"3   9 CHALTON STREET, LONDON, NW1 1JD",LA2003,Application Approved,No,13/07/2005,,,,12/07/2005,2005-06-13,,,E05000143,St Pancras and Somers Town,529856.65,182698.78,-0.129436,51.528287,Nearest OS Open Map-Local Building,11/05/2017 07:37:31 PM,"(51.528287, -0.129436)",31556,http://opendatacommunities.org/id/london-borough-council/camden,1,Destination,originAPP\PREMISES-CONV\000275
7935,APP\PREMISES-CONV\000674,Premises - Conversion of Licence,Arabesque,"23 WINCHESTER ROAD, LONDON, NW3 3NR",LA2003,Application Rejected - Incomplete Documentation,No,,,,,24/08/2005,2005-07-26,30/07/2005,,E05000144,Swiss Cottage,526798.97,184333.27,-0.172902,51.54367,Nearest OS Open Map-Local Building,11/05/2017 07:37:31 PM,"(51.54367, -0.172902)",31183,http://opendatacommunities.org/id/london-borough-council/camden,1,Destination,originAPP\PREMISES-CONV\000674
8027,APP\PREMISES-CONV\000182,Premises - Conversion of Licence,Po Chang Ma Cha Restaurant,"56 ST GILES HIGH STREET, LONDON, WC2H 8LH",LA2003,Application Approved,No,30/06/2005,,,,30/06/2005,2005-01-06,,Seven Dials,E05000138,Holborn and Covent Garden,529890.6,181279.62,-0.12947,51.515526,Nearest OS Open Map-Local Building,11/05/2017 07:37:31 PM,"(51.515526, -0.12947)",31642,http://opendatacommunities.org/id/london-borough-council/camden,1,Origin,originAPP\PREMISES-CONV\000182
8046,APP\PREMISES-CONV\000591,Premises - Conversion of Licence,Retsina,"48  50 BELSIZE LANE, LONDON, NW3 5AR",LA2003,Application Approved,No,05/09/2005,,,,12/08/2005,2005-07-14,,,E05000133,Frognal and Fitzjohns,526847.35,184995.02,-0.171967,51.549607,Nearest OS Open Map-Local Building,11/05/2017 07:37:31 PM,"(51.549607, -0.171967)",31260,http://opendatacommunities.org/id/london-borough-council/camden,1,Destination,originAPP\PREMISES-CONV\000591
8049,APP\PREMISES-CONV\000228,Premises - Conversion of Licence,Luigi Restaurant,"11 GOLDHURST TERRACE, LONDON, NW6 3HX",LA2003,Application Rejected - Incomplete Documentation,No,,,,,02/07/2005,2005-03-06,08/06/2005,,E05000144,Swiss Cottage,526335.7,184551.47,-0.179501,51.545735,Nearest OS Open Map-Local Building,11/05/2017 07:37:31 PM,"(51.545735, -0.179501)",31599,http://opendatacommunities.org/id/london-borough-council/camden,1,Destination,originAPP\PREMISES-CONV\000228
8105,APP\PREMISES-CONV\000280,Premises - Conversion of Licence,Euston Supermarket,"70 EVERSHOLT STREET, LONDON, NW1 1DA",LA2003,Application Approved,No,11/07/2005,,,,09/07/2005,2005-10-06,,,E05000143,St Pancras and Somers Town,529636.93,182832.57,-0.132553,51.529540000000004,Nearest OS Open Map-Local Building,11/05/2017 07:37:31 PM,"(51.52954, -0.132553)",31551,http://opendatacommunities.org/id/london-borough-council/camden,1,Destination,originAPP\PREMISES-CONV\000280
8142,APP\PREMISES-CONV\001137,Premises - Conversion of Licence,St Pancras Cruising Club,"ST PANCRAS YACHT BASIN CAMLEY STREET, LONDON, N1C 4PN",LA2003,Application Approved In Full,No,03/09/2005,,,,02/09/2005,2005-05-08,,,E05000143,St Pancras and Somers Town,529899.15,183551.08,-0.12850999999999999,51.535937,Nearest OS Open Map-Local Building,11/05/2017 07:37:31 PM,"(51.535937, -0.12851)",30770,http://opendatacommunities.org/id/london-borough-council/camden,1,Destination,originAPP\PREMISES-CONV\001137
8201,APP\PREMISES-CONV\000415,Premises - Conversion of Licence,Sanxia Renjia,"29 GOODGE STREET, LONDON, W1T 2PP",LA2003,Application Approved,No,30/07/2005,,,,29/07/2005,2005-06-30,,,E05000129,Bloomsbury,529495.9,181707.95,-0.134998,51.519465999999994,Nearest OS Open Map-Local Building,11/05/2017 07:37:31 PM,"(51.519466, -0.134998)",31426,http://opendatacommunities.org/id/london-borough-council/camden,1,Destination,originAPP\PREMISES-CONV\000415
8357,APP\PREMISES-CONV\000155,Premises - Conversion of Licence,Trio News,"143 KING'S CROSS ROAD, LONDON, WC1X 9BN",LA2003,Application Approved,No,25/06/2005,,,,24/06/2005,2005-05-26,,,E05000141,King's Cross,530746.38,182858.51,-0.116559,51.529517999999996,Nearest OS Open Map-Local Building,11/05/2017 07:37:31 PM,"(51.529518, -0.116559)",31665,http://opendatacommunities.org/id/london-borough-council/camden,1,Destination,originAPP\PREMISES-CONV\000155
8442,APP\PREMISES-CONV\001192,Premises - Conversion of Licence,Budgens Supermarket,"199 HAVERSTOCK HILL, LONDON, NW3 4QG",LA2003,Application Approved,No,20/09/2005,,,,02/09/2005,2005-05-08,,,E05000128,Belsize,527266.83,185119.54,-0.165875,51.550631,Nearest OS Open Map-Local Building,11/05/2017 07:37:31 PM,"(51.550631, -0.165875)",30720,http://opendatacommunities.org/id/london-borough-council/camden,1,Destination,originAPP\PREMISES-CONV\001192
8451,APP\PREMISES-CONV\001196,Premises - Conversion of Licence,HanKang,"16 HANWAY STREET, LONDON, W1T 1UE",LA2003,Application Approved,No,13/09/2005,,,,02/09/2005,2005-05-08,,,E05000129,Bloomsbury,529709.49,181430.3,-0.132023,51.516921999999994,Nearest OS Open Map-Local Building,11/05/2017 07:37:31 PM,"(51.516922, -0.132023)",30716,http://opendatacommunities.org/id/london-borough-council/camden,1,Destination,originAPP\PREMISES-CONV\001196
8483,APP\PREMISES-CONV\000091,Premises - Conversion of Licence,Western Food Stores,"171 WEST END LANE, LONDON, NW6 2LH",LA2003,Application Approved,No,09/06/2005,,,,09/06/2005,2005-11-05,,,E05000145,West Hampstead,525506.74,184598.15,-0.191433,51.546339,Nearest OS Open Map-Local Building,11/05/2017 07:37:31 PM,"(51.546339, -0.191433)",31716,http://opendatacommunities.org/id/london-borough-council/camden,1,Destination,originAPP\PREMISES-CONV\000091
8492,APP\PREMISES-CONV\000507,Premises - Conversion of Licence,Delancey Stores,"40 DELANCEY STREET, LONDON, NW1 7RY",LA2003,Application Approved,No,04/08/2005,,,,03/08/2005,2005-05-07,,Camden Town,E05000142,Regent's Park,528886.45,183581.9,-0.143092,51.536446000000005,Nearest OS Open Map-Local Building,11/05/2017 07:37:31 PM,"(51.536446, -0.143092)",31337,http://opendatacommunities.org/id/london-borough-council/camden,1,Destination,originAPP\PREMISES-CONV\000507
