,Application Reference,Application Type,Premises Name,Premises Address,Application Legislation,Application Status,Application Objections,Approved Date,Date Of Events,Expiry Date,Hearing Date,Last Date For Representations,Received Date,Refused Date,Cumulative Impact Policy Area Name,Ward Code,Ward Name,Easting,Northing,Longitude,Latitude,Spatial Accuracy,Last Uploaded,Location,Socrata ID,Organisation URI,path,Origin-Destination,PathId
2311,050445,Massage and Special Treatment New Application,J Hair,"18-19 Warren Street, W1T 5LR",,Open,No,,,,,,2014-02-05,,,E05000129,Bloomsbury,529182.9,182155.57,-0.139343,51.523559999999996,Nearest OS Open Map-Local Building,11/05/2017 07:37:33 PM,"(51.52356, -0.139343)",35701,http://opendatacommunities.org/id/london-borough-council/camden,1,Destination,origin050445
2578,044151,Massage and Special Treatment New Application,Enz hairdressers Ltd,"65 South End Road, London, NW3 2QB",,Open,No,22/10/2010,,,,,2010-09-27,,,E05000135,Hampstead Town,527156.73,185667.4,-0.16726400000000002,51.55558,Nearest OS Open Map-Local Building,11/05/2017 07:37:33 PM,"(51.55558, -0.167264)",36117,http://opendatacommunities.org/id/london-borough-council/camden,1,Destination,origin044151
3244,054290,Massage and Special Treatment New Application,EASTERN PROMISE LONDON LTD,"174 Finchley Road, London, NW3 6BP",,Open,No,,,,,,2016-12-15,,,E05000133,Frognal and Fitzjohns,526163.27,185054.05,-0.181806,51.550290000000004,Nearest OS Open Map-Local Building,11/05/2017 07:37:33 PM,"(51.55029, -0.181806)",35657,http://opendatacommunities.org/id/london-borough-council/camden,1,Destination,origin054290
3552,049126,Massage and Special Treatment New Application,Clerkenwell's Hair & Beauty  Limited,"11 Portpool Lane, London, EC1N 7UJ",,Open,No,,,,,,2013-03-05,,,E05000138,Holborn and Covent Garden,531211.28,181904.79,-0.11021500000000001,51.520839,Nearest OS Open Map-Local Building,11/05/2017 07:37:33 PM,"(51.520839, -0.110215)",35729,http://opendatacommunities.org/id/london-borough-council/camden,1,Destination,origin049126
5848,041553,Massage and Special Treatment New Application,Posh Nails and Beauty,"167 York Way, London, N7 9LN",,Open,No,18/02/2010,,,,,2009-09-10,,,E05000131,Cantelowes,529837.43,184915.12,-0.128897,51.548209,Nearest OS Open Map-Local Building,11/05/2017 07:37:33 PM,"(51.548209, -0.128897)",36394,http://opendatacommunities.org/id/london-borough-council/camden,1,Destination,origin041553
5916,054810,Massage and Special Treatment New Application,Golden Sunshine Beauty,"184 Finchley Road, London, NW3 6BP",,Open,No,,,,,,2017-07-03,,,E05000133,Frognal and Fitzjohns,526163.27,185054.05,-0.181806,51.550290000000004,Nearest OS Open Map-Local Building,11/05/2017 07:37:33 PM,"(51.55029, -0.181806)",35648,http://opendatacommunities.org/id/london-borough-council/camden,1,Destination,origin054810
6344,049085,Massage and Special Treatment New Application,Face It,"17 Highgate High Street, London, N6 5JT",,Open,No,,,,,,2013-04-16,,,,,528525.64,187400.27,-0.146897,51.570842,Nearest OS Open Map-Local Building,11/05/2017 07:37:33 PM,"(51.570842, -0.146897)",35734,http://opendatacommunities.org/id/london-borough-council/camden,1,Destination,origin049085
6614,043534,Massage and Special Treatment New Application,Benefit Boutique,"19 Shorts Gardens, London, WC2H 9AT",,Open,No,,,,,,2010-07-27,,Seven Dials,E05000138,Holborn and Covent Garden,530096.62,181164.76,-0.126545,51.514446,Nearest OS Open Map-Local Building,11/05/2017 07:37:33 PM,"(51.514446, -0.126545)",36261,http://opendatacommunities.org/id/london-borough-council/camden,1,Destination,origin043534
6766,043881,Massage and Special Treatment New Application,Parkland Natural Health Clinic,"239 High Holborn, London, WC1V 7DN",,Open,No,,,,,,2010-08-23,,,E05000138,Holborn and Covent Garden,530553.25,181505.71,-0.119842,51.517405,Nearest OS Open Map-Local Building,11/05/2017 07:37:33 PM,"(51.517405, -0.119842)",36179,http://opendatacommunities.org/id/london-borough-council/camden,1,Destination,origin043881
6935,049081,Massage and Special Treatment New Application,A & H Chinese Medicine Ltd,"150 Kentish Town Road, NW1 9QB",,Open,No,,,,,,2013-12-03,,,E05000131,Cantelowes,528992.22,184712.55,-0.141154,51.546582,Nearest OS Open Map-Local Building,11/05/2017 07:37:33 PM,"(51.546582, -0.141154)",35736,http://opendatacommunities.org/id/london-borough-council/camden,1,Destination,origin049081
7278,044127,Massage and Special Treatment New Application,Eclipse Hair Salon,"63 Charlotte Street, London, W1T 4PG",,Open,No,,,,,,2010-09-23,,,E05000129,Bloomsbury,529392.85,181727.74,-0.136475,51.519667,Nearest OS Open Map-Local Building,11/05/2017 07:37:33 PM,"(51.519667, -0.136475)",36119,http://opendatacommunities.org/id/london-borough-council/camden,1,Destination,origin044127
8829,041404,Massage and Special Treatment New Application,Simple Harmony,"75 Heath Street, London, NW3 6UG",,Open,No,19/11/2009,,,,,2009-09-18,,,E05000135,Hampstead Town,526359.06,185836.43,-0.178703,51.557278000000004,Nearest OS Open Map-Local Building,11/05/2017 07:37:33 PM,"(51.557278, -0.178703)",36395,http://opendatacommunities.org/id/london-borough-council/camden,1,Destination,origin041404
9320,050688,Massage and Special Treatment New Application,Pancras Square Leisure,"5 Pancras Square, N1C 4AG",,Open,No,10/10/2014,,,,,2014-07-16,,,E05000143,St Pancras and Somers Town,530044.62,183323.39,-0.126498,51.533857,Nearest OS Open Map-Local Building,11/05/2017 07:37:33 PM,"(51.533857, -0.126498)",35695,http://opendatacommunities.org/id/london-borough-council/camden,1,Destination,origin050688
9343,049485,Massage and Special Treatment New Application,BEAUTYWORKS,"20 Hanway Street, W1T 1UG",,Open,No,16/08/2013,,,,,2013-08-16,,,E05000129,Bloomsbury,529709.49,181430.3,-0.132023,51.516921999999994,Nearest OS Open Map-Local Building,11/05/2017 07:37:33 PM,"(51.516922, -0.132023)",35719,http://opendatacommunities.org/id/london-borough-council/camden,1,Destination,origin049485
9410,042801,Massage and Special Treatment New Application,Space NK Ltd,"4 Brunswick Centre, WC1N 1AE",,Open,No,21/06/2010,,,,,2010-05-18,,,E05000129,Bloomsbury,530265.36,182142.67,-0.123753,51.523196,Nearest OS Open Map-Local Building,11/05/2017 07:37:33 PM,"(51.523196, -0.123753)",36371,http://opendatacommunities.org/id/london-borough-council/camden,1,Destination,origin042801
10193,043503,Massage and Special Treatment New Application,Hell to Pay Tattoo & Piercing Studio,"188 Camden High Street, London, NW1 8QP",,Open,No,16/08/2010,,,,,2010-07-26,,Camden Town,E05000130,Camden Town with Primrose Hill,528899.47,183943.05,-0.142772,51.539688,Nearest OS Open Map-Local Building,11/05/2017 07:37:33 PM,"(51.539688, -0.142772)",36282,http://opendatacommunities.org/id/london-borough-council/camden,1,Destination,origin043503
10727,051663,Massage and Special Treatment New Application,THE ALBANY CLUB,"Little Albany Street, London, NW1 4DY",,Open,No,,,,,,2015-06-18,,,E05000142,Regent's Park,528881.9,182557.9,-0.143532,51.527244,Nearest OS Open Map-Local Building,11/05/2017 07:37:33 PM,"(51.527244, -0.143532)",35679,http://opendatacommunities.org/id/london-borough-council/camden,1,Destination,origin051663
11311,051070,Massage and Special Treatment New Application,O'LOVE NAIL BEAUTY,"229 Finchley Road, NW3 6LS",,Open,No,15/01/2015,,,,,2014-12-19,,,E05000133,Frognal and Fitzjohns,526316.49,184738.48,-0.17971099999999998,51.54742,Nearest OS Open Map-Local Building,11/05/2017 07:37:33 PM,"(51.54742, -0.179711)",35689,http://opendatacommunities.org/id/london-borough-council/camden,1,Destination,origin051070
11504,049741,Massage and Special Treatment New Application,Bamboo Natural Therapy,"104-106 Judd Street, WC1H 9NT",,Open,No,29/10/2013,,,,,2013-10-29,,,E05000141,King's Cross,530182.62,182673.24,-0.12475,51.527983,Nearest OS Open Map-Local Building,11/05/2017 07:37:33 PM,"(51.527983, -0.12475)",35713,http://opendatacommunities.org/id/london-borough-council/camden,1,Destination,origin049741
11531,042418,Massage and Special Treatment New Application,Ginseng,"103-105 Southampton Row, London, WC1B 4HH",,Open,No,14/04/2010,,,,,2010-06-04,,,E05000138,Holborn and Covent Garden,530397.56,181815.73,-0.12197000000000001,51.520227,Nearest OS Open Map-Local Building,11/05/2017 07:37:33 PM,"(51.520227, -0.12197)",36384,http://opendatacommunities.org/id/london-borough-council/camden,1,Destination,origin042418
11808,044298,Massage and Special Treatment New Application,C2 Clinic,"11 Heath Street, London, NW3 6TP",,Open,No,,,,,,2010-10-13,,,E05000133,Frognal and Fitzjohns,526327.97,185619.81,-0.179229,51.555338,Nearest OS Open Map-Local Building,11/05/2017 07:37:33 PM,"(51.555338, -0.179229)",36109,http://opendatacommunities.org/id/london-borough-council/camden,1,Destination,origin044298
11827,044222,Massage and Special Treatment New Application,The King's Cross Tattoo Parlour,"185 King's Cross Road, London, WC1X 9DB",,Open,No,,,,,,2010-05-10,,,E05000141,King's Cross,530530.86,182970.86,-0.119622,51.530577,Nearest OS Open Map-Local Building,11/05/2017 07:37:33 PM,"(51.530577, -0.119622)",36115,http://opendatacommunities.org/id/london-borough-council/camden,1,Destination,origin044222
12555,052032,Massage and Special Treatment New Application,BOJANGLES HAIR & BEAUTY,"158 Finchley Road, London, NW3 5HH",,Open,No,,,,,,2015-03-12,,,E05000133,Frognal and Fitzjohns,526220.18,184904.94,-0.181039,51.548938,Nearest OS Open Map-Local Building,11/05/2017 07:37:33 PM,"(51.548938, -0.181039)",35671,http://opendatacommunities.org/id/london-borough-council/camden,1,Destination,origin052032
12827,047324,Massage and Special Treatment New Application,C2 Clinic,"11 Heath Street, London, NW3 6TP",,Open,No,07/08/2012,,,,,2012-03-29,,,E05000133,Frognal and Fitzjohns,526327.97,185619.81,-0.179229,51.555338,Nearest OS Open Map-Local Building,11/05/2017 07:37:33 PM,"(51.555338, -0.179229)",35773,http://opendatacommunities.org/id/london-borough-council/camden,1,Destination,origin047324
13166,041721,Massage and Special Treatment New Application,Privato Hairdressing,"170 Regent's Park Road, London, NW1 8XN",,Open,No,04/06/2010,,,,,2009-04-12,,,E05000130,Camden Town with Primrose Hill,527944.05,184104.04,-0.15648199999999998,51.541352,Nearest OS Open Map-Local Building,11/05/2017 07:37:33 PM,"(51.541352, -0.156482)",36393,http://opendatacommunities.org/id/london-borough-council/camden,1,Origin,origin041721
13635,054507,Massage and Special Treatment New Application,The Healthy Way,"94 Leather Lane, London, EC1N 7TX",,Open,No,,,,,,2017-01-30,,,E05000138,Holborn and Covent Garden,531245.25,181996.31,-0.10969200000000001,51.521654,Nearest OS Open Map-Local Building,11/05/2017 07:37:33 PM,"(51.521654, -0.109692)",35653,http://opendatacommunities.org/id/london-borough-council/camden,1,Destination,origin054507
13684,047613,Massage and Special Treatment New Application,Hua Xia TCM,"139 Finchley Road, London, NW3 6JH",,Open,No,,,,,,2012-05-29,,,E05000144,Swiss Cottage,526676.18,184342.5,-0.17466900000000002,51.543781,Nearest OS Open Map-Local Building,11/05/2017 07:37:33 PM,"(51.543781, -0.174669)",35769,http://opendatacommunities.org/id/london-borough-council/camden,1,Destination,origin047613
14177,044416,Massage and Special Treatment New Application,Spring Health Leisure PLC,"81 Belsize Park Gardens, London, NW3 4NJ",,Open,No,,,,,,2010-10-29,,,E05000128,Belsize,527356.53,184624.98,-0.164761,51.546167,Nearest OS Open Map-Local Building,11/05/2017 07:37:33 PM,"(51.546167, -0.164761)",36074,http://opendatacommunities.org/id/london-borough-council/camden,1,Destination,origin044416
14950,045350,Massage and Special Treatment New Application,Remix Cuts & Colours,"149 Broadhurst Gardens, London, NW6 3BE",,Open,No,,,,,,2011-02-16,,,E05000145,West Hampstead,525633.44,184581.12,-0.189613,51.546158,Nearest OS Open Map-Local Building,11/05/2017 07:37:33 PM,"(51.546158, -0.189613)",36007,http://opendatacommunities.org/id/london-borough-council/camden,1,Destination,origin045350
15056,042406,Massage and Special Treatment New Application,Novotel London St Pancras,"100-110 Euston Road, London, NW1 2AJ",,Open,No,31/08/2010,,,,,2010-03-31,,,E05000143,St Pancras and Somers Town,529927.24,182745.09,-0.128402,51.528687,Nearest OS Open Map-Local Building,11/05/2017 07:37:33 PM,"(51.528687, -0.128402)",36387,http://opendatacommunities.org/id/london-borough-council/camden,1,Destination,origin042406
15500,046912,Massage and Special Treatment New Application,ART OF BEAUTY,"24 Chalk Farm Road, London, NW1 8AG",,Open,No,,,,,,2011-12-15,,Camden Town,E05000130,Camden Town with Primrose Hill,528611.38,184250.32,-0.146811,51.542515,Nearest OS Open Map-Local Building,11/05/2017 07:37:33 PM,"(51.542515, -0.146811)",35785,http://opendatacommunities.org/id/london-borough-council/camden,1,Destination,origin046912
15592,048915,Massage and Special Treatment New Application,Happy Lotus Health Spa,"187 Drury Lane, London, WC2B 5QD",,Open,No,,,,,,2013-03-18,,Seven Dials,E05000138,Holborn and Covent Garden,530289.5,181377.25,-0.123688,51.516312,Nearest OS Open Map-Local Building,11/05/2017 07:37:33 PM,"(51.516312, -0.123688)",35741,http://opendatacommunities.org/id/london-borough-council/camden,1,Destination,origin048915
16200,043875,Massage and Special Treatment New Application,Sweet roses,"8 Windmill Street, London, W1T 2JE",,Open,No,,,,,,2010-08-20,,,E05000129,Bloomsbury,529586.97,181614.43,-0.13372,51.518605,Nearest OS Open Map-Local Building,11/05/2017 07:37:33 PM,"(51.518605, -0.13372)",36182,http://opendatacommunities.org/id/london-borough-council/camden,1,Destination,origin043875
17261,054598,Massage and Special Treatment New Application,CRYSTALISE HAIR & BEAUTY,"272 Belsize Road, London, NW6 4BT",,Open,No,,,,,,2017-02-14,,,E05000140,Kilburn,525452.06,183672.15,-0.192551,51.53803,Nearest OS Open Map-Local Building,11/05/2017 07:37:33 PM,"(51.53803, -0.192551)",35650,http://opendatacommunities.org/id/london-borough-council/camden,1,Destination,origin054598
17413,040835,Massage and Special Treatment New Application,Ahava UK Ltd,"39 Monmouth Street, London, WC2H 9DD",,Open,No,,,,,,2009-07-22,,Seven Dials,E05000138,Holborn and Covent Garden,530047.28,181157.1,-0.12725799999999998,51.514389,Nearest OS Open Map-Local Building,11/05/2017 07:37:33 PM,"(51.514389, -0.127258)",36404,http://opendatacommunities.org/id/london-borough-council/camden,1,Destination,origin040835
17513,043880,Massage and Special Treatment New Application,Rich's Beauty,"90 Tottenham Court Road, London, W1T 4TJ",,Open,No,,,,,,2010-08-23,,,E05000129,Bloomsbury,529415.12,181954.86,-0.136071,51.521703,Nearest OS Open Map-Local Building,11/05/2017 07:37:33 PM,"(51.521703, -0.136071)",36180,http://opendatacommunities.org/id/london-borough-council/camden,1,Destination,origin043880
17815,041729,Massage and Special Treatment New Application,Depicool,"123 King's Cross Road, London, WC1X 9NH",,Open,No,25/01/2010,,,,,2009-08-12,,,E05000141,King's Cross,530761.37,182808.35,-0.11636099999999999,51.529063,Nearest OS Open Map-Local Building,11/05/2017 07:37:33 PM,"(51.529063, -0.116361)",36392,http://opendatacommunities.org/id/london-borough-council/camden,1,Destination,origin041729
17957,052327,Massage and Special Treatment New Application,The Pharm,"4 Heath Street, London, NW3 6TE",,Open,No,22/01/2016,,,,,2015-12-22,,,E05000135,Hampstead Town,526401.05,185652.05,-0.17816400000000002,51.555611,Nearest OS Open Map-Local Building,11/05/2017 07:37:33 PM,"(51.555611, -0.178164)",35669,http://opendatacommunities.org/id/london-borough-council/camden,1,Destination,origin052327
18757,049086,Massage and Special Treatment New Application,Bibas Hair and Beauty,"72 Marchmont Street, London, WC1N 1AB",,Open,No,,,,,,2013-04-16,,,E05000129,Bloomsbury,530167.12,182389.54,-0.125078,51.525437,Nearest OS Open Map-Local Building,11/05/2017 07:37:33 PM,"(51.525437, -0.125078)",35733,http://opendatacommunities.org/id/london-borough-council/camden,1,Destination,origin049086
18867,049770,Massage and Special Treatment New Application,REBATA JON,"69 Heath Street, NW3 6UG",,Open,No,25/11/2013,,,,,2013-11-25,,,E05000135,Hampstead Town,526359.06,185836.43,-0.178703,51.557278000000004,Nearest OS Open Map-Local Building,11/05/2017 07:37:33 PM,"(51.557278, -0.178703)",35712,http://opendatacommunities.org/id/london-borough-council/camden,1,Destination,origin049770
18990,041261,Massage and Special Treatment New Application,Hua Xia TCM,"139 Finchley Road, London, NW3 6JH",,Open,No,,,,,,2009-08-19,,,E05000144,Swiss Cottage,526676.18,184342.5,-0.17466900000000002,51.543781,Nearest OS Open Map-Local Building,11/05/2017 07:37:33 PM,"(51.543781, -0.174669)",36398,http://opendatacommunities.org/id/london-borough-council/camden,1,Destination,origin041261
19764,049084,Massage and Special Treatment New Application,Venus & Mars,"19 Goldhurst Terrace, London, NW6 3HX",,Open,No,,,,,,2013-04-16,,,E05000144,Swiss Cottage,526335.7,184551.47,-0.179501,51.545735,Nearest OS Open Map-Local Building,11/05/2017 07:37:33 PM,"(51.545735, -0.179501)",35735,http://opendatacommunities.org/id/london-borough-council/camden,1,Destination,origin049084
20835,044006,Massage and Special Treatment New Application,The Gym Group,"37-63 Fortune Green Road, London, NW6 1DR",,Open,No,,,,,,2010-09-14,,,E05000132,Fortune Green,525087.81,185591.48,-0.19711800000000002,51.555359,Nearest OS Open Map-Local Building,11/05/2017 07:37:33 PM,"(51.555359, -0.197118)",36125,http://opendatacommunities.org/id/london-borough-council/camden,1,Destination,origin044006
21263,049483,Massage and Special Treatment New Application,Celebrity Salon,"15 Kentish Town Road, NW1 8NH",,Open,No,18/09/2013,,,,,2013-08-15,,Camden Town,E05000130,Camden Town with Primrose Hill,528899.47,183943.05,-0.142772,51.539688,Nearest OS Open Map-Local Building,11/05/2017 07:37:33 PM,"(51.539688, -0.142772)",35720,http://opendatacommunities.org/id/london-borough-council/camden,1,Destination,origin049483
21833,049511,Massage and Special Treatment New Application,BUPA - KIINGS CROSS,"300-306 Gray's Inn Road, WC1X 8DU",,Open,No,,,,,,2013-06-09,,,E05000141,King's Cross,530616.1,182754.21,-0.118474,51.528611,Nearest OS Open Map-Local Building,11/05/2017 07:37:33 PM,"(51.528611, -0.118474)",35718,http://opendatacommunities.org/id/london-borough-council/camden,1,Destination,origin049511
22605,051651,Massage and Special Treatment New Application,BEAUTY AND WELLBEING CLINIC,"92 Camden Road, NW1 9EA",,Open,No,17/07/2015,,,,,2015-08-06,,,E05000130,Camden Town with Primrose Hill,529205.13,184115.83,-0.13830399999999998,51.541171000000006,Nearest OS Open Map-Local Building,11/05/2017 07:37:33 PM,"(51.541171, -0.138304)",35680,http://opendatacommunities.org/id/london-borough-council/camden,1,Destination,origin051651
22611,049182,Massage and Special Treatment New Application,Vanity Nails & Beauty,"32 Camden Road, NW1 9DP",,Open,No,,,,,,2013-05-21,,Camden Town,E05000130,Camden Town with Primrose Hill,529039.88,183969.75,-0.140739,51.539896,Nearest OS Open Map-Local Building,11/05/2017 07:37:33 PM,"(51.539896, -0.140739)",35727,http://opendatacommunities.org/id/london-borough-council/camden,1,Destination,origin049182
22749,048251,Massage and Special Treatment New Application,The Tanning Shop,"24 Warren Street, W1T 5LY",,Open,No,19/12/2012,,,,,2012-10-16,,,E05000129,Bloomsbury,529087.01,182151.41,-0.140725,51.523545,Nearest OS Open Map-Local Building,11/05/2017 07:37:33 PM,"(51.523545, -0.140725)",35752,http://opendatacommunities.org/id/london-borough-council/camden,1,Destination,origin048251
23193,041246,Massage and Special Treatment New Application,Sen Medicine,"18 Hampstead High Street, London, NW3 1PX",,Open,No,18/08/2009,,,,,2009-08-18,,,E05000135,Hampstead Town,526543.19,185702.56,-0.176097,51.556033,Nearest OS Open Map-Local Building,11/05/2017 07:37:33 PM,"(51.556033, -0.176097)",36399,http://opendatacommunities.org/id/london-borough-council/camden,1,Destination,origin041246
23488,051068,Massage and Special Treatment New Application,M And F Cuts,"62 Fortune Green Road, NW6 1DT",,Open,No,,,,,,2014-08-12,,,E05000132,Fortune Green,525129.42,185423.24,-0.196578,51.553838,Nearest OS Open Map-Local Building,11/05/2017 07:37:33 PM,"(51.553838, -0.196578)",35690,http://opendatacommunities.org/id/london-borough-council/camden,1,Destination,origin051068
23696,041797,Massage and Special Treatment New Application,Holiday Inn (Kings Cross),"1 King's Cross Road, London, WC1X 9HX",,Open,No,05/02/2010,,,,,2009-12-17,,,E05000141,King's Cross,530943.27,182503.28,-0.113854,51.52628,Nearest OS Open Map-Local Building,11/05/2017 07:37:33 PM,"(51.52628, -0.113854)",36391,http://opendatacommunities.org/id/london-borough-council/camden,1,Destination,origin041797
23722,052487,Massage and Special Treatment New Application,PIVOINE NAIL SPA,"4 South Hill Park, London, NW3 2SB",,Open,No,,,,,,2016-01-27,,,E05000135,Hampstead Town,527275.44,185696.06,-0.165543,51.55581,Nearest OS Open Map-Local Building,11/05/2017 07:37:33 PM,"(51.55581, -0.165543)",35668,http://opendatacommunities.org/id/london-borough-council/camden,1,Destination,origin052487
24611,049109,Massage and Special Treatment New Application,Beauty By Magdalena,"65 South End Road, NW3 2QB",,Open,No,23/05/2013,,,,,2013-04-24,,,E05000135,Hampstead Town,527156.73,185667.4,-0.16726400000000002,51.55558,Nearest OS Open Map-Local Building,11/05/2017 07:37:33 PM,"(51.55558, -0.167264)",35730,http://opendatacommunities.org/id/london-borough-council/camden,1,Destination,origin049109
26432,048887,Massage and Special Treatment New Application,A & H Chinese Medicine Ltd,"150 Kentish Town Road, NW1 9QB",,Open,No,,,,,,2013-12-03,,,E05000131,Cantelowes,528992.22,184712.55,-0.141154,51.546582,Nearest OS Open Map-Local Building,11/05/2017 07:37:33 PM,"(51.546582, -0.141154)",35743,http://opendatacommunities.org/id/london-borough-council/camden,1,Destination,origin048887
26829,049301,Massage and Special Treatment New Application,Body Exchange.Com,"170 Royal College Street, London, NW1 0SP",,Open,No,,,,,,2013-04-07,,,E05000131,Cantelowes,529236.01,184161.88,-0.13784200000000002,51.541578,Nearest OS Open Map-Local Building,11/05/2017 07:37:33 PM,"(51.541578, -0.137842)",35723,http://opendatacommunities.org/id/london-borough-council/camden,1,Destination,origin049301
26957,049443,Massage and Special Treatment New Application,GINKGO HEALTH & BEAUTY,"98 Cleveland Street, W1T 6NR",,Open,No,12/09/2013,,,,,2013-07-08,,,E05000129,Bloomsbury,529048.09,182090.97,-0.141308,51.52301,Nearest OS Open Map-Local Building,11/05/2017 07:37:33 PM,"(51.52301, -0.141308)",35721,http://opendatacommunities.org/id/london-borough-council/camden,1,Destination,origin049443
27792,043882,Massage and Special Treatment New Application,Hair Beauty Sunbed Centre,"204 Kentish Town Road, London, NW5 2AD",,Open,No,,,,,,2010-08-23,,,E05000131,Cantelowes,529005.37,184917.25,-0.14088900000000001,51.548419,Nearest OS Open Map-Local Building,11/05/2017 07:37:33 PM,"(51.548419, -0.140889)",36178,http://opendatacommunities.org/id/london-borough-council/camden,1,Destination,origin043882
27976,041058,Massage and Special Treatment New Application,Frankie Cochrane,"42 Lamb's Conduit Street, London, WC1N 3LJ",,Open,No,,,,,,2009-07-24,,,E05000138,Holborn and Covent Garden,530681.71,181949.46,-0.117827,51.521363,Nearest OS Open Map-Local Building,11/05/2017 07:37:33 PM,"(51.521363, -0.117827)",36400,http://opendatacommunities.org/id/london-borough-council/camden,1,Destination,origin041058
28301,049519,Massage and Special Treatment New Application,AURA NAILS,"160c Finchley Road, London, NW3 5HD",,Open,No,,,,,,2013-09-13,,,E05000133,Frognal and Fitzjohns,526206.41,184952.7,-0.181221,51.54937,Nearest OS Open Map-Local Building,11/05/2017 07:37:33 PM,"(51.54937, -0.181221)",35717,http://opendatacommunities.org/id/london-borough-council/camden,1,Destination,origin049519
29471,045633,Massage and Special Treatment New Application,Nail Studio,"235 Finchley Road, London, NW3 6LS",,Open,No,08/02/2013,,,,,2011-01-04,,,E05000133,Frognal and Fitzjohns,526316.49,184738.48,-0.17971099999999998,51.54742,Nearest OS Open Map-Local Building,11/05/2017 07:37:33 PM,"(51.54742, -0.179711)",35978,http://opendatacommunities.org/id/london-borough-council/camden,1,Destination,origin045633
30960,040818,Massage and Special Treatment New Application,Simple Harmony,"75 Heath Street, London, NW3 6UG",,Open,No,10/08/2009,,,,,2009-07-21,,,E05000135,Hampstead Town,526359.06,185836.43,-0.178703,51.557278000000004,Nearest OS Open Map-Local Building,11/05/2017 07:37:33 PM,"(51.557278, -0.178703)",36405,http://opendatacommunities.org/id/london-borough-council/camden,1,Destination,origin040818
31085,048148,Massage and Special Treatment New Application,Lemoge Clinic,"94 Kilburn High Road, NW6 4HS",,Open,No,,,,,,2012-09-20,,,E05000140,Kilburn,525373.48,183762.02,-0.193651,51.538855,Nearest OS Open Map-Local Building,11/05/2017 07:37:33 PM,"(51.538855, -0.193651)",35755,http://opendatacommunities.org/id/london-borough-council/camden,1,Destination,origin048148
31388,047143,Massage and Special Treatment New Application,NATURA DAY SPA LTD,"64a Hampstead High Street, London, NW3 1QH",,Open,No,01/05/2012,,,,,2012-08-02,,,E05000135,Hampstead Town,526385.31,185716.08,-0.178368,51.55619,Nearest OS Open Map-Local Building,11/05/2017 07:37:33 PM,"(51.55619, -0.178368)",35781,http://opendatacommunities.org/id/london-borough-council/camden,1,Destination,origin047143
32808,048179,Massage and Special Treatment New Application,VIDA HAIR AND BEAUTY,"11 Adelaide Road, NW3 3QE",,Open,No,16/10/2012,,,,,2012-05-10,,Camden Town,E05000136,Haverstock,528161.47,184381.14,-0.153248,51.543793,Nearest OS Open Map-Local Building,11/05/2017 07:37:33 PM,"(51.543793, -0.153248)",35754,http://opendatacommunities.org/id/london-borough-council/camden,1,Destination,origin048179
33239,043876,Massage and Special Treatment New Application,Zen,"178 Gray's Inn Road, London, WC1X 8EW",,Open,No,,,,,,2010-08-20,,,E05000138,Holborn and Covent Garden,530904.97,182095.62,-0.11455699999999999,51.522625,Nearest OS Open Map-Local Building,11/05/2017 07:37:33 PM,"(51.522625, -0.114557)",36181,http://opendatacommunities.org/id/london-borough-council/camden,1,Destination,origin043876
33898,042626,Massage and Special Treatment New Application,Kamal Spa Limited,"180 Broadhurst Gardens, London, NW6 3AY",,Open,No,01/06/2010,,,,,2010-04-28,,,E05000145,West Hampstead,525657.58,184630.67,-0.189247,51.546597999999996,Nearest OS Open Map-Local Building,11/05/2017 07:37:33 PM,"(51.546598, -0.189247)",36373,http://opendatacommunities.org/id/london-borough-council/camden,1,Destination,origin042626
34335,048828,Massage and Special Treatment New Application,ALTERNATIVE ACUPUNCTURE,"190b Kilburn High Road, NW6 4JD",,Open,No,,,,,,2013-02-28,,,E05000140,Kilburn,525177.18,184008.69,-0.196392,51.541115000000005,Nearest OS Open Map-Local Building,11/05/2017 07:37:33 PM,"(51.541115, -0.196392)",35745,http://opendatacommunities.org/id/london-borough-council/camden,1,Destination,origin048828
34409,045476,Massage and Special Treatment New Application,Black Garden Tattoo,"183 Drury Lane, London, WC2B 5QF",,Open,No,,,,,,2011-03-16,,Seven Dials,E05000138,Holborn and Covent Garden,530289.5,181377.25,-0.123688,51.516312,Nearest OS Open Map-Local Building,11/05/2017 07:37:33 PM,"(51.516312, -0.123688)",35986,http://opendatacommunities.org/id/london-borough-council/camden,1,Destination,origin045476
34714,046790,Massage and Special Treatment New Application,Camden Nails & Beauty,"73 Parkway, London, NW1 7PP",,Open,No,24/01/2012,,,,,2011-10-31,,Camden Town,E05000130,Camden Town with Primrose Hill,528751.95,183639.94,-0.145009,51.536998,Nearest OS Open Map-Local Building,11/05/2017 07:37:33 PM,"(51.536998, -0.145009)",35798,http://opendatacommunities.org/id/london-borough-council/camden,1,Destination,origin046790
34814,046728,Massage and Special Treatment New Application,Caprice Hair and Beauty,"150 Haverstock Hill, London, NW3 2AY",,Open,No,,,,,,2011-07-10,,,E05000134,Gospel Oak,527554.48,184953.76,-0.16178900000000002,51.549077000000004,Nearest OS Open Map-Local Building,11/05/2017 07:37:33 PM,"(51.549077, -0.161789)",35802,http://opendatacommunities.org/id/london-borough-council/camden,1,Destination,origin046728
35233,048825,Massage and Special Treatment New Application,GARY INGHAM SALON & SPA,"63-67 Heath Street, NW3 6UG",,Open,No,,,,,,2013-02-26,,,E05000135,Hampstead Town,526359.06,185836.43,-0.178703,51.557278000000004,Nearest OS Open Map-Local Building,11/05/2017 07:37:33 PM,"(51.557278, -0.178703)",35746,http://opendatacommunities.org/id/london-borough-council/camden,1,Destination,origin048825
35500,044718,Massage and Special Treatment New Application,Rich's Wellbeing & Being Centre,"92 Tottenham Court Road, London, W1T 4TL",,Open,No,,,,,,2010-07-12,,,E05000129,Bloomsbury,529415.12,181954.86,-0.136071,51.521703,Nearest OS Open Map-Local Building,11/05/2017 07:37:33 PM,"(51.521703, -0.136071)",36043,http://opendatacommunities.org/id/london-borough-council/camden,1,Destination,origin044718
